"Product","Blackbox flight data recorder by Nicholas Sherlock"
"firmwareType",5
"firmware","5.0"
"firmwarePatch",0
"firmwareVersion","5.0.0"
"Firmware revision","Indiflight 5.0.0 (efb271544) STM32H743"
"Firmware date","Oct 25 2024 21:24:09"
"Board information","MTKS MATEKH743"
"Log start datetime","0000-01-01T00:00:00.000+00:00"
"Craft name",""
"frameIntervalI",64
"frameIntervalPNum",1
"frameIntervalPDenom",4
"minthrottle",1070
"maxthrottle",2000
"gyroScale",1.7453292519943295e-8
"motorOutput","158,2047"
"acc_1G",2048
"vbatscale",110
"vbatmincellvoltage",330
"vbatwarningcellvoltage",350
"vbatmaxcellvoltage",430
"vbatref",1522
"currentMeterOffset",0
"currentMeterScale",280
"looptime",125
"gyro_sync_denom",1
"pid_process_denom",4
"thrMid",50
"thrExpo",0
"tpa_mode",1
"tpa_rate",65
"tpa_breakpoint",1350
"rc_rates","7,7,7"
"rc_expo","0,0,0"
"rates","67,67,67"
"rate_limits","1998,1998,1998"
"rollPID","45,80,40,30,120"
"pitchPID","47,84,46,34,125"
"yawPID","45,80,0,0,120"
"levelPID","50,50,75"
"magPID","40,,"
"d_min_gain",37
"d_min_advance",20
"dterm_filter_type",0
"dterm_lpf_hz",0
"dterm_lpf_dyn_hz","75,150"
"dterm_filter2_type",0
"dterm_lpf2_hz",0
"yaw_lpf_hz",0
"dterm_notch_hz",0
"dterm_notch_cutoff",0
"itermWindupPointPercent",85
"iterm_relax",1
"iterm_relax_type",1
"iterm_relax_cutoff",15
"pidAtMinThrottle",1
"anti_gravity_gain",80
"abs_control_gain",0
"use_integrated_yaw",0
"ff_transition",0
"ff_averaging",0
"ff_smooth_factor",25
"ff_jitter_factor",7
"ff_boost",15
"ff_max_rate_limit",90
"yawRateAccelLimit",0
"rateAccelLimit",0
"pidSumLimit",500
"pidSumLimitYaw",400
"deadband",0
"yaw_deadband",0
"gyro_lpf",0
"gyro_soft_type",0
"gyro_lowpass_hz",100
"gyro_lowpass_dyn_hz","0,250"
"gyro_soft2_type",0
"gyro_lowpass2_hz",0
"gyro_notch_hz","0,0"
"gyro_notch_cutoff","0,0"
"gyro_to_use",0
"dyn_notch_max_hz",600
"dyn_notch_count",0
"dyn_notch_q",500
"dyn_notch_min_hz",100
"dshot_bidir",1
"motor_poles",14
"gyro_rpm_notch_harmonics",3
"gyro_rpm_notch_q",500
"gyro_rpm_notch_min",60
"rpm_filter_fade_range_hz",50
"rpm_notch_lpf",150
"acc_lpf_hz",2500
"acc_hardware",0
"gyro_cal_on_first_arm",0
"airmode_activate_throttle",25
"serialrx_provider",2
"unsynced_fast_pwm",0
"fast_pwm_protocol",7
"motor_pwm_rate",480
"digitalIdleOffset",550
"debug_mode",0
"features",272892936
"rc_smoothing_mode",1
"rc_smoothing_auto_factor_setpoint",30
"rc_smoothing_auto_factor_throttle",30
"rc_smoothing_feedforward_hz",0
"rc_smoothing_setpoint_hz",0
"rc_smoothing_throttle_hz",0
"rc_smoothing_debug_axis",0
"rc_smoothing_active_cutoffs_ff_sp_thr","37,37,37"
"rc_smoothing_rx_average",10139
"rates_type",3
"fields_disabled_mask",581
"blackbox_high_resolution",1
"vbat_sag_compensation",0
"dynamic_idle_min_rpm",0
"dyn_idle_p_gain",50
"dyn_idle_i_gain",50
"dyn_idle_d_gain",50
"dyn_idle_max_increase",150
"simplified_pids_mode",2
"simplified_master_multiplier",100
"simplified_i_gain",100
"simplified_d_gain",100
"simplified_pi_gain",100
"simplified_dmax_gain",100
"simplified_feedforward_gain",100
"simplified_pitch_d_gain",100
"simplified_pitch_pi_gain",100
"simplified_dterm_filter",0
"simplified_dterm_filter_multiplier",100
"simplified_gyro_filter",1
"simplified_gyro_filter_multiplier",40
"motor_output_limit",100
"throttle_limit_type",0
"throttle_limit_percent",100
"throttle_boost",5
"throttle_boost_cutoff",15
"loopIteration","time","rcCommand[0]","rcCommand[1]","rcCommand[2]","rcCommand[3]","vbatLatest","amperageLatest","gyroADC[0]","gyroADC[1]","gyroADC[2]","gyroADCafterRpm[0]","gyroADCafterRpm[1]","gyroADCafterRpm[2]","accSmooth[0]","accSmooth[1]","accSmooth[2]","accADCafterRpm[0]","accADCafterRpm[1]","accADCafterRpm[2]","motor[0]","motor[1]","motor[2]","motor[3]","quat[0]","quat[1]","quat[2]","quat[3]","alpha[0]","alpha[1]","alpha[2]","quatSp[0]","quatSp[1]","quatSp[2]","quatSp[3]","gyroSp[0]","gyroSp[1]","gyroSp[2]","alphaSp[0]","alphaSp[1]","alphaSp[2]","spfSp[0]","spfSp[1]","spfSp[2]","dv[0]","dv[1]","dv[2]","dv[3]","dv[4]","dv[5]","u[0]","u[1]","u[2]","u[3]","u[4]","u[5]","u[6]","u[7]","u_state[0]","u_state[1]","u_state[2]","u_state[3]","u_state[4]","u_state[5]","u_state[6]","u_state[7]","omega[0]","omega[1]","omega[2]","omega[3]","omega[4]","omega[5]","omega[6]","omega[7]","omegaUnfiltered[0]","omegaUnfiltered[1]","omegaUnfiltered[2]","omegaUnfiltered[3]","omegaUnfiltered[4]","omegaUnfiltered[5]","omegaUnfiltered[6]","omegaUnfiltered[7]","omega_dot[0]","omega_dot[1]","omega_dot[2]","omega_dot[3]","omega_dot[4]","omega_dot[5]","omega_dot[6]","omega_dot[7]","pos[0]","pos[1]","pos[2]","extTime","extPos[0]","extPos[1]","extPos[2]","posSp[0]","posSp[1]","posSp[2]","vel[0]","vel[1]","vel[2]","extVel[0]","extVel[1]","extVel[2]","velSp[0]","velSp[1]","velSp[2]","accSp[0]","accSp[1]","accSp[2]","extQuat[0]","extQuat[1]","extQuat[2]","extQuat[3]","ekf_pos[0]","ekf_pos[1]","ekf_pos[2]","ekf_vel[0]","ekf_vel[1]","ekf_vel[2]","ekf_quat[0]","ekf_quat[1]","ekf_quat[2]","ekf_quat[3]","ekf_acc_b[0]","ekf_acc_b[1]","ekf_acc_b[2]","ekf_gyro_b[0]","ekf_gyro_b[1]","ekf_gyro_b[2]","acc_modeled[0]","acc_modeled[1]","acc_modeled[2]","nn_active","flightModeFlags","stateFlags","failsafePhase","rxSignalReceived","rxFlightChannelsValid","heading[0]","heading[1]","heading[2]"
0,13432282,-12,0,0,10000,1521,300,6,13,6,15,12,11,-26,111,-2047,213,235,-1959,160,158,159,158,-5519,124,162,-5962,3,3,1,8127,0,0,0,-2,0,0,-2,-3,-1,0,0,0,0,0,0,-3,-5,-2,7,0,3,0,0,0,0,0,2,2,1,1,0,0,0,0,264,259,268,271,0,0,0,0,260,260,266,272,0,0,0,0,0,0,0,0,0,0,0,0,1405,-3073,-95,13410047,1405,-3073,-98,0,0,0,0,0,1,1,2,5,0,0,0,0,0,200,-5511,109,33,-5972,1405,-3073,-95,0,0,1,-5519,124,162,-5962,0,-3,63,-3,0,-2,0,0,0,0,"","","","","",-0.04999099039632166,0.004687205356084009,1.6480205103379018,0,0,0,"","","",NaN,NaN,NaN,NaN
4,13434298,-12,0,0,10000,1521,300,5,6,3,-1,4,4,-6,104,-2047,-184,-28,-1870,159,158,158,158,-5519,124,162,-5962,3,3,2,8127,0,0,0,-2,0,0,-2,-1,-1,0,0,0,0,0,0,-3,-2,-1,4,1,1,0,0,0,0,0,2,2,1,1,0,0,0,0,264,259,268,271,0,0,0,0,265,260,268,271,0,0,0,0,0,0,0,0,0,0,0,0,1405,-3073,-95,13410047,1405,-3073,-98,0,0,0,0,0,1,1,2,5,0,0,0,0,0,200,-5511,109,33,-5972,1405,-3073,-95,0,0,1,-5519,124,162,-5962,0,-3,63,-3,0,-2,0,0,0,0,1,7,0,1,1,-0.04999099039632166,0.004687205356084009,1.6480205103379018,0,0,0,"","","",NaN,NaN,NaN,NaN
8,13436314,-12,0,0,10000,1521,300,-1,5,5,-4,-11,11,-2,89,-2039,297,216,-1727,159,158,159,158,-5519,124,162,-5962,1,4,2,8127,0,0,0,-2,0,0,0,-1,-1,0,0,0,0,0,0,0,-2,-2,3,0,2,1,0,0,0,0,2,2,1,1,0,0,0,0,264,259,268,271,0,0,0,0,265,260,269,271,0,0,0,0,0,0,0,0,0,0,0,0,1405,-3073,-95,13410047,1405,-3073,-98,0,0,0,0,0,1,1,2,5,0,0,0,0,0,200,-5511,109,33,-5972,1405,-3073,-95,0,0,1,-5519,124,162,-5962,0,-3,63,-3,0,-2,0,0,0,0,1,7,0,1,1,-0.04999099039632166,0.004687205356084009,1.6480205103379018,0,0,0,"","","",NaN,NaN,NaN,NaN
12,13438330,-12,0,0,10000,1521,300,1,2,-3,2,6,-11,10,87,-2034,-162,-63,-2034,159,158,158,158,-5519,124,162,-5962,0,2,1,8127,0,0,0,-2,0,0,-1,0,1,0,0,0,0,0,0,-1,-1,1,1,0,0,0,0,0,0,0,2,2,1,1,0,0,0,0,264,259,268,271,0,0,0,0,263,259,268,269,0,0,0,0,0,0,0,0,0,0,0,0,1405,-3073,-95,13410047,1405,-3073,-98,0,0,0,0,0,1,1,2,5,0,0,0,0,0,200,-5511,109,33,-5972,1405,-3073,-95,0,0,1,-5519,124,162,-5962,0,-3,63,-3,0,-2,0,0,0,0,1,7,0,1,1,-0.04999099039632166,0.004687205356084009,1.6480205103379018,0,0,0,"","","",NaN,NaN,NaN,NaN
16,13440346,-12,0,0,10000,1521,300,1,2,1,2,3,2,11,82,-2041,201,317,-1778,159,158,158,158,-5519,124,162,-5962,0,2,1,8127,0,0,0,-2,0,0,-1,0,0,0,0,0,0,0,0,-1,-1,0,2,1,0,0,0,0,0,0,2,2,1,1,0,0,0,0,264,260,268,271,0,0,0,0,265,262,268,271,0,0,0,0,0,0,0,0,0,0,0,0,1405,-3073,-95,13410047,1405,-3073,-98,0,0,0,0,0,1,1,2,5,0,0,0,0,0,200,-5511,109,33,-5972,1405,-3073,-95,0,0,1,-5519,124,162,-5962,0,-3,63,-3,0,-2,0,0,0,0,1,7,0,1,1,-0.04999099039632166,0.004687205356084009,1.6480205103379018,0,0,0,"","","",NaN,NaN,NaN,NaN
20,13442362,-12,0,0,10000,1521,300,8,-7,-3,10,4,-6,15,94,-2046,-199,14,-2001,158,160,158,158,-5519,124,162,-5962,1,-1,0,8127,0,0,0,-2,0,0,-2,2,1,0,0,0,0,0,0,-4,3,1,0,5,0,0,0,0,0,0,2,2,1,1,0,0,0,0,264,260,268,271,0,0,0,0,263,257,268,272,0,0,0,0,0,0,0,0,0,0,0,0,1405,-3073,-95,13410047,1405,-3073,-98,0,0,0,0,0,1,1,2,5,0,0,0,0,0,200,-5511,109,33,-5972,1405,-3073,-95,0,0,1,-5519,124,162,-5962,0,-3,63,-3,0,-2,0,0,0,0,1,7,0,1,1,-0.04999099039632166,0.004687205356084009,1.6480205103379018,0,0,0,"","","",NaN,NaN,NaN,NaN
24,13444378,-12,0,0,10000,1521,300,7,-6,-4,14,-18,-5,1,102,-2043,189,67,-1985,158,160,158,158,-5519,124,162,-5962,1,-1,-1,8127,0,0,0,-2,0,0,-2,1,1,0,0,0,0,0,0,-4,2,2,1,5,0,1,0,0,0,0,2,2,1,1,0,0,0,0,264,260,268,271,0,0,0,0,263,260,268,272,0,0,0,0,0,0,0,0,0,0,0,0,1405,-3073,-95,13410047,1405,-3073,-98,0,0,0,0,0,1,1,2,5,0,0,0,0,0,200,-5511,109,33,-5972,1405,-3073,-95,0,0,1,-5519,124,162,-5962,0,-3,63,-3,0,-2,0,0,0,0,1,7,0,1,1,-0.04999099039632166,0.004687205356084009,1.6480205103379018,0,0,0,"","","",NaN,NaN,NaN,NaN
28,13446394,-12,0,0,10000,1521,300,15,-6,-4,25,-2,-6,-11,111,-2036,-110,21,-2046,159,161,158,158,-5519,124,162,-5962,2,-3,-1,8127,0,0,0,-2,0,0,-4,1,1,0,0,0,0,0,0,-7,2,2,3,7,0,1,0,0,0,0,2,2,1,1,0,0,0,0,264,260,268,271,0,0,0,0,265,260,268,268,0,0,0,0,0,0,0,0,0,0,0,0,1405,-3073,-95,13410047,1405,-3073,-98,0,0,0,0,0,1,1,2,5,0,0,0,0,0,200,-5511,109,33,-5972,1405,-3073,-95,0,0,1,-5519,124,162,-5962,0,-3,63,-3,0,-2,0,0,0,0,1,7,0,1,1,-0.04999099039632166,0.004687205356084009,1.6480205103379018,0,0,0,"","","",NaN,NaN,NaN,NaN
32,13448410,-12,0,0,10000,1521,300,10,1,-3,8,1,-2,-26,121,-2030,13,135,-1923,159,159,158,158,-5519,124,162,-5962,3,-2,-1,8127,0,0,0,-2,0,0,-3,0,1,0,0,0,0,0,0,-5,0,1,3,3,0,0,0,0,0,0,2,2,1,1,0,0,0,0,264,260,268,271,0,0,0,0,265,260,266,271,0,0,0,0,0,0,0,0,0,0,0,0,1405,-3073,-95,13410047,1405,-3073,-98,0,0,0,0,0,1,1,2,5,0,0,0,0,0,200,-5511,109,33,-5972,1405,-3073,-95,0,0,1,-5519,124,162,-5962,0,-3,63,-3,0,-2,0,0,0,0,1,7,0,1,1,-0.04999099039632166,0.004687205356084009,1.6480205103379018,0,0,0,"","","",NaN,NaN,NaN,NaN
36,13450426,-12,0,0,10000,1528,428,15,-2,-1,13,20,-5,-36,128,-2025,-107,185,-2150,159,160,158,158,-5519,124,162,-5962,4,-3,-1,8127,0,0,0,-2,0,0,-4,0,0,0,0,0,0,0,0,-7,1,0,4,5,0,0,0,0,0,0,2,3,1,1,0,0,0,0,264,260,268,271,0,0,0,0,265,260,268,272,0,0,0,0,0,0,0,0,0,0,0,0,1405,-3073,-95,13410047,1405,-3073,-98,0,0,0,0,0,1,1,2,5,0,0,0,0,0,200,-5511,109,33,-5972,1405,-3073,-95,0,0,1,-5519,124,162,-5962,0,-3,63,-3,0,-2,0,0,0,0,1,7,0,1,1,-0.04999099039632166,0.004687205356084009,1.6480205103379018,0,0,0,"","","",NaN,NaN,NaN,NaN
40,13452442,-12,0,0,10000,1528,428,13,3,2,19,-15,13,-39,125,-2028,-47,186,-2158,160,159,158,158,-5519,124,161,-5962,4,0,-1,8127,0,0,0,-2,0,0,-3,-1,0,0,0,0,0,0,0,-6,-1,-1,5,3,0,0,0,0,0,0,2,3,1,1,0,0,0,0,264,260,268,271,0,0,0,0,265,259,271,271,0,0,0,0,0,0,0,0,0,0,0,0,1405,-3073,-95,13410047,1405,-3073,-98,0,0,0,0,0,1,1,2,5,0,0,0,0,0,200,-5511,109,33,-5972,1405,-3073,-95,0,0,1,-5519,124,161,-5962,0,-3,63,-3,0,-2,0,0,0,0,1,7,0,1,1,-0.04981019059819653,0.004520082871193602,1.648011046166933,0,0,0,"","","",NaN,NaN,NaN,NaN
44,13454458,-12,0,0,10000,1528,428,10,8,2,7,11,3,-35,116,-2044,10,129,-2271,160,159,159,158,-5519,124,161,-5962,4,1,0,8127,0,0,0,-2,0,0,-3,-2,-1,0,0,0,0,0,0,-5,-3,-1,6,2,2,0,0,0,0,0,3,3,1,1,0,0,0,0,264,260,268,271,0,0,0,0,265,260,269,271,0,0,0,0,0,0,0,0,0,0,0,0,1405,-3073,-95,13410047,1405,-3073,-98,0,0,0,0,0,1,1,2,5,0,0,0,0,0,200,-5511,109,33,-5972,1405,-3073,-95,0,0,1,-5519,124,161,-5962,0,-3,63,-3,0,-2,0,0,0,0,1,7,0,1,1,-0.04981019059819653,0.004520082871193602,1.648011046166933,0,0,0,"","","",NaN,NaN,NaN,NaN
48,13456474,-12,0,0,10000,1528,428,5,10,4,4,3,6,-23,107,-2046,80,77,-1985,160,158,159,158,-5519,124,161,-5962,2,3,0,8127,0,0,0,-2,0,0,-2,-2,-1,0,0,0,0,0,0,-3,-4,-1,5,1,2,0,0,0,0,0,3,2,1,1,0,0,0,0,264,260,268,271,0,0,0,0,265,260,268,272,0,0,0,0,0,0,0,0,0,0,0,0,1405,-3073,-95,13410047,1405,-3073,-98,0,0,0,0,0,1,1,2,5,0,0,0,0,0,200,-5511,109,33,-5972,1405,-3073,-95,0,0,1,-5519,124,161,-5962,0,-3,63,-3,0,-2,0,0,0,0,1,7,0,1,1,-0.04981019059819653,0.004520082871193602,1.648011046166933,0,0,0,"","","",NaN,NaN,NaN,NaN
52,13458490,-12,0,0,10000,1528,428,3,11,2,0,21,5,-8,96,-2042,-48,-39,-2059,160,158,159,158,-5519,124,161,-5962,1,3,1,8127,0,0,0,-2,0,0,-1,-3,-1,0,0,0,0,0,0,-2,-5,-1,5,0,3,0,0,0,0,0,3,2,1,1,0,0,0,0,264,260,268,271,0,0,0,0,266,260,268,269,0,0,0,0,0,0,0,0,0,0,0,0,1405,-3073,-95,13410047,1405,-3073,-98,0,0,0,0,0,1,1,2,5,0,0,0,0,0,200,-5511,109,33,-5972,1405,-3073,-95,0,0,1,-5519,124,161,-5962,0,-3,63,-3,0,-2,0,0,0,0,1,7,0,1,1,-0.04981019059819653,0.004520082871193602,1.648011046166933,0,0,0,"","","",NaN,NaN,NaN,NaN
56,13460506,-12,0,0,10000,1528,428,4,7,4,4,-10,6,6,83,-2038,135,171,-1832,159,158,158,158,-5519,124,161,-5962,0,4,1,8127,0,0,0,-2,0,0,-1,-2,-1,0,0,0,0,0,0,-2,-3,-2,4,0,1,0,0,0,0,0,3,2,1,1,0,0,0,0,264,260,268,271,0,0,0,0,266,260,269,272,0,0,0,0,0,0,0,0,0,0,0,0,1405,-3073,-95,13410047,1405,-3073,-98,0,0,0,0,0,1,1,2,5,0,0,0,0,0,200,-5511,109,33,-5972,1405,-3073,-95,0,0,1,-5519,124,161,-5962,0,-3,63,-3,0,-2,0,0,0,0,1,7,0,1,1,-0.04981019059819653,0.004520082871193602,1.648011046166933,0,0,0,"","","",NaN,NaN,NaN,NaN
60,13462522,-12,0,0,10000,1528,428,2,1,0,2,-1,-1,10,79,-2030,-96,120,-1966,158,158,158,158,-5519,124,161,-5962,-1,2,1,8127,0,0,0,-2,0,0,-1,0,0,0,0,0,0,0,0,-1,0,0,1,1,0,0,0,0,0,0,3,2,1,0,0,0,0,0,265,260,268,271,0,0,0,0,265,259,271,272,0,0,0,0,0,0,0,0,0,0,0,0,1405,-3073,-95,13460195,1405,-3073,-98,0,0,0,0,0,1,0,3,-3,0,0,0,0,0,200,-5504,121,15,-5978,1405,-3073,-95,0,0,1,-5519,124,161,-5962,0,-3,63,-3,0,-2,0,0,0,0,1,7,0,1,1,-0.04981019059819653,0.004520082871193602,1.648011046166933,0,0,0,"","","",NaN,NaN,NaN,NaN
64,13464538,-12,0,0,10000,1528,428,6,-2,1,18,-13,4,11,78,-2031,99,263,-2047,159,159,158,158,-5519,124,161,-5963,-2,1,0,8127,0,0,0,-2,0,0,-2,0,0,0,0,0,0,0,0,-3,1,0,3,3,0,0,0,0,0,0,3,2,1,0,0,0,0,0,265,260,268,271,0,0,0,0,268,262,266,271,0,0,0,0,0,0,0,0,0,0,0,0,1405,-3073,-96,13460195,1405,-3073,-98,0,0,0,0,0,1,0,3,-3,0,0,0,0,0,200,-5504,121,15,-5978,1405,-3073,-96,0,0,1,-5519,124,161,-5963,0,-3,64,-2,1,-3,0,0,0,0,1,7,0,1,1,-0.04981506100385799,0.004516328205909894,1.6483581254017599,0,0,0,"","","",NaN,NaN,NaN,NaN
68,13466554,-12,0,0,10000,1528,428,9,-4,-1,7,-2,0,10,83,-2047,-207,154,-1892,159,160,158,158,-5519,124,161,-5963,0,0,0,8127,0,0,0,-2,0,0,-2,1,0,0,0,0,0,0,0,-4,2,0,2,5,0,1,0,0,0,0,3,2,1,0,0,0,0,0,265,260,268,271,0,0,0,0,265,259,268,272,0,0,0,0,0,0,0,0,0,0,0,0,1405,-3073,-96,13460195,1405,-3073,-98,0,0,0,0,0,1,0,3,-3,0,0,0,0,0,200,-5504,121,15,-5978,1405,-3073,-96,0,0,1,-5519,124,161,-5963,0,-3,64,-2,1,-3,0,0,0,0,1,7,0,1,1,-0.04981506100385799,0.004516328205909894,1.6483581254017599,0,0,0,"","","",NaN,NaN,NaN,NaN
72,13468570,-12,0,0,10000,1528,428,10,-8,-1,29,-16,2,-1,91,-2044,-26,284,-1744,159,160,158,159,-5519,124,161,-5963,-1,-2,0,8127,0,0,0,-2,0,0,-3,2,0,0,0,0,0,0,0,-5,3,0,3,6,0,2,0,0,0,0,3,2,1,0,0,0,0,0,265,260,268,271,0,0,0,0,268,257,269,269,0,0,0,0,0,0,0,0,0,0,0,0,1405,-3073,-96,13460195,1405,-3073,-98,0,0,0,0,0,1,0,3,-3,0,0,0,0,0,200,-5504,121,15,-5978,1405,-3073,-96,0,0,1,-5519,124,161,-5963,0,-3,64,-2,1,-3,0,0,0,0,1,7,0,1,1,-0.04981506100385799,0.004516328205909894,1.6483581254017599,0,0,0,"","","",NaN,NaN,NaN,NaN
76,13470586,-12,0,0,10000,1524,307,15,0,-4,20,16,-5,-13,107,-2036,-59,71,-1887,160,160,158,158,-5519,123,161,-5962,1,-3,-1,8127,0,0,0,-2,0,0,-4,0,1,0,0,0,0,0,0,-7,0,2,5,6,0,0,0,0,0,0,3,3,1,1,0,0,0,0,265,260,268,271,0,0,0,0,265,259,268,272,0,0,0,0,0,0,0,0,0,0,0,0,1405,-3073,-96,13460195,1405,-3073,-98,0,0,0,0,0,1,0,3,-3,0,0,0,0,0,200,-5504,121,15,-5978,1405,-3073,-96,0,0,1,-5519,123,161,-5962,0,-3,64,-2,1,-3,0,0,0,0,1,7,0,1,1,-0.04964290480336923,0.00470061980856639,1.6480114232033771,0,0,0,"","","",NaN,NaN,NaN,NaN
80,13472602,-12,0,0,10000,1524,307,16,-4,1,15,-17,3,-25,111,-2029,-66,183,-2010,159,160,158,158,-5519,123,161,-5963,2,-2,0,8127,0,0,0,-2,0,0,-4,1,0,0,0,0,0,0,0,-7,2,-1,3,6,0,0,0,0,0,0,3,3,1,0,0,0,0,0,265,260,268,271,0,0,0,0,265,260,268,272,0,0,0,0,0,0,0,0,0,0,0,0,1405,-3073,-96,13460195,1405,-3073,-98,0,0,0,0,0,1,0,3,-3,0,0,0,0,0,200,-5504,121,15,-5978,1405,-3073,-96,0,0,1,-5519,123,161,-5963,0,-3,64,-2,1,-3,0,0,0,0,1,7,0,1,1,-0.04964777525379845,0.004696895408476322,1.6483585040559157,0,0,0,"","","",NaN,NaN,NaN,NaN
84,13474618,-12,0,0,10000,1524,307,9,2,-3,2,6,-5,-32,119,-2029,-40,10,-1876,159,159,158,158,-5519,123,160,-5962,2,-2,-1,8127,0,0,0,-2,0,0,-2,0,1,0,0,0,0,0,0,-4,-1,1,4,2,0,0,0,0,0,0,3,3,1,0,0,0,0,0,265,260,268,271,0,0,0,0,265,262,268,271,0,0,0,0,0,0,0,0,0,0,0,0,1405,-3073,-96,13460195,1405,-3073,-98,0,0,0,0,0,1,0,3,-3,0,0,0,0,0,200,-5504,121,15,-5978,1405,-3073,-96,0,0,1,-5519,123,160,-5962,0,-3,64,-2,1,-3,0,0,0,0,1,7,0,1,1,-0.04946210821326042,0.004533497313340166,1.648002013735559,0,0,0,"","","",NaN,NaN,NaN,NaN
88,13476634,-12,0,0,10000,1524,307,8,9,4,3,26,6,-33,113,-2037,-186,175,-2283,160,158,159,158,-5519,123,160,-5963,2,0,0,8127,0,0,0,-2,0,0,-2,-2,-1,0,0,0,0,0,0,-4,-4,-2,6,1,2,0,0,0,0,0,3,3,1,0,0,0,0,0,265,260,268,271,0,0,0,0,265,257,268,272,0,0,0,0,0,0,0,0,0,0,0,0,1405,-3073,-96,13460195,1405,-3073,-98,0,0,0,0,0,1,0,3,-3,0,0,0,0,0,200,-5504,121,15,-5978,1405,-3073,-96,0,0,1,-5519,123,160,-5963,0,-3,64,-2,1,-3,0,0,0,0,1,7,0,1,1,-0.04946694893748784,0.00452977291612276,1.6483490979578796,0,0,0,"","","",NaN,NaN,NaN,NaN
92,13478650,-12,0,0,10000,1524,307,7,10,2,-4,17,4,-21,110,-2055,-176,104,-2135,160,159,159,158,-5519,123,160,-5963,2,1,0,8127,0,0,0,-2,0,0,-2,-2,0,0,0,0,0,0,0,-4,-4,-1,6,1,3,0,0,0,0,0,3,3,1,0,0,0,0,0,265,260,268,271,0,0,0,0,265,260,268,272,0,0,0,0,0,0,0,0,0,0,0,0,1405,-3073,-96,13460195,1405,-3073,-98,0,0,0,0,0,1,0,3,-3,0,0,0,0,0,200,-5504,121,15,-5978,1405,-3073,-96,0,0,1,-5519,123,160,-5963,0,-3,64,-2,1,-3,0,0,0,0,1,7,0,1,1,-0.04946694893748784,0.00452977291612276,1.6483490979578796,0,0,0,"","","",NaN,NaN,NaN,NaN
96,13480666,-12,0,0,10000,1524,307,4,9,7,-4,6,14,-11,95,-2055,-90,224,-2153,160,158,158,158,-5519,123,160,-5963,0,2,1,8127,0,0,0,-2,0,0,-1,-2,-2,0,0,0,0,0,0,-2,-4,-3,5,0,1,0,0,0,0,0,3,3,1,0,0,0,0,0,265,260,268,271,0,0,0,0,266,260,266,271,0,0,0,0,0,0,0,0,0,0,0,0,1405,-3073,-96,13460195,1405,-3073,-98,0,0,0,0,0,1,0,3,-3,0,0,0,0,0,200,-5504,121,15,-5978,1405,-3073,-96,0,0,1,-5519,123,160,-5963,0,-3,64,-2,1,-3,0,0,0,0,1,7,0,1,1,-0.04946694893748784,0.00452977291612276,1.6483490979578796,0,0,0,"","","",NaN,NaN,NaN,NaN
100,13482682,-12,0,0,10000,1524,307,0,3,0,1,-15,6,4,87,-2042,73,-14,-2122,159,158,158,158,-5519,123,160,-5963,-2,3,0,8127,0,0,0,-2,0,0,-1,-1,0,0,0,0,0,0,0,-1,-1,0,2,0,1,0,0,0,0,0,3,2,1,0,0,0,0,0,265,260,268,271,0,0,0,0,266,260,269,272,0,0,0,0,0,0,0,0,0,0,0,0,1405,-3073,-96,13460195,1405,-3073,-98,0,0,0,0,0,0,0,3,-3,0,0,0,0,0,200,-5504,121,15,-5978,1405,-3073,-96,0,0,0,-5519,123,160,-5963,0,-3,64,-2,1,-3,0,0,0,0,1,7,0,1,1,-0.04946694893748784,0.00452977291612276,1.6483490979578796,0,0,0,"","","",NaN,NaN,NaN,NaN
104,13484698,-12,0,0,10000,1524,307,3,9,3,2,2,3,13,75,-2034,94,179,-1787,160,158,159,158,-5519,123,160,-5963,-2,3,1,8127,0,0,0,-2,0,0,-1,-2,-1,0,0,0,0,0,0,-2,-4,-1,4,0,2,0,0,0,0,0,3,2,1,0,0,0,0,0,265,260,268,271,0,0,0,0,266,260,268,269,0,0,0,0,0,0,0,0,0,0,0,0,1405,-3073,-96,13460195,1405,-3073,-98,0,0,0,0,0,0,0,3,-3,0,0,0,0,0,200,-5504,121,15,-5978,1405,-3073,-96,0,0,0,-5519,123,160,-5963,0,-3,64,-2,1,-3,0,0,0,0,1,7,0,1,1,-0.04946694893748784,0.00452977291612276,1.6483490979578796,0,0,0,"","","",NaN,NaN,NaN,NaN
108,13486714,-12,0,0,10000,1524,307,-3,0,-1,0,4,-5,16,75,-2028,14,49,-1819,158,158,158,158,-5519,123,160,-5963,-4,1,1,8127,0,0,0,-2,0,0,0,0,0,0,0,0,0,0,0,1,0,1,0,0,1,0,0,0,0,0,3,2,1,0,0,0,0,0,265,260,268,271,0,0,0,0,265,260,268,268,0,0,0,0,0,0,0,0,0,0,0,0,1405,-3073,-96,13460195,1405,-3073,-98,0,0,0,0,0,0,0,3,-3,0,0,0,0,0,200,-5504,121,15,-5978,1405,-3073,-96,0,0,0,-5519,123,160,-5963,0,-3,64,-2,1,-3,0,0,0,0,1,7,0,1,1,-0.04946694893748784,0.00452977291612276,1.6483490979578796,0,0,0,"","","",NaN,NaN,NaN,NaN
112,13488730,-12,0,0,10000,1524,307,3,1,-1,5,26,-7,16,78,-2038,76,116,-1982,158,159,158,158,-5519,123,160,-5963,-3,0,0,8127,0,0,0,-2,0,0,-1,0,0,0,0,0,0,0,0,-2,-1,0,0,3,0,0,0,0,0,0,3,2,1,0,0,0,0,0,266,260,268,271,0,0,0,0,266,262,269,271,0,0,0,0,0,0,0,0,0,0,0,0,1405,-3073,-96,13460195,1405,-3073,-98,0,0,0,0,0,0,0,3,-3,0,0,0,0,0,200,-5504,121,15,-5978,1405,-3073,-96,0,0,0,-5519,123,160,-5963,0,-3,64,-2,1,-3,0,0,0,0,1,7,0,1,1,-0.04946694893748784,0.00452977291612276,1.6483490979578796,0,0,0,"","","",NaN,NaN,NaN,NaN
116,13490746,-12,0,0,10000,1526,314,7,-8,-2,12,-15,-2,10,87,-2043,-49,48,-2299,159,160,158,159,-5519,123,160,-5963,-3,-1,0,8127,0,0,0,-2,0,0,-2,2,0,0,0,0,0,0,0,-3,3,1,1,5,0,2,0,0,0,0,3,2,1,0,0,0,0,0,266,260,268,271,0,0,0,0,266,260,269,269,0,0,0,0,0,0,0,0,0,0,0,0,1405,-3073,-96,13460195,1405,-3073,-98,0,0,0,0,0,0,0,3,-3,0,0,0,0,0,200,-5504,121,15,-5978,1405,-3073,-96,0,0,0,-5519,123,160,-5963,0,-3,64,-2,1,-3,0,0,0,0,1,7,0,1,1,-0.04946694893748784,0.00452977291612276,1.6483490979578796,0,0,0,"","","",NaN,NaN,NaN,NaN
120,13492762,-12,0,0,10000,1526,314,7,-5,-4,13,-14,-10,-1,101,-2043,131,162,-1928,158,159,158,158,-5519,123,160,-5963,-2,-2,-1,8127,0,0,0,-2,0,0,-2,1,1,0,0,0,0,0,0,-3,2,1,1,4,0,1,0,0,0,0,3,2,1,0,0,0,0,0,266,260,268,271,0,0,0,0,266,259,269,271,0,0,0,0,0,0,0,0,0,0,0,0,1405,-3073,-96,13460195,1405,-3073,-98,0,0,0,0,0,0,0,3,-3,0,0,0,0,0,200,-5504,121,15,-5978,1405,-3073,-96,0,0,0,-5519,123,160,-5963,0,-3,64,-2,1,-3,0,0,0,0,1,7,0,1,1,-0.04946694893748784,0.00452977291612276,1.6483490979578796,0,0,0,"","","",NaN,NaN,NaN,NaN
124,13494778,-12,0,0,10000,1526,314,8,-8,-1,7,-10,3,-12,114,-2028,-175,122,-1975,159,160,158,159,-5519,123,160,-5963,-1,-4,-1,8127,0,0,0,-2,0,0,-2,2,0,0,0,0,0,0,0,-4,3,0,2,6,0,2,0,0,0,0,3,3,1,1,0,0,0,0,266,260,268,271,0,0,0,0,266,260,268,271,0,0,0,0,0,0,0,0,0,0,0,0,1405,-3073,-96,13460195,1405,-3073,-98,0,0,0,0,0,0,0,3,-3,0,0,0,0,0,200,-5504,121,15,-5978,1405,-3073,-96,0,0,0,-5519,123,160,-5963,0,-3,64,-2,1,-3,0,0,0,0,1,7,0,1,1,-0.04946694893748784,0.00452977291612276,1.6483490979578796,0,0,0,"","","",NaN,NaN,NaN,NaN
128,13496794,-12,0,0,10000,1526,314,14,0,-4,15,2,-7,-32,118,-2019,84,161,-1814,160,160,158,158,-5519,123,160,-5963,1,-3,-1,8127,0,0,0,-2,0,0,-4,0,1,0,0,0,0,0,0,-6,0,2,4,4,0,0,0,0,0,0,3,3,1,1,0,0,0,0,266,260,268,271,0,0,0,0,266,260,266,271,0,0,0,0,0,0,0,0,0,0,0,0,1405,-3073,-96,13460195,1405,-3073,-98,0,0,0,0,0,0,0,3,-3,0,0,0,0,0,200,-5504,121,15,-5978,1405,-3073,-96,0,0,0,-5519,123,160,-5963,0,-3,64,-2,1,-3,0,0,0,0,1,7,0,1,1,-0.04946694893748784,0.00452977291612276,1.6483490979578796,0,0,0,"","","",NaN,NaN,NaN,NaN
132,13498810,-12,0,0,10000,1526,314,6,2,1,2,6,5,-35,117,-2021,-66,108,-2181,159,159,158,158,-5519,123,160,-5963,1,-2,-1,8127,0,0,0,-2,0,0,-2,-1,0,0,0,0,0,0,0,-3,-1,0,3,2,0,0,0,0,0,0,3,3,1,1,0,0,0,0,266,260,268,271,0,0,0,0,265,262,269,269,0,0,0,0,0,0,0,0,0,0,0,0,1405,-3073,-96,13460195,1405,-3073,-98,0,0,0,0,0,0,0,3,-3,0,0,0,0,0,200,-5504,121,15,-5978,1405,-3073,-96,0,0,0,-5519,123,160,-5963,0,-3,64,-2,1,-3,0,0,0,0,1,7,0,1,1,-0.04946694893748784,0.00452977291612276,1.6483490979578796,0,0,0,"","","",NaN,NaN,NaN,NaN
136,13500826,-12,0,0,10000,1526,314,4,4,-2,0,12,-6,-42,117,-2031,219,76,-2213,159,159,159,158,-5519,123,159,-5963,0,-1,-1,8127,0,0,0,-2,0,0,-1,-1,0,0,0,0,0,0,0,-3,-2,1,3,2,2,0,0,0,0,0,3,3,1,0,0,0,0,0,266,260,268,271,0,0,0,0,265,259,268,272,0,0,0,0,0,0,0,0,0,0,0,0,1405,-3073,-96,13460195,1405,-3073,-98,0,0,0,0,0,0,0,3,-3,0,0,0,0,0,200,-5504,121,15,-5978,1405,-3073,-96,0,0,0,-5519,123,159,-5963,0,-3,64,-2,1,-3,0,0,0,0,1,7,0,1,1,-0.04928611918077658,0.004362650550286197,1.6483397632375894,0,0,0,"","","",NaN,NaN,NaN,NaN
140,13502842,-12,0,0,10000,1526,314,0,11,1,1,27,5,-26,106,-2047,-144,-38,-2109,160,158,159,158,-5519,123,159,-5963,-1,1,0,8127,0,0,0,-2,0,0,0,-3,0,0,0,0,0,0,0,-1,-4,-1,4,0,3,0,0,0,0,0,3,2,1,0,0,0,0,0,266,260,268,271,0,0,0,0,266,260,268,271,0,0,0,0,0,0,0,0,0,0,0,0,1405,-3073,-96,13460195,1405,-3073,-98,0,0,0,0,0,0,0,3,-3,0,0,0,0,0,200,-5504,121,15,-5978,1405,-3073,-96,0,0,0,-5519,123,159,-5963,0,-3,64,-2,1,-3,0,0,0,0,1,7,0,1,1,-0.04928611918077658,0.004362650550286197,1.6483397632375894,0,0,0,"","","",NaN,NaN,NaN,NaN
144,13504858,-12,0,0,10000,1526,314,-1,10,4,-2,9,4,-16,91,-2056,104,159,-1966,159,158,159,158,-5519,123,159,-5963,-1,2,0,8127,0,0,0,-2,0,0,0,-2,-1,0,0,0,0,0,0,0,-4,-1,4,0,3,0,0,0,0,0,3,2,1,0,0,0,0,0,266,260,268,271,0,0,0,0,266,260,269,268,0,0,0,0,0,0,0,0,0,0,0,0,1405,-3073,-96,13460195,1405,-3073,-98,0,0,0,0,0,0,0,3,-3,0,0,0,0,0,200,-5504,121,15,-5978,1405,-3073,-96,0,0,0,-5519,123,159,-5963,0,-3,64,-2,1,-3,0,0,0,0,1,7,0,1,1,-0.04928611918077658,0.004362650550286197,1.6483397632375894,0,0,0,"","","",NaN,NaN,NaN,NaN
148,13506874,-12,0,0,10000,1526,314,-7,5,3,-6,15,4,-1,84,-2042,-80,10,-1872,159,158,159,159,-5519,123,159,-5963,-3,1,1,8127,0,0,0,-2,0,0,1,-1,-1,0,0,0,0,0,0,2,-2,-1,2,0,3,2,0,0,0,0,3,2,1,0,0,0,0,0,266,260,268,271,0,0,0,0,265,260,269,272,0,0,0,0,0,0,0,0,0,0,0,0,1405,-3073,-96,13460195,1405,-3073,-98,0,0,0,0,0,0,0,3,-3,0,0,0,0,0,200,-5504,121,15,-5978,1405,-3073,-96,0,0,0,-5519,123,159,-5963,0,-3,64,-2,1,-3,0,0,0,0,1,7,0,1,1,-0.04928611918077658,0.004362650550286197,1.6483397632375894,0,0,0,"","","",NaN,NaN,NaN,NaN
152,13508890,-12,0,0,10000,1526,314,-2,3,0,2,-5,-1,7,76,-2026,115,117,-2218,158,158,158,158,-5519,123,159,-5963,-4,2,1,8127,0,0,0,-2,0,0,0,-1,0,0,0,0,0,0,0,0,-1,0,1,0,1,0,0,0,0,0,3,2,1,0,0,0,0,0,266,260,268,271,0,0,0,0,266,259,271,272,0,0,0,0,0,0,0,0,0,0,0,0,1405,-3073,-96,13460195,1405,-3073,-98,0,0,0,0,0,0,0,3,-3,0,0,0,0,0,200,-5504,121,15,-5978,1405,-3073,-96,0,0,0,-5519,123,159,-5963,0,-3,64,-2,1,-3,0,0,0,0,1,7,0,1,1,-0.04928611918077658,0.004362650550286197,1.6483397632375894,0,0,0,"","","",NaN,NaN,NaN,NaN
156,13510906,-12,0,0,10000,1519,439,-6,-5,5,-8,-24,11,11,69,-2027,-63,170,-2225,158,158,158,159,-5519,123,159,-5963,-4,0,1,8127,0,0,0,-2,0,0,1,1,-1,0,0,0,0,0,0,2,2,-2,0,0,0,2,0,0,0,0,3,2,1,1,0,0,0,0,266,260,268,271,0,0,0,0,265,259,269,272,0,0,0,0,0,0,0,0,0,0,0,0,1405,-3073,-96,13460195,1405,-3073,-98,0,0,0,0,0,0,0,3,-3,0,0,0,0,0,200,-5504,121,15,-5978,1405,-3073,-96,0,0,0,-5519,123,159,-5963,0,-3,64,-2,1,-3,0,0,0,0,1,7,0,1,1,-0.04928611918077658,0.004362650550286197,1.6483397632375894,0,0,0,"","","",NaN,NaN,NaN,NaN
160,13512922,-12,0,0,10000,1519,439,-3,-6,-4,6,-3,-5,15,76,-2043,-114,262,-1681,158,159,158,159,-5519,123,160,-5963,-5,-2,0,8127,0,0,0,-2,0,0,0,1,1,0,0,0,0,0,0,0,2,1,0,2,0,2,0,0,0,0,3,2,1,1,0,0,0,0,266,260,268,271,0,0,0,0,265,262,269,272,0,0,0,0,0,0,0,0,0,0,0,0,1405,-3073,-96,13510282,1405,-3072,-99,0,0,0,0,0,0,-1,6,-5,0,0,0,0,0,200,-5512,83,143,-5970,1405,-3073,-96,0,0,0,-5519,123,160,-5963,0,-3,64,-2,1,-3,0,0,0,0,1,7,0,1,1,-0.04946694893748784,0.00452977291612276,1.6483490979578796,0,0,0,"","","",NaN,NaN,NaN,NaN
164,13514939,-12,0,0,10000,1519,439,6,-11,3,16,-17,8,7,85,-2048,-102,335,-1824,158,160,158,159,-5518,123,160,-5963,-3,-3,0,8127,0,0,0,-2,0,0,-2,2,-1,0,0,0,0,0,0,-3,4,-1,0,6,0,2,0,0,0,0,2,2,1,1,0,0,0,0,266,260,269,271,0,0,0,0,268,260,269,269,0,0,0,0,0,0,0,0,0,0,0,0,1405,-3073,-96,13510282,1405,-3072,-99,0,0,0,0,0,0,-1,6,-5,0,0,0,0,0,200,-5512,83,143,-5970,1405,-3073,-96,0,0,0,-5518,123,160,-5963,0,-3,65,0,8,-3,0,0,0,0,1,7,0,1,1,-0.04946322816580526,0.004524927660772044,1.6483630906467053,0,0,0,"","","",NaN,NaN,NaN,NaN
168,13516954,-12,0,0,10000,1519,439,3,-7,-6,4,-3,-11,-6,103,-2043,-102,43,-1789,158,159,158,158,-5518,123,160,-5963,-2,-3,0,8127,0,0,0,-2,0,0,-1,2,1,0,0,0,0,0,0,-2,3,2,0,4,0,1,0,0,0,0,2,2,1,1,0,0,0,0,266,260,269,271,0,0,0,0,263,259,269,269,0,0,0,0,0,0,0,0,0,0,0,0,1405,-3073,-96,13510282,1405,-3072,-99,0,0,0,0,0,0,-1,6,-5,0,0,0,0,0,200,-5512,83,143,-5970,1405,-3073,-96,0,0,0,-5518,123,160,-5963,0,-3,65,0,8,-3,0,0,0,0,1,7,0,1,1,-0.04946322816580526,0.004524927660772044,1.6483630906467053,0,0,0,"","","",NaN,NaN,NaN,NaN
172,13518970,-12,0,0,10000,1519,439,8,-6,2,6,-8,9,-19,103,-2033,-127,320,-1990,159,160,158,159,-5518,122,160,-5963,0,-3,0,8127,0,0,0,-2,0,0,-2,1,-1,0,0,0,0,0,0,-4,3,-1,3,5,0,2,0,0,0,0,2,2,1,1,0,0,0,0,266,260,269,271,0,0,0,0,268,260,268,271,0,0,0,0,0,0,0,0,0,0,0,0,1405,-3073,-96,13510282,1405,-3072,-99,0,0,0,0,0,0,-1,6,-5,0,0,0,0,0,200,-5512,83,143,-5970,1405,-3073,-96,0,0,0,-5518,122,160,-5963,0,-3,65,0,8,-3,0,0,0,0,1,7,0,1,1,-0.04929597184389061,0.004705494870498254,1.6483634647778407,0,0,0,"","","",NaN,NaN,NaN,NaN
176,13520986,-12,0,0,10000,1519,439,1,-4,-5,-10,5,-5,-25,118,-2024,-142,-115,-2035,158,159,158,158,-5518,122,160,-5963,0,-4,-1,8127,0,0,0,-2,0,0,-1,1,1,0,0,0,0,0,0,-1,2,2,0,2,0,0,0,0,0,0,2,2,1,1,0,0,0,0,266,260,269,271,0,0,0,0,266,260,269,271,0,0,0,0,0,0,0,0,0,0,0,0,1405,-3073,-96,13510282,1405,-3072,-99,0,0,0,0,0,0,-1,6,-5,0,0,0,0,0,200,-5512,83,143,-5970,1405,-3073,-96,0,0,0,-5518,122,160,-5963,0,-3,65,0,8,-3,0,0,0,0,1,7,0,1,1,-0.04929597184389061,0.004705494870498254,1.6483634647778407,0,0,0,"","","",NaN,NaN,NaN,NaN
180,13523002,-12,0,0,10000,1519,439,7,8,-1,17,6,-3,-33,120,-2021,152,23,-2231,160,158,158,158,-5518,122,160,-5963,0,-1,-1,8127,0,0,0,-2,0,0,-2,-2,0,0,0,0,0,0,0,-4,-3,0,5,0,0,0,0,0,0,0,2,2,1,1,0,0,0,0,266,260,269,271,0,0,0,0,265,262,269,272,0,0,0,0,0,0,0,0,0,0,0,0,1405,-3073,-96,13510282,1405,-3072,-99,0,0,0,0,0,0,-1,6,-5,0,0,0,0,0,200,-5512,83,143,-5970,1405,-3073,-96,0,0,0,-5518,122,160,-5963,0,-3,65,0,8,-3,0,0,0,0,1,7,0,1,1,-0.04929597184389061,0.004705494870498254,1.6483634647778407,0,0,0,"","","",NaN,NaN,NaN,NaN
184,13525018,-12,0,0,10000,1519,439,-5,6,-2,-20,20,-6,-25,118,-2044,-80,-109,-2195,158,158,159,158,-5518,122,160,-5963,0,-1,-1,8127,0,0,0,-2,0,0,1,-1,1,0,0,0,0,0,0,1,-2,1,1,0,2,0,0,0,0,0,2,2,1,1,0,0,0,0,266,260,269,271,0,0,0,0,265,259,268,272,0,0,0,0,0,0,0,0,0,0,0,0,1405,-3073,-96,13510282,1405,-3072,-99,0,0,0,0,0,0,-1,6,-5,0,0,0,0,0,200,-5512,83,143,-5970,1405,-3073,-96,0,0,0,-5518,122,160,-5963,0,-3,65,0,8,-3,0,0,0,0,1,7,0,1,1,-0.04929597184389061,0.004705494870498254,1.6483634647778407,0,0,0,"","","",NaN,NaN,NaN,NaN
188,13527034,-12,0,0,10000,1519,439,-3,10,4,-7,20,4,-18,101,-2060,95,219,-1973,159,158,160,158,-5518,122,160,-5963,-1,1,0,8127,0,0,0,-2,0,0,0,-2,-1,0,0,0,0,0,0,1,-4,-1,3,0,4,0,0,0,0,0,2,2,1,1,0,0,0,0,266,260,269,271,0,0,0,0,265,260,268,271,0,0,0,0,0,0,0,0,0,0,0,0,1405,-3073,-96,13510282,1405,-3072,-99,0,0,0,0,0,0,-1,6,-5,0,0,0,0,0,200,-5512,83,143,-5970,1405,-3073,-96,0,0,0,-5518,122,160,-5963,0,-3,65,0,8,-3,0,0,0,0,1,7,0,1,1,-0.04929597184389061,0.004705494870498254,1.6483634647778407,0,0,0,"","","",NaN,NaN,NaN,NaN
192,13529050,-12,0,0,10000,1519,439,-8,2,0,-19,0,-1,-1,96,-2051,-110,-52,-2235,158,158,159,159,-5518,122,160,-5963,-2,2,0,8127,0,0,0,-2,0,0,1,0,0,0,0,0,0,0,0,3,-1,0,0,0,3,1,0,0,0,0,2,2,1,1,0,0,0,0,266,260,269,271,0,0,0,0,265,260,269,272,0,0,0,0,0,0,0,0,0,0,0,0,1405,-3073,-96,13510282,1405,-3072,-99,0,0,0,0,0,0,-1,6,-5,0,0,0,0,0,200,-5512,83,143,-5970,1405,-3073,-96,0,0,0,-5518,122,160,-5963,0,-3,65,0,8,-3,0,0,0,0,1,7,0,1,1,-0.04929597184389061,0.004705494870498254,1.6483634647778407,0,0,0,"","","",NaN,NaN,NaN,NaN
196,13531066,-12,0,0,10000,1524,310,-8,6,2,-8,5,-3,3,84,-2035,141,130,-1813,159,158,160,159,-5518,123,160,-5963,-3,2,1,8127,0,0,0,-2,0,0,2,-1,0,0,0,0,0,0,0,3,-2,-1,2,0,4,2,0,0,0,0,2,2,1,1,0,0,0,0,266,260,269,271,0,0,0,0,266,260,268,269,0,0,0,0,0,0,0,0,0,0,0,0,1405,-3073,-96,13510282,1405,-3072,-99,0,0,0,0,0,0,-1,6,-5,0,0,0,0,0,200,-5512,83,143,-5970,1405,-3073,-96,0,0,0,-5518,123,160,-5963,0,-3,65,0,8,-3,0,0,0,0,1,7,0,1,1,-0.04946322816580526,0.004524927660772044,1.6483630906467053,0,0,0,"","","",NaN,NaN,NaN,NaN
200,13533082,-12,0,0,10000,1524,310,-10,-2,3,-15,9,7,15,76,-2029,-135,51,-2152,158,158,159,159,-5518,123,160,-5963,-4,1,1,8127,0,0,0,-2,0,0,2,0,-1,0,0,0,0,0,0,3,1,-1,0,0,2,3,0,0,0,0,2,2,1,1,0,0,0,0,266,260,269,271,0,0,0,0,266,262,268,271,0,0,0,0,0,0,0,0,0,0,0,0,1405,-3073,-96,13510282,1405,-3072,-99,0,0,0,0,0,0,-1,6,-5,0,0,0,0,0,200,-5512,83,143,-5970,1405,-3073,-96,0,0,0,-5518,123,160,-5963,0,-3,65,0,8,-3,0,0,0,0,1,7,0,1,1,-0.04946322816580526,0.004524927660772044,1.6483630906467053,0,0,0,"","","",NaN,NaN,NaN,NaN
204,13535098,-12,0,0,10000,1524,310,-8,-3,-1,-7,-3,-6,13,77,-2037,43,149,-2001,158,158,158,159,-5518,123,160,-5963,-4,0,1,8127,0,0,0,-2,0,0,1,1,0,0,0,0,0,0,0,3,1,0,0,0,1,3,0,0,0,0,2,2,1,1,0,0,0,0,266,260,269,271,0,0,0,0,266,257,268,272,0,0,0,0,0,0,0,0,0,0,0,0,1405,-3073,-96,13510282,1405,-3072,-99,0,0,0,0,0,0,-1,6,-5,0,0,0,0,0,200,-5512,83,143,-5970,1405,-3073,-96,0,0,0,-5518,123,160,-5963,0,-3,65,0,8,-3,0,0,0,0,1,7,0,1,1,-0.04946322816580526,0.004524927660772044,1.6483630906467053,0,0,0,"","","",NaN,NaN,NaN,NaN
208,13537114,-12,0,0,10000,1524,310,-3,-9,0,3,-9,2,12,88,-2041,-73,52,-2297,158,159,158,159,-5518,123,160,-5963,-3,-2,0,8127,0,0,0,-2,0,0,0,2,0,0,0,0,0,0,0,0,3,0,0,3,0,3,0,0,0,0,2,2,1,1,0,0,0,0,266,260,269,271,0,0,0,0,265,260,268,271,0,0,0,0,0,0,0,0,0,0,0,0,1405,-3073,-96,13510282,1405,-3072,-99,0,0,0,0,0,0,-1,6,-5,0,0,0,0,0,200,-5512,83,143,-5970,1405,-3073,-96,0,0,0,-5518,123,160,-5963,0,-3,65,0,8,-3,0,0,0,0,1,7,0,1,1,-0.04946322816580526,0.004524927660772044,1.6483630906467053,0,0,0,"","","",NaN,NaN,NaN,NaN
212,13539130,-12,0,0,10000,1524,310,-4,-11,-2,-8,-21,-10,1,100,-2049,127,165,-2061,158,160,158,160,-5518,123,160,-5963,-2,-3,0,8127,0,0,0,-2,0,0,0,3,0,0,0,0,0,0,0,1,4,1,0,5,0,4,0,0,0,0,2,2,1,1,0,0,0,0,266,260,269,271,0,0,0,0,266,260,268,272,0,0,0,0,0,0,0,0,0,0,0,0,1405,-3073,-96,13510282,1405,-3072,-99,0,0,0,0,0,0,-1,6,-5,0,0,0,0,0,200,-5512,83,143,-5970,1405,-3073,-96,0,0,0,-5518,123,160,-5963,0,-3,65,0,8,-3,0,0,0,0,1,7,0,1,1,-0.04946322816580526,0.004524927660772044,1.6483630906467053,0,0,0,"","","",NaN,NaN,NaN,NaN
216,13541146,-12,0,0,10000,1524,310,-2,-10,0,5,-11,7,-7,111,-2039,-371,111,-1792,158,159,158,159,-5518,122,161,-5963,-2,-4,0,8127,0,0,0,-2,0,0,0,2,0,0,0,0,0,0,0,0,4,0,0,3,0,4,0,0,0,0,2,2,1,2,0,0,0,0,265,260,269,271,0,0,0,0,263,259,268,271,0,0,0,0,0,0,0,0,0,0,0,0,1405,-3073,-96,13510282,1405,-3072,-99,0,0,0,0,0,0,-1,6,-5,0,0,0,0,0,200,-5512,83,143,-5970,1405,-3073,-96,0,0,0,-5518,122,161,-5963,0,-3,65,0,8,-3,0,0,0,0,1,7,0,1,1,-0.0494767982096417,0.004872587232570378,1.6483728725511135,0,0,0,"","","",NaN,NaN,NaN,NaN
220,13543162,-12,0,0,10000,1524,310,2,-4,-3,-2,-3,-4,-28,119,-2023,26,197,-1793,158,159,158,158,-5518,122,161,-5963,0,-3,-1,8127,0,0,0,-2,0,0,-1,1,1,0,0,0,0,0,0,-1,2,1,0,2,0,1,0,0,0,0,1,2,1,2,0,0,0,0,265,260,269,271,0,0,0,0,266,260,268,271,0,0,0,0,0,0,0,0,0,0,0,0,1405,-3073,-96,13510282,1405,-3072,-99,0,0,0,0,0,0,-1,6,-5,0,0,0,0,0,200,-5512,83,143,-5970,1405,-3073,-96,0,0,0,-5518,122,161,-5963,0,-3,65,0,8,-3,0,0,0,0,1,7,0,1,1,-0.0494767982096417,0.004872587232570378,1.6483728725511135,0,0,0,"","","",NaN,NaN,NaN,NaN
224,13545178,-12,0,0,10000,1524,310,4,-3,-1,6,9,4,-32,124,-2015,-250,7,-2082,158,159,158,158,-5518,122,161,-5963,1,-3,-1,8127,0,0,0,-2,0,0,-1,1,0,0,0,0,0,0,0,-2,1,0,1,3,0,1,0,0,0,0,1,2,1,1,0,0,0,0,265,260,269,271,0,0,0,0,266,260,269,272,0,0,0,0,0,0,0,0,0,0,0,0,1405,-3073,-96,13510282,1405,-3072,-99,0,0,0,0,0,0,-1,6,-5,0,0,0,0,0,200,-5512,83,143,-5970,1405,-3073,-96,0,0,0,-5518,122,161,-5963,0,-3,65,0,8,-3,0,0,0,0,1,7,0,1,1,-0.0494767982096417,0.004872587232570378,1.6483728725511135,0,0,0,"","","",NaN,NaN,NaN,NaN
228,13547194,-12,0,0,10000,1524,310,-4,4,-2,-10,11,-2,-35,119,-2025,23,180,-2296,158,158,159,158,-5518,122,161,-5963,1,-1,-1,8127,0,0,0,-2,0,0,0,-1,1,0,0,0,0,0,0,1,-2,1,1,0,2,0,0,0,0,0,1,2,1,1,0,0,0,0,265,260,269,271,0,0,0,0,265,260,266,272,0,0,0,0,0,0,0,0,0,0,0,0,1405,-3073,-96,13510282,1405,-3072,-99,0,0,0,0,0,0,-1,6,-5,0,0,0,0,0,200,-5512,83,143,-5970,1405,-3073,-96,0,0,0,-5518,122,161,-5963,0,-3,65,0,8,-3,0,0,0,0,1,7,0,1,1,-0.0494767982096417,0.004872587232570378,1.6483728725511135,0,0,0,"","","",NaN,NaN,NaN,NaN
232,13549210,-12,0,0,10000,1524,310,-4,6,1,-1,16,4,-23,113,-2047,-97,47,-2101,158,158,160,158,-5518,122,161,-5963,0,0,-1,8127,0,0,0,-2,0,0,1,-1,0,0,0,0,0,0,0,1,-2,0,0,0,4,0,0,0,0,0,1,2,1,1,0,0,0,0,265,260,269,271,0,0,0,0,266,262,268,272,0,0,0,0,0,0,0,0,0,0,0,0,1405,-3073,-96,13510282,1405,-3072,-99,0,0,0,0,0,0,-1,6,-5,0,0,0,0,0,200,-5512,83,143,-5970,1405,-3073,-96,0,0,0,-5518,122,161,-5963,0,-3,65,0,8,-3,0,0,0,0,1,7,0,1,1,-0.0494767982096417,0.004872587232570378,1.6483728725511135,0,0,0,"","","",NaN,NaN,NaN,NaN
236,13551226,-12,0,0,10000,1527,375,-6,12,0,-11,14,1,-18,100,-2056,238,139,-1836,159,158,160,158,-5518,123,161,-5963,0,3,0,8127,0,0,0,-2,0,0,1,-3,0,0,0,0,0,0,0,2,-5,0,4,0,6,1,0,0,0,0,1,2,1,1,0,0,0,0,265,260,269,271,0,0,0,0,265,260,269,272,0,0,0,0,0,0,0,0,0,0,0,0,1405,-3073,-96,13510282,1405,-3072,-99,0,0,0,0,0,0,-1,6,-5,0,0,0,0,0,200,-5512,83,143,-5970,1405,-3073,-96,0,0,0,-5518,123,161,-5963,0,-3,65,0,8,-3,0,0,0,0,1,7,0,1,1,-0.04964405451265941,0.004692019881075032,1.6483724937569342,0,0,0,"","","",NaN,NaN,NaN,NaN
240,13553242,-12,0,0,10000,1527,375,-8,2,2,-1,1,4,-4,89,-2041,-73,12,-1847,158,158,159,159,-5518,123,161,-5963,-2,2,0,8127,0,0,0,-2,0,0,1,0,0,0,0,0,0,0,0,3,-1,-1,1,0,2,2,0,0,0,0,1,2,1,1,0,0,0,0,265,260,269,271,0,0,0,0,265,260,269,272,0,0,0,0,0,0,0,0,0,0,0,0,1405,-3073,-96,13510282,1405,-3072,-99,0,0,0,0,0,0,-1,6,-5,0,0,0,0,0,200,-5512,83,143,-5970,1405,-3073,-96,0,0,0,-5518,123,161,-5963,0,-3,65,0,8,-3,0,0,0,0,1,7,0,1,1,-0.04964405451265941,0.004692019881075032,1.6483724937569342,0,0,0,"","","",NaN,NaN,NaN,NaN
244,13555258,-12,0,0,10000,1527,375,-12,1,3,-7,-15,5,5,78,-2030,272,96,-2065,158,158,159,159,-5518,123,161,-5963,-3,3,1,8127,0,0,0,-2,0,0,2,0,-1,0,0,0,0,0,0,4,0,-1,1,0,3,3,0,0,0,0,1,2,2,1,0,0,0,0,265,260,269,271,0,0,0,0,265,259,271,272,0,0,0,0,0,0,0,0,0,0,0,0,1405,-3073,-96,13510282,1405,-3072,-99,0,0,0,0,0,0,-1,6,-5,0,0,0,0,0,200,-5512,83,143,-5970,1405,-3073,-96,0,0,0,-5518,123,161,-5963,0,-3,65,0,8,-3,0,0,0,0,1,7,0,1,1,-0.04964405451265941,0.004692019881075032,1.6483724937569342,0,0,0,"","","",NaN,NaN,NaN,NaN
248,13557274,-12,0,0,10000,1527,375,-11,-2,3,-17,-1,-1,14,73,-2033,-96,130,-2217,158,158,159,159,-5518,123,161,-5963,-3,1,1,8127,0,0,0,-2,0,0,2,1,-1,0,0,0,0,0,0,4,1,-1,0,0,2,3,0,0,0,0,1,1,2,2,0,0,0,0,265,260,269,271,0,0,0,0,263,262,268,266,0,0,0,0,0,0,0,0,0,0,0,0,1405,-3073,-96,13510282,1405,-3072,-99,0,0,0,0,0,0,-1,6,-5,0,0,0,0,0,200,-5512,83,143,-5970,1405,-3073,-96,0,0,0,-5518,123,161,-5963,0,-3,65,0,8,-3,0,0,0,0,1,7,0,1,1,-0.04964405451265941,0.004692019881075032,1.6483724937569342,0,0,0,"","","",NaN,NaN,NaN,NaN
252,13559290,-12,0,0,10000,1527,375,-12,-10,2,-14,-25,2,14,77,-2037,-155,264,-1912,158,159,159,161,-5518,123,161,-5963,-4,0,1,8127,0,0,0,-2,0,0,2,2,0,0,0,0,0,0,0,4,4,-1,0,3,2,7,0,0,0,0,1,1,2,2,0,0,0,0,265,260,269,271,0,0,0,0,266,259,271,274,0,0,0,0,0,0,0,0,0,0,0,0,1405,-3073,-96,13510282,1405,-3072,-99,0,0,0,0,0,0,-1,6,-5,0,0,0,0,0,200,-5512,83,143,-5970,1405,-3073,-96,0,0,0,-5518,123,161,-5963,0,-3,65,0,8,-3,0,0,0,0,1,7,0,1,1,-0.04964405451265941,0.004692019881075032,1.6483724937569342,0,0,0,"","","",NaN,NaN,NaN,NaN
256,13561307,-12,0,0,10000,1527,375,-4,-5,3,-6,-1,5,6,83,-2048,-179,211,-2061,158,158,158,159,-5518,123,161,-5963,-2,-1,1,8127,0,0,0,-2,0,0,1,1,-1,0,0,0,0,0,0,1,2,-1,0,1,0,3,0,0,0,0,1,1,2,2,0,0,0,0,265,260,269,271,0,0,0,0,266,260,271,272,0,0,0,0,0,0,0,0,0,0,0,0,1405,-3073,-96,13510282,1405,-3072,-99,0,0,0,0,0,0,-1,6,-5,0,0,0,0,0,200,-5512,83,143,-5970,1405,-3073,-96,0,0,0,-5518,123,161,-5963,0,-3,65,0,8,-3,0,0,0,0,1,7,0,1,1,-0.04964405451265941,0.004692019881075032,1.6483724937569342,0,0,0,"","","",NaN,NaN,NaN,NaN
260,13563322,-12,0,0,10000,1527,375,-1,-11,-1,1,-16,1,3,99,-2056,-138,175,-1696,158,159,158,159,-5518,123,161,-5963,-1,-2,0,8127,0,0,0,-2,0,0,0,3,0,0,0,0,0,0,0,0,4,0,0,4,0,4,0,0,0,0,1,1,1,2,0,0,0,0,265,260,269,272,0,0,0,0,266,260,268,272,0,0,0,0,0,0,0,0,0,0,0,0,1405,-3073,-96,13560252,1405,-3073,-98,0,0,0,0,0,0,0,0,0,0,0,0,0,0,200,-5518,145,25,-5964,1405,-3073,-96,0,0,0,-5518,123,161,-5963,0,-3,65,0,8,-3,0,0,0,0,1,7,0,1,1,-0.04964405451265941,0.004692019881075032,1.6483724937569342,0,0,0,"","","",NaN,NaN,NaN,NaN
264,13565338,-12,0,0,10000,1527,375,1,-7,-2,0,5,-3,-13,112,-2040,-210,152,-1967,158,159,158,159,-5518,123,161,-5963,0,-3,0,8127,0,0,0,-2,0,0,-1,2,0,0,0,0,0,0,0,-1,3,1,0,3,0,2,0,0,0,0,1,2,1,2,0,0,0,0,265,260,269,272,0,0,0,0,265,260,269,274,0,0,0,0,0,0,0,0,0,0,0,0,1405,-3073,-97,13560252,1405,-3073,-98,0,0,0,0,0,0,0,0,0,0,0,0,0,0,200,-5518,145,25,-5964,1405,-3073,-97,0,0,0,-5518,123,161,-5963,0,-3,65,1,4,-3,0,0,0,0,1,7,0,1,1,-0.04964405451265941,0.004692019881075032,1.6483724937569342,0,0,0,"","","",NaN,NaN,NaN,NaN
268,13567354,-12,0,0,10000,1527,375,3,0,-3,4,13,-4,-24,123,-2026,-23,192,-2173,158,159,158,158,-5518,123,161,-5963,1,-2,-1,8127,0,0,0,-2,0,0,-1,0,1,0,0,0,0,0,0,-2,0,1,1,2,0,0,0,0,0,0,1,2,1,2,0,0,0,0,265,260,269,272,0,0,0,0,263,259,269,272,0,0,0,0,0,0,0,0,0,0,0,0,1405,-3073,-97,13560252,1405,-3073,-98,0,0,0,0,0,0,0,0,0,0,0,0,0,0,200,-5518,145,25,-5964,1405,-3073,-97,0,0,0,-5518,123,161,-5963,0,-3,65,1,4,-3,0,0,0,0,1,7,0,1,1,-0.04964405451265941,0.004692019881075032,1.6483724937569342,0,0,0,"","","",NaN,NaN,NaN,NaN
272,13569370,-12,0,0,10000,1527,375,3,-2,-1,-3,1,1,-32,119,-2026,-58,290,-2107,158,158,158,158,-5518,123,161,-5963,3,-1,-1,8127,0,0,0,-2,0,0,-1,0,0,0,0,0,0,0,0,-2,1,0,1,1,0,0,0,0,0,0,1,2,1,2,0,0,0,0,265,260,269,272,0,0,0,0,266,260,269,272,0,0,0,0,0,0,0,0,0,0,0,0,1405,-3073,-97,13560252,1405,-3073,-98,0,0,0,0,0,0,0,0,0,0,0,0,0,0,200,-5518,145,25,-5964,1405,-3073,-97,0,0,0,-5518,123,161,-5963,0,-3,65,1,4,-3,0,0,0,0,1,7,0,1,1,-0.04964405451265941,0.004692019881075032,1.6483724937569342,0,0,0,"","","",NaN,NaN,NaN,NaN
276,13571386,-12,0,0,10000,1516,385,-1,1,-3,7,-24,3,-27,120,-2039,67,115,-2141,158,158,158,158,-5518,123,161,-5963,2,1,-2,8127,0,0,0,-2,0,0,0,0,1,0,0,0,0,0,0,0,0,1,0,1,1,0,0,0,0,0,1,2,1,2,0,0,0,0,265,260,269,272,0,0,0,0,262,262,272,272,0,0,0,0,0,0,0,0,0,0,0,0,1405,-3073,-97,13560252,1405,-3073,-98,0,0,0,0,0,0,0,0,0,0,0,0,0,0,200,-5518,145,25,-5964,1405,-3073,-97,0,0,0,-5518,123,161,-5963,0,-3,65,1,4,-3,0,0,0,0,1,7,0,1,1,-0.04964405451265941,0.004692019881075032,1.6483724937569342,0,0,0,"","","",NaN,NaN,NaN,NaN
280,13573402,-12,0,0,10000,1516,385,-1,10,-1,0,16,-4,-21,110,-2055,-65,65,-1953,159,158,159,158,-5518,123,161,-5963,2,2,-1,8127,0,0,0,-2,0,0,0,-2,0,0,0,0,0,0,0,0,-4,1,4,0,3,0,0,0,0,0,1,2,1,2,0,0,0,0,265,260,269,272,0,0,0,0,265,260,269,271,0,0,0,0,0,0,0,0,0,0,0,0,1405,-3073,-96,13560252,1405,-3073,-98,0,0,0,0,0,0,0,0,0,0,0,0,0,0,200,-5518,145,25,-5964,1405,-3073,-96,0,0,0,-5518,123,161,-5963,0,-3,65,1,4,-3,0,0,0,0,1,7,0,1,1,-0.04964405451265941,0.004692019881075032,1.6483724937569342,0,0,0,"","","",NaN,NaN,NaN,NaN
284,13575418,-12,0,0,10000,1516,385,-10,3,2,-14,-6,5,-9,98,-2056,97,-16,-1850,158,158,159,159,-5518,123,161,-5963,1,3,0,8127,0,0,0,-2,0,0,2,-1,0,0,0,0,0,0,0,3,-1,-1,1,0,3,2,0,0,0,0,1,1,2,2,0,0,0,0,265,260,269,272,0,0,0,0,263,260,271,271,0,0,0,0,0,0,0,0,0,0,0,0,1405,-3073,-96,13560252,1405,-3073,-98,0,0,0,0,0,0,0,0,0,0,0,0,0,0,200,-5518,145,25,-5964,1405,-3073,-96,0,0,0,-5518,123,161,-5963,0,-3,65,1,4,-3,0,0,0,0,1,7,0,1,1,-0.04964405451265941,0.004692019881075032,1.6483724937569342,0,0,0,"","","",NaN,NaN,NaN,NaN
288,13577434,-12,0,0,10000,1516,385,-11,11,-1,-15,40,-9,-2,86,-2043,-104,19,-1914,159,158,161,159,-5518,123,161,-5963,0,3,0,8127,0,0,0,-2,0,0,2,-3,0,0,0,0,0,0,0,4,-5,0,3,0,7,2,0,0,0,0,1,1,2,2,0,0,0,0,265,260,269,272,0,0,0,0,265,260,268,272,0,0,0,0,0,0,0,0,0,0,0,0,1405,-3073,-96,13560252,1405,-3073,-98,0,0,0,0,0,0,0,0,0,0,0,0,0,0,200,-5518,145,25,-5964,1405,-3073,-96,0,0,0,-5518,123,161,-5963,0,-3,65,1,4,-3,0,0,0,0,1,7,0,1,1,-0.04964405451265941,0.004692019881075032,1.6483724937569342,0,0,0,"","","",NaN,NaN,NaN,NaN
292,13579450,-12,0,0,10000,1516,385,-11,3,6,-3,2,11,10,79,-2029,-145,160,-2315,159,158,159,159,-5518,124,161,-5963,-2,3,1,8127,0,0,0,-2,0,0,2,-1,-1,0,0,0,0,0,0,4,-1,-2,2,0,4,4,0,0,0,0,1,1,2,2,0,0,0,0,265,260,269,272,0,0,0,0,263,260,271,274,0,0,0,0,0,0,0,0,0,0,0,0,1405,-3073,-96,13560252,1405,-3073,-98,0,0,0,0,0,0,0,0,0,0,0,0,0,0,200,-5518,145,25,-5964,1405,-3073,-96,0,0,0,-5518,124,161,-5963,0,-3,65,1,4,-3,0,0,0,0,1,7,0,1,1,-0.04981131053125856,0.0045114526825619635,1.6483721149664468,0,0,0,"","","",NaN,NaN,NaN,NaN
296,13581466,-12,0,0,10000,1516,385,-8,0,4,-15,-3,-2,13,79,-2031,-149,175,-2162,158,158,159,159,-5518,124,161,-5963,-1,2,1,8127,0,0,0,-2,0,0,1,0,-1,0,0,0,0,0,0,2,0,-2,1,0,2,2,0,0,0,0,1,1,2,2,0,0,0,0,265,260,269,272,0,0,0,0,263,260,269,268,0,0,0,0,0,0,0,0,0,0,0,0,1405,-3073,-96,13560252,1405,-3073,-98,0,0,0,0,0,0,0,0,0,0,0,0,0,0,200,-5518,145,25,-5964,1405,-3073,-96,0,0,0,-5518,124,161,-5963,0,-3,65,1,4,-3,0,0,0,0,1,7,0,1,1,-0.04981131053125856,0.0045114526825619635,1.6483721149664468,0,0,0,"","","",NaN,NaN,NaN,NaN
300,13583482,-12,0,0,10000,1516,385,-9,-6,1,-5,-2,11,16,81,-2033,-53,120,-2267,158,159,158,160,-5518,124,161,-5963,-2,0,0,8127,0,0,0,-2,0,0,2,1,0,0,0,0,0,0,0,3,3,0,0,2,1,4,0,0,0,0,1,1,2,2,0,0,0,0,265,260,269,272,0,0,0,0,265,259,269,272,0,0,0,0,0,0,0,0,0,0,0,0,1405,-3073,-96,13560252,1405,-3073,-98,0,0,0,0,0,0,0,0,0,0,0,0,0,0,200,-5518,145,25,-5964,1405,-3073,-96,0,0,0,-5518,124,161,-5963,0,-3,65,1,4,-3,0,0,0,0,1,7,0,1,1,-0.04981131053125856,0.0045114526825619635,1.6483721149664468,0,0,0,"","","",NaN,NaN,NaN,NaN
304,13585498,-12,0,0,10000,1516,385,3,-5,2,10,-6,0,6,90,-2046,110,392,-1990,158,159,158,158,-5518,124,162,-5963,0,-1,1,8127,0,0,0,-2,0,0,-1,1,0,0,0,0,0,0,0,-2,2,-1,0,3,0,1,0,0,0,0,1,1,2,2,0,0,0,0,265,260,269,272,0,0,0,0,266,260,269,274,0,0,0,0,0,0,0,0,0,0,0,0,1405,-3073,-96,13560252,1405,-3073,-98,0,0,0,0,0,0,0,0,0,0,0,0,0,0,200,-5518,145,25,-5964,1405,-3073,-96,0,0,0,-5518,124,162,-5963,0,-3,65,1,4,-3,0,0,0,0,1,7,0,1,1,-0.04999214008553474,0.00467854489250377,1.6483815773747592,0,0,0,"","","",NaN,NaN,NaN,NaN
308,13587514,-12,0,0,10000,1516,385,1,-10,0,9,-20,3,1,111,-2042,-122,120,-1664,158,160,158,159,-5518,124,162,-5963,0,-2,0,8127,0,0,0,-2,0,0,-1,2,0,0,0,0,0,0,0,-1,4,0,0,4,0,3,0,0,0,0,1,1,2,2,0,0,0,0,265,260,269,272,0,0,0,0,266,260,269,272,0,0,0,0,0,0,0,0,0,0,0,0,1405,-3073,-96,13560252,1405,-3073,-98,0,0,0,0,0,0,0,0,0,0,0,0,0,0,200,-5518,145,25,-5964,1405,-3073,-96,0,0,0,-5518,124,162,-5963,0,-3,65,1,4,-3,0,0,0,0,1,7,0,1,1,-0.04999214008553474,0.00467854489250377,1.6483815773747592,0,0,0,"","","",NaN,NaN,NaN,NaN
312,13589530,-12,0,0,10000,1516,385,8,-1,-6,16,-4,-9,-23,119,-2024,289,159,-1787,159,159,158,158,-5518,123,162,-5963,2,-1,0,8127,0,0,0,-2,0,0,-2,0,1,0,0,0,0,0,0,-4,0,2,2,3,0,0,0,0,0,0,1,1,1,2,0,0,0,0,265,260,269,272,0,0,0,0,262,260,271,272,0,0,0,0,0,0,0,0,0,0,0,0,1405,-3073,-96,13560252,1405,-3073,-98,0,0,0,0,0,0,0,0,0,0,0,0,0,0,200,-5518,145,25,-5964,1405,-3073,-96,0,0,0,-5518,123,162,-5963,0,-3,65,1,4,-3,0,0,0,0,1,7,0,1,1,-0.04982488409693375,0.004859112232379389,1.6483819608296124,0,0,0,"","","",NaN,NaN,NaN,NaN
316,13591546,-12,0,0,10000,1521,332,6,0,-2,12,11,1,-27,123,-2021,-142,40,-1951,159,159,158,158,-5518,123,162,-5963,3,-2,-1,8127,0,0,0,-2,0,0,-2,0,0,0,0,0,0,0,0,-3,0,1,2,2,0,0,0,0,0,0,1,1,1,2,0,0,0,0,264,260,269,272,0,0,0,0,265,260,268,274,0,0,0,0,0,0,0,0,0,0,0,0,1405,-3073,-96,13560252,1405,-3073,-98,0,0,0,0,0,0,0,0,0,0,0,0,0,0,200,-5518,145,25,-5964,1405,-3073,-96,0,0,0,-5518,123,162,-5963,0,-3,65,1,4,-3,0,0,0,0,1,7,0,1,1,-0.04982488409693375,0.004859112232379389,1.6483819608296124,0,0,0,"","","",NaN,NaN,NaN,NaN
320,13593562,-12,0,0,10000,1521,332,4,5,-5,-4,10,-13,-38,125,-2030,217,231,-1950,159,159,159,158,-5518,123,161,-5963,4,0,-1,8127,0,0,0,-2,0,0,-1,-1,1,0,0,0,0,0,0,-2,-2,2,3,2,2,0,0,0,0,0,1,2,1,2,0,0,0,0,264,260,269,272,0,0,0,0,265,260,268,272,0,0,0,0,0,0,0,0,0,0,0,0,1405,-3073,-96,13560252,1405,-3073,-98,0,0,0,0,0,0,0,0,0,0,0,0,0,0,200,-5518,145,25,-5964,1405,-3073,-96,0,0,0,-5518,123,161,-5963,0,-3,65,1,4,-3,0,0,0,0,1,7,0,1,1,-0.04964405451265941,0.004692019881075032,1.6483724937569342,0,0,0,"","","",NaN,NaN,NaN,NaN
324,13595578,-12,0,0,10000,1521,332,3,3,-3,8,7,0,-33,126,-2037,-59,-68,-2311,159,159,159,158,-5518,123,161,-5963,3,0,-1,8127,0,0,0,-2,0,0,-1,-1,1,0,0,0,0,0,0,-2,-1,1,3,2,2,0,0,0,0,0,1,2,1,1,0,0,0,0,264,260,269,272,0,0,0,0,265,260,269,272,0,0,0,0,0,0,0,0,0,0,0,0,1405,-3073,-96,13560252,1405,-3073,-98,0,0,0,0,0,0,0,0,0,0,0,0,0,0,200,-5518,145,25,-5964,1405,-3073,-96,0,0,0,-5518,123,161,-5963,0,-3,65,1,4,-3,0,0,0,0,1,7,0,1,1,-0.04964405451265941,0.004692019881075032,1.6483724937569342,0,0,0,"","","",NaN,NaN,NaN,NaN
328,13597594,-12,0,0,10000,1521,332,0,17,-2,0,17,-2,-27,109,-2059,215,113,-1863,160,158,160,158,-5518,124,161,-5963,3,4,-1,8127,0,0,0,-2,0,0,0,-4,1,0,0,0,0,0,0,-1,-7,1,7,0,6,0,0,0,0,0,2,1,2,1,0,0,0,0,264,260,269,272,0,0,0,0,265,262,269,272,0,0,0,0,0,0,0,0,0,0,0,0,1405,-3073,-96,13560252,1405,-3073,-98,0,0,0,0,0,0,0,0,0,0,0,0,0,0,200,-5518,145,25,-5964,1405,-3073,-96,0,0,0,-5518,124,161,-5963,0,-3,65,1,4,-3,0,0,0,0,1,7,0,1,1,-0.04981131053125856,0.0045114526825619635,1.6483721149664468,0,0,0,"","","",NaN,NaN,NaN,NaN
332,13599610,-12,0,0,10000,1521,332,0,-1,5,10,-8,9,-11,94,-2063,-60,154,-1841,158,158,158,158,-5518,124,161,-5963,2,2,0,8127,0,0,0,-2,0,0,0,0,-1,0,0,0,0,0,0,-1,0,-2,1,0,0,1,0,0,0,0,2,1,2,1,0,0,0,0,264,260,269,272,0,0,0,0,265,260,271,274,0,0,0,0,0,0,0,0,0,0,0,0,1405,-3073,-96,13560252,1405,-3073,-98,0,0,0,0,0,0,0,0,0,0,0,0,0,0,200,-5518,145,25,-5964,1405,-3073,-96,0,0,0,-5518,124,161,-5963,0,-3,65,1,4,-3,0,0,0,0,1,7,0,1,1,-0.04981131053125856,0.0045114526825619635,1.6483721149664468,0,0,0,"","","",NaN,NaN,NaN,NaN
336,13601626,-12,0,0,10000,1521,332,-7,8,-3,-2,4,-4,-4,91,-2043,266,-59,-1978,159,158,160,158,-5518,124,161,-5963,0,3,0,8127,0,0,0,-2,0,0,1,-2,1,0,0,0,0,0,0,2,-3,1,2,0,4,0,0,0,0,0,2,1,2,1,0,0,0,0,264,260,269,272,0,0,0,0,265,260,269,272,0,0,0,0,0,0,0,0,0,0,0,0,1405,-3073,-96,13560252,1405,-3073,-98,0,0,0,0,0,0,0,0,0,0,0,0,0,0,200,-5518,145,25,-5964,1405,-3073,-96,0,0,0,-5518,124,161,-5963,0,-3,65,1,4,-3,0,0,0,0,1,7,0,1,1,-0.04981131053125856,0.0045114526825619635,1.6483721149664468,0,0,0,"","","",NaN,NaN,NaN,NaN
340,13603642,-12,0,0,10000,1521,332,-1,1,8,5,5,10,6,79,-2029,51,169,-2646,159,158,158,159,-5518,124,161,-5963,0,1,1,8127,0,0,0,-2,0,0,0,0,-2,0,0,0,0,0,0,0,0,-3,2,0,0,1,0,0,0,0,2,1,2,1,0,0,0,0,264,260,269,272,0,0,0,0,265,259,269,271,0,0,0,0,0,0,0,0,0,0,0,0,1405,-3073,-96,13560252,1405,-3073,-98,0,0,0,0,0,0,0,0,0,0,0,0,0,0,200,-5518,145,25,-5964,1405,-3073,-96,0,0,0,-5518,124,161,-5963,0,-3,65,1,4,-3,0,0,0,0,1,7,0,1,1,-0.04981131053125856,0.0045114526825619635,1.6483721149664468,0,0,0,"","","",NaN,NaN,NaN,NaN
344,13605658,-12,0,0,10000,1521,332,-8,-5,2,-24,-21,-4,10,80,-2042,60,90,-1857,158,158,159,159,-5518,124,161,-5963,0,1,2,8127,0,0,0,-2,0,0,2,1,0,0,0,0,0,0,0,3,2,-1,0,0,1,4,0,0,0,0,2,1,2,1,0,0,0,0,264,260,269,272,0,0,0,0,265,262,269,272,0,0,0,0,0,0,0,0,0,0,0,0,1405,-3073,-96,13560252,1405,-3073,-98,0,0,0,0,0,0,0,0,0,0,0,0,0,0,200,-5518,145,25,-5964,1405,-3073,-96,0,0,0,-5518,124,161,-5963,0,-3,65,1,4,-3,0,0,0,0,1,7,0,1,1,-0.04981131053125856,0.0045114526825619635,1.6483721149664468,0,0,0,"","","",NaN,NaN,NaN,NaN
348,13607674,-12,0,0,10000,1521,332,-2,-9,4,14,0,1,6,80,-2044,-194,259,-2223,158,159,158,160,-5518,124,162,-5963,-1,-2,2,8127,0,0,0,-2,0,0,0,2,-1,0,0,0,0,0,0,0,3,-2,0,3,0,4,0,0,0,0,1,1,2,2,0,0,0,0,264,260,269,272,0,0,0,0,265,259,271,272,0,0,0,0,0,0,0,0,0,0,0,0,1405,-3073,-96,13560252,1405,-3073,-98,0,0,0,0,0,0,0,0,0,0,0,0,0,0,200,-5518,145,25,-5964,1405,-3073,-96,0,0,0,-5518,124,162,-5963,0,-3,65,1,4,-3,0,0,0,0,1,7,0,1,1,-0.04999214008553474,0.00467854489250377,1.6483815773747592,0,0,0,"","","",NaN,NaN,NaN,NaN
352,13609690,-12,0,0,10000,1521,332,4,-2,-1,-3,6,-1,2,104,-2050,-136,101,-2071,158,159,158,158,-5518,124,162,-5963,1,-2,1,8127,0,0,0,-2,0,0,-1,0,0,0,0,0,0,0,0,-2,1,0,1,2,0,0,0,0,0,0,1,1,1,2,0,0,0,0,264,260,269,272,0,0,0,0,265,260,269,271,0,0,0,0,0,0,0,0,0,0,0,0,1405,-3073,-96,13560252,1405,-3073,-98,0,0,0,0,0,0,0,0,0,0,0,0,0,0,200,-5518,145,25,-5964,1405,-3073,-96,0,0,0,-5518,124,162,-5963,0,-3,65,1,4,-3,0,0,0,0,1,7,0,1,1,-0.04999214008553474,0.00467854489250377,1.6483815773747592,0,0,0,"","","",NaN,NaN,NaN,NaN
356,13611706,-12,0,0,10000,1522,378,5,-8,3,-3,-1,5,-10,111,-2046,-272,310,-1692,159,160,158,159,-5518,123,162,-5963,2,-3,1,8127,0,0,0,-2,0,0,-1,2,-1,0,0,0,0,0,0,-3,3,-1,2,5,0,3,0,0,0,0,1,2,1,2,0,0,0,0,265,260,269,272,0,0,0,0,265,260,269,272,0,0,0,0,0,0,0,0,0,0,0,0,1405,-3073,-96,13560252,1405,-3073,-98,0,0,0,0,0,0,0,0,0,0,0,0,0,0,200,-5518,145,25,-5964,1405,-3073,-96,0,0,0,-5518,123,162,-5963,0,-3,65,1,4,-3,0,0,0,0,1,7,0,1,1,-0.04982488409693375,0.004859112232379389,1.6483819608296124,0,0,0,"","","",NaN,NaN,NaN,NaN
360,13613722,-12,0,0,10000,1522,378,5,-3,-8,6,-8,-7,-24,123,-2026,-65,96,-1995,158,159,158,158,-5518,123,162,-5963,2,-2,-1,8127,0,0,0,-2,0,0,-2,1,2,0,0,0,0,0,0,-3,1,3,1,3,0,0,0,0,0,0,1,2,1,2,0,0,0,0,265,260,269,272,0,0,0,0,265,259,269,274,0,0,0,0,0,0,0,0,0,0,0,0,1405,-3073,-96,13560252,1405,-3073,-98,0,0,0,0,0,0,0,0,0,0,0,0,0,0,200,-5518,145,25,-5964,1405,-3073,-96,0,0,0,-5518,123,162,-5963,0,-3,65,1,4,-3,0,0,0,0,1,7,0,1,1,-0.04982488409693375,0.004859112232379389,1.6483819608296124,0,0,0,"","","",NaN,NaN,NaN,NaN
364,13615738,-12,0,0,10000,1522,378,11,3,-2,19,6,-4,-34,125,-2013,-107,163,-2039,160,159,158,158,-5518,124,161,-5963,3,-2,-1,8127,0,0,0,-2,0,0,-3,-1,0,0,0,0,0,0,0,-5,-1,1,4,3,1,0,0,0,0,0,1,2,1,1,0,0,0,0,265,260,269,272,0,0,0,0,266,262,271,274,0,0,0,0,0,0,0,0,0,0,0,0,1405,-3073,-97,13612497,1405,-3073,-99,0,0,0,0,0,0,-3,-12,1,0,0,0,0,0,200,-5508,172,-47,-5973,1405,-3073,-97,0,0,0,-5518,124,161,-5963,0,-3,66,0,-1,-4,0,0,0,0,1,7,0,1,1,-0.04981131053125856,0.0045114526825619635,1.6483721149664468,0,0,0,"","","",NaN,NaN,NaN,NaN
368,13617754,-12,0,0,10000,1522,378,5,3,-7,-8,2,-6,-30,128,-2019,31,44,-2117,159,159,159,158,-5518,124,161,-5963,4,0,-2,8127,0,0,0,-2,0,0,-1,-1,2,0,0,0,0,0,0,-3,-1,3,3,3,2,0,0,0,0,0,2,2,1,1,0,0,0,0,265,260,269,272,0,0,0,0,265,257,269,272,0,0,0,0,0,0,0,0,0,0,0,0,1405,-3073,-97,13612497,1405,-3073,-99,0,0,0,0,0,0,-3,-12,1,0,0,0,0,0,200,-5508,172,-47,-5973,1405,-3073,-97,0,0,0,-5518,124,161,-5963,0,-3,66,0,-1,-4,0,0,0,0,1,7,0,1,1,-0.04981131053125856,0.0045114526825619635,1.6483721149664468,0,0,0,"","","",NaN,NaN,NaN,NaN
372,13619771,-12,0,0,10000,1522,378,2,2,-1,-8,16,-3,-20,115,-2044,-78,157,-2088,159,158,158,158,-5518,124,161,-5963,3,0,-1,8127,0,0,0,-2,0,0,-1,-1,0,0,0,0,0,0,0,-1,-1,1,2,1,1,0,0,0,0,0,2,2,1,1,0,0,0,0,265,260,269,272,0,0,0,0,265,262,268,272,0,0,0,0,0,0,0,0,0,0,0,0,1405,-3073,-97,13612497,1405,-3073,-99,0,0,0,0,0,0,-3,-12,1,0,0,0,0,0,200,-5508,172,-47,-5973,1405,-3073,-97,0,0,0,-5518,124,161,-5963,0,-3,66,0,-1,-4,0,0,0,0,1,7,0,1,1,-0.04981131053125856,0.0045114526825619635,1.6483721149664468,0,0,0,"","","",NaN,NaN,NaN,NaN
376,13621786,-12,0,0,10000,1522,378,5,8,-2,24,8,7,-9,107,-2059,88,-84,-1951,160,159,159,158,-5518,124,161,-5963,2,2,-2,8127,0,0,0,-2,0,0,-2,-2,1,0,0,0,0,0,0,-3,-3,1,5,2,3,0,0,0,0,0,2,2,1,1,0,0,0,0,265,260,269,272,0,0,0,0,265,260,271,272,0,0,0,0,0,0,0,0,0,0,0,0,1405,-3073,-97,13612497,1405,-3073,-99,0,0,0,0,0,0,-3,-12,1,0,0,0,0,0,200,-5508,172,-47,-5973,1405,-3073,-97,0,0,0,-5518,124,161,-5963,0,-3,66,0,-1,-4,0,0,0,0,1,7,0,1,1,-0.04981131053125856,0.0045114526825619635,1.6483721149664468,0,0,0,"","","",NaN,NaN,NaN,NaN
380,13623802,-12,0,0,10000,1522,378,-2,9,2,-12,12,-8,-3,93,-2052,64,114,-2101,159,158,159,158,-5518,124,161,-5963,2,2,0,8127,0,0,0,-2,0,0,0,-2,0,0,0,0,0,0,0,0,-4,-1,4,0,3,0,0,0,0,0,2,2,1,1,0,0,0,0,265,260,269,272,0,0,0,0,266,260,269,271,0,0,0,0,0,0,0,0,0,0,0,0,1405,-3073,-97,13612497,1405,-3073,-99,0,0,0,0,0,0,-3,-12,1,0,0,0,0,0,200,-5508,172,-47,-5973,1405,-3073,-97,0,0,0,-5518,124,161,-5963,0,-3,66,0,-1,-4,0,0,0,0,1,7,0,1,1,-0.04981131053125856,0.0045114526825619635,1.6483721149664468,0,0,0,"","","",NaN,NaN,NaN,NaN
384,13625818,-12,0,0,10000,1522,378,-4,3,0,3,-6,8,6,89,-2034,203,-126,-2002,158,158,158,158,-5518,124,161,-5963,0,2,-1,8127,0,0,0,-2,0,0,0,-1,0,0,0,0,0,0,0,1,-1,0,1,0,1,0,0,0,0,0,2,2,1,1,0,0,0,0,265,260,269,272,0,0,0,0,266,260,269,274,0,0,0,0,0,0,0,0,0,0,0,0,1405,-3073,-97,13612497,1405,-3073,-99,0,0,0,0,0,0,-3,-12,1,0,0,0,0,0,200,-5508,172,-47,-5973,1405,-3073,-97,0,0,0,-5518,124,161,-5963,0,-3,66,0,-1,-4,0,0,0,0,1,7,0,1,1,-0.04981131053125856,0.0045114526825619635,1.6483721149664468,0,0,0,"","","",NaN,NaN,NaN,NaN
388,13627834,-12,0,0,10000,1522,378,-3,0,5,-8,3,-9,9,78,-2034,36,135,-2231,158,158,158,158,-5518,124,161,-5963,0,1,2,8127,0,0,0,-2,0,0,0,0,-1,0,0,0,0,0,0,0,0,-2,1,0,0,1,0,0,0,0,2,1,1,1,0,0,0,0,265,260,269,272,0,0,0,0,263,260,269,272,0,0,0,0,0,0,0,0,0,0,0,0,1405,-3073,-97,13612497,1405,-3073,-99,0,0,0,0,0,0,-3,-12,1,0,0,0,0,0,200,-5508,172,-47,-5973,1405,-3073,-97,0,0,0,-5518,124,161,-5963,0,-3,66,0,-1,-4,0,0,0,0,1,7,0,1,1,-0.04981131053125856,0.0045114526825619635,1.6483721149664468,0,0,0,"","","",NaN,NaN,NaN,NaN
392,13629850,-12,0,0,10000,1522,378,-2,-8,3,5,-16,10,11,82,-2043,-79,87,-2158,158,159,158,159,-5518,124,161,-5963,-1,-1,1,8127,0,0,0,-2,0,0,0,2,-1,0,0,0,0,0,0,0,3,-1,0,3,0,4,0,0,0,0,2,2,1,1,0,0,0,0,265,260,269,272,0,0,0,0,265,260,268,271,0,0,0,0,0,0,0,0,0,0,0,0,1405,-3073,-97,13612497,1405,-3073,-99,0,0,0,0,0,0,-3,-12,1,0,0,0,0,0,200,-5508,172,-47,-5973,1405,-3073,-97,0,0,0,-5518,124,161,-5963,0,-3,66,0,-1,-4,0,0,0,0,1,7,0,1,1,-0.04981131053125856,0.0045114526825619635,1.6483721149664468,0,0,0,"","","",NaN,NaN,NaN,NaN
396,13631866,-12,0,0,10000,1532,328,4,-2,5,-1,4,1,5,91,-2052,-112,443,-2117,159,159,158,159,-5518,124,161,-5963,0,-1,2,8127,0,0,0,-2,0,0,-1,0,-1,0,0,0,0,0,0,-2,1,-2,2,2,0,2,0,0,0,0,2,2,1,1,0,0,0,0,265,260,269,272,0,0,0,0,266,260,269,272,0,0,0,0,0,0,0,0,0,0,0,0,1405,-3073,-97,13612497,1405,-3073,-99,0,0,0,0,0,0,-3,-12,1,0,0,0,0,0,200,-5508,172,-47,-5973,1405,-3073,-97,0,0,0,-5518,124,161,-5963,0,-3,66,0,-1,-4,0,0,0,0,1,7,0,1,1,-0.04981131053125856,0.0045114526825619635,1.6483721149664468,0,0,0,"","","",NaN,NaN,NaN,NaN
400,13633883,-12,0,0,10000,1532,328,4,-10,0,7,-13,8,-5,108,-2049,-15,77,-2021,158,160,158,159,-5518,124,161,-5963,0,-3,1,8127,0,0,0,-2,0,0,-1,2,0,0,0,0,0,0,0,-3,4,0,1,5,0,3,0,0,0,0,2,2,1,1,0,0,0,0,265,260,269,272,0,0,0,0,265,262,269,272,0,0,0,0,0,0,0,0,0,0,0,0,1405,-3073,-97,13612497,1405,-3073,-99,0,0,0,0,0,0,-3,-12,1,0,0,0,0,0,200,-5508,172,-47,-5973,1405,-3073,-97,0,0,0,-5518,124,161,-5963,0,-3,66,0,-1,-4,0,0,0,0,1,7,0,1,1,-0.04981131053125856,0.0045114526825619635,1.6483721149664468,0,0,0,"","","",NaN,NaN,NaN,NaN
404,13635898,-12,0,0,10000,1532,328,12,-5,-3,21,-8,-12,-17,116,-2040,191,276,-1736,159,160,158,158,-5518,123,161,-5963,1,-2,1,8127,0,0,0,-2,0,0,-3,1,1,0,0,0,0,0,0,-5,2,1,3,5,0,1,0,0,0,0,2,2,1,1,0,0,0,0,265,260,269,272,0,0,0,0,265,260,271,272,0,0,0,0,0,0,0,0,0,0,0,0,1405,-3073,-97,13612497,1405,-3073,-99,0,0,0,0,0,0,-3,-12,1,0,0,0,0,0,200,-5508,172,-47,-5973,1405,-3073,-97,0,0,0,-5518,123,161,-5963,0,-3,66,0,-1,-4,0,0,0,0,1,7,0,1,1,-0.04964405451265941,0.004692019881075032,1.6483724937569342,0,0,0,"","","",NaN,NaN,NaN,NaN
408,13637915,-12,0,0,10000,1532,328,8,-4,-3,7,4,5,-27,123,-2022,-107,39,-1722,159,159,158,158,-5518,123,161,-5963,2,-3,-1,8127,0,0,0,-2,0,0,-2,1,1,0,0,0,0,0,0,-4,2,1,2,4,0,0,0,0,0,0,2,2,1,1,0,0,0,0,265,260,269,272,0,0,0,0,265,257,268,272,0,0,0,0,0,0,0,0,0,0,0,0,1405,-3073,-97,13612497,1405,-3073,-99,0,0,0,0,0,0,-3,-12,1,0,0,0,0,0,200,-5508,172,-47,-5973,1405,-3073,-97,0,0,0,-5518,123,161,-5963,0,-3,66,0,-1,-4,0,0,0,0,1,7,0,1,1,-0.04964405451265941,0.004692019881075032,1.6483724937569342,0,0,0,"","","",NaN,NaN,NaN,NaN
412,13639930,-12,0,0,10000,1532,328,13,6,-7,20,22,-14,-37,128,-2016,283,71,-2172,160,159,158,158,-5518,123,161,-5963,3,-2,-1,8127,0,0,0,-2,0,0,-3,-1,2,0,0,0,0,0,0,-6,-2,3,6,2,0,0,0,0,0,0,2,2,1,1,0,0,0,0,265,260,269,272,0,0,0,0,263,260,268,272,0,0,0,0,0,0,0,0,0,0,0,0,1405,-3073,-97,13612497,1405,-3073,-99,0,0,0,0,0,0,-3,-12,1,0,0,0,0,0,200,-5508,172,-47,-5973,1405,-3073,-97,0,0,0,-5518,123,161,-5963,0,-3,66,0,-1,-4,0,0,0,0,1,7,0,1,1,-0.04964405451265941,0.004692019881075032,1.6483724937569342,0,0,0,"","","",NaN,NaN,NaN,NaN
416,13641946,-12,0,0,10000,1532,328,6,8,-5,10,9,1,-37,122,-2028,151,9,-2091,160,159,159,158,-5518,123,161,-5963,2,1,-2,8127,0,0,0,-2,0,0,-2,-2,1,0,0,0,0,0,0,-3,-3,2,5,3,3,0,0,0,0,0,2,2,1,1,0,0,0,0,265,260,269,272,0,0,0,0,265,260,268,272,0,0,0,0,0,0,0,0,0,0,0,0,1405,-3073,-97,13612497,1405,-3073,-99,0,0,0,0,0,0,-3,-12,1,0,0,0,0,0,200,-5508,172,-47,-5973,1405,-3073,-97,0,0,0,-5518,123,161,-5963,0,-3,66,0,-1,-4,0,0,0,0,1,7,0,1,1,-0.04964405451265941,0.004692019881075032,1.6483724937569342,0,0,0,"","","",NaN,NaN,NaN,NaN
