"Product","Blackbox flight data recorder by Nicholas Sherlock"
"firmwareType",5
"firmware","5.0"
"firmwarePatch",0
"firmwareVersion","5.0.0"
"Firmware revision","Indiflight 5.0.0 (942c5992e) STM32H743"
"Firmware date","Oct 25 2024 20:25:45"
"Board information","MTKS MATEKH743"
"Log start datetime","0000-01-01T00:00:00.000+00:00"
"Craft name",""
"frameIntervalI",64
"frameIntervalPNum",1
"frameIntervalPDenom",4
"minthrottle",1070
"maxthrottle",2000
"gyroScale",1.7453292519943295e-8
"motorOutput","158,2047"
"acc_1G",2048
"vbatscale",110
"vbatmincellvoltage",330
"vbatwarningcellvoltage",350
"vbatmaxcellvoltage",430
"vbatref",1578
"currentMeterOffset",0
"currentMeterScale",280
"looptime",125
"gyro_sync_denom",1
"pid_process_denom",4
"thrMid",50
"thrExpo",0
"tpa_mode",1
"tpa_rate",65
"tpa_breakpoint",1350
"rc_rates","7,7,7"
"rc_expo","0,0,0"
"rates","67,67,67"
"rate_limits","1998,1998,1998"
"rollPID","45,80,40,30,120"
"pitchPID","47,84,46,34,125"
"yawPID","45,80,0,0,120"
"levelPID","50,50,75"
"magPID","40,,"
"d_min_gain",37
"d_min_advance",20
"dterm_filter_type",0
"dterm_lpf_hz",0
"dterm_lpf_dyn_hz","75,150"
"dterm_filter2_type",0
"dterm_lpf2_hz",0
"yaw_lpf_hz",0
"dterm_notch_hz",0
"dterm_notch_cutoff",0
"itermWindupPointPercent",85
"iterm_relax",1
"iterm_relax_type",1
"iterm_relax_cutoff",15
"pidAtMinThrottle",1
"anti_gravity_gain",80
"abs_control_gain",0
"use_integrated_yaw",0
"ff_transition",0
"ff_averaging",0
"ff_smooth_factor",25
"ff_jitter_factor",7
"ff_boost",15
"ff_max_rate_limit",90
"yawRateAccelLimit",0
"rateAccelLimit",0
"pidSumLimit",500
"pidSumLimitYaw",400
"deadband",0
"yaw_deadband",0
"gyro_lpf",0
"gyro_soft_type",0
"gyro_lowpass_hz",100
"gyro_lowpass_dyn_hz","0,250"
"gyro_soft2_type",0
"gyro_lowpass2_hz",0
"gyro_notch_hz","0,0"
"gyro_notch_cutoff","0,0"
"gyro_to_use",0
"dyn_notch_max_hz",600
"dyn_notch_count",0
"dyn_notch_q",500
"dyn_notch_min_hz",100
"dshot_bidir",1
"motor_poles",14
"gyro_rpm_notch_harmonics",3
"gyro_rpm_notch_q",500
"gyro_rpm_notch_min",60
"rpm_filter_fade_range_hz",50
"rpm_notch_lpf",150
"acc_lpf_hz",2500
"acc_hardware",0
"gyro_cal_on_first_arm",0
"airmode_activate_throttle",25
"serialrx_provider",2
"unsynced_fast_pwm",0
"fast_pwm_protocol",7
"motor_pwm_rate",480
"digitalIdleOffset",550
"debug_mode",0
"features",272892936
"rc_smoothing_mode",1
"rc_smoothing_auto_factor_setpoint",30
"rc_smoothing_auto_factor_throttle",30
"rc_smoothing_feedforward_hz",0
"rc_smoothing_setpoint_hz",0
"rc_smoothing_throttle_hz",0
"rc_smoothing_debug_axis",0
"rc_smoothing_active_cutoffs_ff_sp_thr","38,0,0"
"rc_smoothing_rx_average",0
"rates_type",3
"fields_disabled_mask",581
"blackbox_high_resolution",1
"vbat_sag_compensation",0
"dynamic_idle_min_rpm",0
"dyn_idle_p_gain",50
"dyn_idle_i_gain",50
"dyn_idle_d_gain",50
"dyn_idle_max_increase",150
"simplified_pids_mode",2
"simplified_master_multiplier",100
"simplified_i_gain",100
"simplified_d_gain",100
"simplified_pi_gain",100
"simplified_dmax_gain",100
"simplified_feedforward_gain",100
"simplified_pitch_d_gain",100
"simplified_pitch_pi_gain",100
"simplified_dterm_filter",0
"simplified_dterm_filter_multiplier",100
"simplified_gyro_filter",1
"simplified_gyro_filter_multiplier",40
"motor_output_limit",100
"throttle_limit_type",0
"throttle_limit_percent",100
"throttle_boost",5
"throttle_boost_cutoff",15
"loopIteration","time","rcCommand[0]","rcCommand[1]","rcCommand[2]","rcCommand[3]","vbatLatest","amperageLatest","gyroADC[0]","gyroADC[1]","gyroADC[2]","gyroADCafterRpm[0]","gyroADCafterRpm[1]","gyroADCafterRpm[2]","accSmooth[0]","accSmooth[1]","accSmooth[2]","accADCafterRpm[0]","accADCafterRpm[1]","accADCafterRpm[2]","motor[0]","motor[1]","motor[2]","motor[3]","quat[0]","quat[1]","quat[2]","quat[3]","alpha[0]","alpha[1]","alpha[2]","quatSp[0]","quatSp[1]","quatSp[2]","quatSp[3]","gyroSp[0]","gyroSp[1]","gyroSp[2]","alphaSp[0]","alphaSp[1]","alphaSp[2]","spfSp[0]","spfSp[1]","spfSp[2]","dv[0]","dv[1]","dv[2]","dv[3]","dv[4]","dv[5]","u[0]","u[1]","u[2]","u[3]","u[4]","u[5]","u[6]","u[7]","u_state[0]","u_state[1]","u_state[2]","u_state[3]","u_state[4]","u_state[5]","u_state[6]","u_state[7]","omega[0]","omega[1]","omega[2]","omega[3]","omega[4]","omega[5]","omega[6]","omega[7]","omegaUnfiltered[0]","omegaUnfiltered[1]","omegaUnfiltered[2]","omegaUnfiltered[3]","omegaUnfiltered[4]","omegaUnfiltered[5]","omegaUnfiltered[6]","omegaUnfiltered[7]","omega_dot[0]","omega_dot[1]","omega_dot[2]","omega_dot[3]","omega_dot[4]","omega_dot[5]","omega_dot[6]","omega_dot[7]","pos[0]","pos[1]","pos[2]","extTime","extPos[0]","extPos[1]","extPos[2]","posSp[0]","posSp[1]","posSp[2]","vel[0]","vel[1]","vel[2]","extVel[0]","extVel[1]","extVel[2]","velSp[0]","velSp[1]","velSp[2]","accSp[0]","accSp[1]","accSp[2]","extQuat[0]","extQuat[1]","extQuat[2]","extQuat[3]","ekf_pos[0]","ekf_pos[1]","ekf_pos[2]","ekf_vel[0]","ekf_vel[1]","ekf_vel[2]","ekf_quat[0]","ekf_quat[1]","ekf_quat[2]","ekf_quat[3]","ekf_acc_b[0]","ekf_acc_b[1]","ekf_acc_b[2]","ekf_gyro_b[0]","ekf_gyro_b[1]","ekf_gyro_b[2]","nn_active","flightModeFlags","stateFlags","failsafePhase","rxSignalReceived","rxFlightChannelsValid","heading[0]","heading[1]","heading[2]"
0,5797493,-12,0,0,10000,1560,453,18,-6,-10,39,-16,-8,-82,88,-2034,-2,349,-1753,159,161,158,158,5620,-50,-251,5865,1,-2,-2,8127,0,0,0,-2,0,0,-5,1,2,0,0,0,0,0,0,-8,3,4,3,7,0,0,0,0,0,0,3,2,1,1,0,0,0,0,270,265,274,277,0,0,0,0,269,268,272,278,0,0,0,0,1,0,0,0,0,0,0,0,1569,-2962,-94,5755942,1569,-2963,-99,0,0,0,0,0,2,1,-6,0,0,0,0,0,0,200,5612,-91,-44,5878,1569,-2962,-94,0,0,2,5620,-50,-251,5865,2,-3,55,27,-20,-2,0,"","","","","",-0.053141406231502215,0.03384148274191117,1.6143536451192861,0,0,0,"","","",NaN,NaN,NaN,NaN
4,5799510,-12,0,0,10000,1560,453,19,2,-10,25,4,-7,-86,95,-2028,-262,121,-1872,160,161,159,158,5620,-50,-251,5865,3,-2,-4,8127,0,0,0,-2,0,0,-5,0,2,0,0,0,0,0,0,-8,-1,4,6,7,2,0,0,0,0,0,3,2,1,1,0,0,0,0,270,265,274,277,0,0,0,0,271,263,272,277,0,0,0,0,1,0,0,0,0,0,0,0,1569,-2962,-94,5755942,1569,-2963,-99,0,0,0,0,0,2,1,-6,0,0,0,0,0,0,200,5612,-91,-44,5878,1569,-2962,-94,0,0,2,5620,-50,-251,5865,2,-3,55,27,-20,-2,0,1,7,0,1,1,-0.053141406231502215,0.03384148274191117,1.6143536451192861,0,0,0,"","","",NaN,NaN,NaN,NaN
8,5801525,-12,0,0,10000,1560,453,23,3,-8,24,6,-6,-94,99,-2029,206,309,-1938,161,161,159,158,5620,-50,-251,5865,5,-1,-4,8127,0,0,0,-2,0,0,-6,-1,2,0,0,0,0,0,0,-10,-1,3,8,8,2,0,0,0,0,0,3,3,1,1,0,0,0,0,270,265,274,277,0,0,0,0,272,265,275,278,0,0,0,0,1,0,0,0,0,0,0,0,1569,-2962,-94,5755942,1569,-2963,-99,0,0,0,0,0,2,1,-6,0,0,0,0,0,0,200,5612,-91,-44,5878,1569,-2962,-94,0,0,2,5620,-50,-251,5865,2,-3,55,27,-20,-2,0,1,7,0,1,1,-0.053141406231502215,0.03384148274191117,1.6143536451192861,0,0,0,"","","",NaN,NaN,NaN,NaN
12,5803541,-12,0,0,10000,1560,453,20,4,-4,35,9,-2,-91,109,-2032,18,219,-1999,161,160,159,158,5620,-49,-251,5865,5,-1,-3,8127,0,0,0,-2,0,0,-5,-1,1,0,0,0,0,0,0,-9,-2,1,7,6,2,0,0,0,0,0,3,3,1,1,0,0,0,0,270,265,274,277,0,0,0,0,271,266,274,275,0,0,0,0,1,0,0,0,0,0,0,0,1569,-2962,-94,5755942,1569,-2963,-99,0,0,0,0,0,2,1,-6,0,0,0,0,0,0,200,5612,-91,-44,5878,1569,-2962,-94,0,0,2,5620,-49,-251,5865,2,-3,55,27,-20,-2,0,1,7,0,1,1,-0.05297121098354949,0.03401918451316092,1.6143539775230455,0,0,0,"","","",NaN,NaN,NaN,NaN
16,5805557,-12,0,0,10000,1565,350,17,7,4,14,10,10,-81,119,-2042,59,311,-1801,161,159,158,158,5620,-49,-251,5865,6,0,-2,8127,0,0,0,-2,0,0,-4,-2,-1,0,0,0,0,0,0,-8,-3,-2,8,4,1,0,0,0,0,0,3,3,1,1,0,0,0,0,270,265,274,278,0,0,0,0,272,266,274,278,0,0,0,0,1,0,0,0,0,0,0,0,1569,-2962,-94,5755942,1569,-2963,-99,0,0,0,0,0,2,1,-6,0,0,0,0,0,0,200,5612,-91,-44,5878,1569,-2962,-94,0,0,2,5620,-49,-251,5865,2,-3,55,27,-20,-2,0,1,7,0,1,1,-0.05297121098354949,0.03401918451316092,1.6143539775230455,0,0,0,"","","",NaN,NaN,NaN,NaN
20,5807573,-12,0,0,10000,1565,350,14,3,7,23,-6,8,-74,124,-2051,93,-13,-2061,160,159,158,158,5620,-49,-250,5865,4,1,0,8127,0,0,0,-2,0,0,-4,-1,-2,0,0,0,0,0,0,-6,-1,-3,6,3,0,0,0,0,0,0,4,3,1,1,0,0,0,0,270,265,274,278,0,0,0,0,272,268,275,280,0,0,0,0,1,0,0,0,0,0,0,0,1569,-2962,-94,5755942,1569,-2963,-99,0,0,0,0,0,2,1,-6,0,0,0,0,0,0,200,5612,-91,-44,5878,1569,-2962,-94,0,0,2,5620,-49,-250,5865,2,-3,55,27,-20,-2,0,1,7,0,1,1,-0.05279295690108105,0.033848904045030354,1.6143388748974021,0,0,0,"","","",NaN,NaN,NaN,NaN
24,5809590,-12,0,0,10000,1565,350,0,8,9,-13,0,1,-59,125,-2054,-147,27,-2057,159,158,158,158,5620,-50,-251,5865,2,2,3,8127,0,0,0,-2,0,0,-1,-2,-2,0,0,0,0,0,0,-1,-3,-4,3,0,0,0,0,0,0,0,4,3,1,1,0,0,0,0,271,265,274,278,0,0,0,0,272,265,272,277,0,0,0,0,1,0,0,0,0,0,0,0,1569,-2962,-95,5805846,1569,-2962,-99,0,0,0,0,0,1,2,-1,2,0,0,0,0,0,200,5623,-27,-100,5867,1569,-2962,-95,0,0,1,5620,-50,-251,5865,2,-3,58,35,-22,-3,0,1,7,0,1,1,-0.053141406231502215,0.03384148274191117,1.6143536451192861,0,0,0,"","","",NaN,NaN,NaN,NaN
28,5811606,-12,0,0,10000,1565,350,-3,5,13,-4,30,15,-56,118,-2039,-168,17,-2140,160,158,158,159,5620,-50,-251,5865,-1,0,4,8127,0,0,0,-2,0,0,0,-1,-3,0,0,0,0,0,0,1,-2,-5,5,0,0,3,0,0,0,0,4,3,1,1,0,0,0,0,271,266,274,278,0,0,0,0,272,266,277,278,0,0,0,0,1,0,0,0,0,0,0,0,1569,-2962,-95,5805846,1569,-2962,-99,0,0,0,0,0,1,2,-1,2,0,0,0,0,0,200,5623,-27,-100,5867,1569,-2962,-95,0,0,1,5620,-50,-251,5865,2,-3,58,35,-22,-3,0,1,7,0,1,1,-0.053141406231502215,0.03384148274191117,1.6143536451192861,0,0,0,"","","",NaN,NaN,NaN,NaN
32,5813622,-12,0,0,10000,1565,350,0,-3,4,-12,-6,-7,-47,116,-2039,-125,-77,-2054,159,158,158,159,5620,-50,-251,5865,-2,0,4,8127,0,0,0,-2,0,0,0,1,-1,0,0,0,0,0,0,-1,1,-2,2,0,0,2,0,0,0,0,4,2,1,1,0,0,0,0,271,266,274,278,0,0,0,0,271,268,274,278,0,0,0,0,1,0,0,0,0,0,0,0,1569,-2962,-95,5805846,1569,-2962,-99,0,0,0,0,0,1,2,-1,2,0,0,0,0,0,200,5623,-27,-100,5867,1569,-2962,-95,0,0,1,5620,-50,-251,5865,2,-3,58,35,-22,-3,0,1,7,0,1,1,-0.053141406231502215,0.03384148274191117,1.6143536451192861,0,0,0,"","","",NaN,NaN,NaN,NaN
36,5815638,-12,0,0,10000,1565,350,-2,-4,5,5,-6,1,-57,95,-2042,-123,47,-2162,158,158,158,159,5620,-50,-251,5865,-4,-1,4,8127,0,0,0,-2,0,0,0,1,-1,0,0,0,0,0,0,0,2,-2,1,1,0,3,0,0,0,0,3,2,1,1,0,0,0,0,271,266,274,278,0,0,0,0,272,265,272,277,0,0,0,0,0,0,0,0,0,0,0,0,1569,-2962,-95,5805846,1569,-2962,-99,0,0,0,0,0,1,2,-1,2,0,0,0,0,0,200,5623,-27,-100,5867,1569,-2962,-95,0,0,1,5620,-50,-251,5865,2,-3,58,35,-22,-3,0,1,7,0,1,1,-0.053141406231502215,0.03384148274191117,1.6143536451192861,0,0,0,"","","",NaN,NaN,NaN,NaN
40,5817654,-12,0,0,10000,1565,350,1,-3,-3,-4,-9,-9,-56,92,-2037,-425,-79,-2314,158,159,158,158,5620,-50,-251,5865,-4,-2,2,8127,0,0,0,-2,0,0,-1,1,1,0,0,0,0,0,0,-1,1,1,0,2,0,0,0,0,0,0,3,2,1,1,0,0,0,0,271,266,274,278,0,0,0,0,272,268,274,278,0,0,0,0,0,0,0,0,0,0,0,0,1569,-2962,-95,5805846,1569,-2962,-99,0,0,0,0,0,1,2,-1,2,0,0,0,0,0,200,5623,-27,-100,5867,1569,-2962,-95,0,0,1,5620,-50,-251,5865,2,-3,58,35,-22,-3,0,1,7,0,1,1,-0.053141406231502215,0.03384148274191117,1.6143536451192861,0,0,0,"","","",NaN,NaN,NaN,NaN
44,5819670,-12,0,0,10000,1565,350,12,-3,-7,13,9,-3,-75,80,-2029,-7,153,-2238,159,160,158,158,5620,-50,-251,5865,-2,-3,0,8127,0,0,0,-2,0,0,-3,1,2,0,0,0,0,0,0,-6,1,3,2,5,0,0,0,0,0,0,3,3,1,1,0,0,0,0,271,266,274,278,0,0,0,0,272,266,272,277,0,0,0,0,1,0,0,0,0,0,0,0,1569,-2962,-95,5805846,1569,-2962,-99,0,0,0,0,0,1,2,-1,2,0,0,0,0,0,200,5623,-27,-100,5867,1569,-2962,-95,0,0,1,5620,-50,-251,5865,2,-3,58,35,-22,-3,0,1,7,0,1,1,-0.053141406231502215,0.03384148274191117,1.6143536451192861,0,0,0,"","","",NaN,NaN,NaN,NaN
48,5821686,-12,0,0,10000,1565,350,15,-8,-11,21,-20,-19,-80,89,-2023,-119,50,-2154,159,161,158,158,5620,-49,-250,5865,0,-3,-2,8127,0,0,0,-2,0,0,-4,2,3,0,0,0,0,0,0,-7,3,4,2,7,0,0,0,0,0,0,3,3,1,1,0,0,0,0,271,266,274,278,0,0,0,0,268,268,274,277,0,0,0,0,0,0,0,0,0,0,0,0,1569,-2962,-95,5805846,1569,-2962,-99,0,0,0,0,0,1,2,-1,2,0,0,0,0,0,200,5623,-27,-100,5867,1569,-2962,-95,0,0,1,5620,-49,-250,5865,2,-3,58,35,-22,-3,0,1,7,0,1,1,-0.05279295690108105,0.033848904045030354,1.6143388748974021,0,0,0,"","","",NaN,NaN,NaN,NaN
52,5823702,-12,0,0,10000,1565,350,20,-1,-5,23,2,3,-89,85,-2023,-88,354,-1899,160,160,158,158,5620,-49,-250,5865,2,-3,-3,8127,0,0,0,-2,0,0,-5,0,1,0,0,0,0,0,0,-9,0,2,6,7,0,0,0,0,0,0,3,3,1,1,0,0,0,0,271,266,274,278,0,0,0,0,272,266,274,278,0,0,0,0,0,0,0,0,0,0,0,0,1569,-2962,-95,5805846,1569,-2962,-99,0,0,0,0,0,1,2,-1,2,0,0,0,0,0,200,5623,-27,-100,5867,1569,-2962,-95,0,0,1,5620,-49,-250,5865,2,-3,58,35,-22,-3,0,1,7,0,1,1,-0.05279295690108105,0.033848904045030354,1.6143388748974021,0,0,0,"","","",NaN,NaN,NaN,NaN
56,5825719,-12,0,0,10000,1565,325,21,-1,-8,23,-11,-3,-90,104,-2020,-128,-57,-2185,160,161,158,158,5620,-49,-250,5865,3,-1,-4,8127,0,0,0,-2,0,0,-5,0,2,0,0,0,0,0,0,-9,0,3,6,7,1,0,0,0,0,0,3,3,1,1,0,0,0,0,271,266,274,278,0,0,0,0,272,265,272,277,0,0,0,0,0,0,0,0,0,0,0,0,1569,-2962,-95,5805846,1569,-2962,-99,0,0,0,0,0,1,2,-1,2,0,0,0,0,0,200,5623,-27,-100,5867,1569,-2962,-95,0,0,1,5620,-49,-250,5865,2,-3,58,35,-22,-3,0,1,7,0,1,1,-0.05279295690108105,0.033848904045030354,1.6143388748974021,0,0,0,"","","",NaN,NaN,NaN,NaN
60,5827735,-12,0,0,10000,1565,325,17,7,3,13,0,3,-89,113,-2031,243,394,-2240,161,159,158,158,5620,-49,-250,5865,4,0,-2,8127,0,0,0,-2,0,0,-4,-2,-1,0,0,0,0,0,0,-8,-3,-1,7,4,1,0,0,0,0,0,4,3,1,1,0,0,0,0,271,266,274,278,0,0,0,0,271,266,275,278,0,0,0,0,0,0,0,0,0,0,0,0,1569,-2962,-95,5805846,1569,-2962,-99,0,0,0,0,0,1,2,-1,2,0,0,0,0,0,200,5623,-27,-100,5867,1569,-2962,-95,0,0,1,5620,-49,-250,5865,2,-3,58,35,-22,-3,0,1,7,0,1,1,-0.05279295690108105,0.033848904045030354,1.6143388748974021,0,0,0,"","","",NaN,NaN,NaN,NaN
64,5829750,-12,0,0,10000,1565,325,5,3,6,-5,11,21,-71,125,-2040,-352,57,-1884,159,158,158,158,5620,-49,-250,5865,2,0,-1,8127,0,0,0,-2,0,0,-1,-1,-1,0,0,0,0,0,0,-3,-1,-3,3,0,0,0,0,0,0,0,4,3,1,1,0,0,0,0,271,266,274,278,0,0,0,0,272,266,272,280,0,0,0,0,0,0,0,0,0,0,0,0,1569,-2962,-95,5805846,1569,-2962,-99,0,0,0,0,0,1,2,-1,2,0,0,0,0,0,200,5623,-27,-100,5867,1569,-2962,-95,0,0,1,5620,-49,-250,5865,2,-3,58,35,-22,-3,0,1,7,0,1,1,-0.05279295690108105,0.033848904045030354,1.6143388748974021,0,0,0,"","","",NaN,NaN,NaN,NaN
68,5831767,-12,0,0,10000,1565,325,11,-2,12,9,-19,18,-63,125,-2045,188,356,-1821,159,158,158,158,5620,-49,-250,5865,1,1,2,8127,0,0,0,-2,0,0,-3,1,-3,0,0,0,0,0,0,-5,1,-5,4,0,0,0,0,0,0,0,4,3,1,1,0,0,0,0,271,266,274,278,0,0,0,0,272,268,274,277,0,0,0,0,0,0,0,0,0,0,0,0,1569,-2962,-95,5805846,1569,-2962,-99,0,0,0,0,0,1,2,-1,2,0,0,0,0,0,200,5623,-27,-100,5867,1569,-2962,-95,0,0,1,5620,-49,-250,5865,2,-3,58,35,-22,-3,0,1,7,0,1,1,-0.05279295690108105,0.033848904045030354,1.6143388748974021,0,0,0,"","","",NaN,NaN,NaN,NaN
72,5833783,-12,0,0,10000,1565,325,-4,0,8,-1,-19,11,-52,126,-2037,-191,-42,-1938,159,158,158,159,5620,-49,-250,5865,-2,2,3,8127,0,0,0,-2,0,0,0,0,-2,0,0,0,0,0,0,1,0,-3,2,0,1,2,0,0,0,0,4,3,1,1,0,0,0,0,271,266,274,278,0,0,0,0,271,266,275,278,0,0,0,0,0,0,0,0,0,0,0,0,1569,-2962,-94,5805846,1569,-2962,-99,0,0,0,0,0,1,2,-1,2,0,0,0,0,0,200,5623,-27,-100,5867,1569,-2962,-94,0,0,1,5620,-49,-250,5865,2,-3,58,35,-22,-3,0,1,7,0,1,1,-0.05279295690108105,0.033848904045030354,1.6143388748974021,0,0,0,"","","",NaN,NaN,NaN,NaN
76,5835799,-12,0,0,10000,1565,325,-8,7,11,-21,23,2,-49,117,-2032,-243,187,-2070,160,158,160,159,5620,-49,-250,5865,-4,1,4,8127,0,0,0,-2,0,0,1,-2,-3,0,0,0,0,0,0,2,-3,-5,5,0,4,4,0,0,0,0,4,3,1,1,0,0,0,0,271,266,274,278,0,0,0,0,272,265,272,275,0,0,0,0,0,0,0,0,0,0,0,0,1569,-2962,-94,5805846,1569,-2962,-99,0,0,0,0,0,1,2,-1,2,0,0,0,0,0,200,5623,-27,-100,5867,1569,-2962,-94,0,0,1,5620,-49,-250,5865,2,-3,58,35,-22,-3,0,1,7,0,1,1,-0.05279295690108105,0.033848904045030354,1.6143388748974021,0,0,0,"","","",NaN,NaN,NaN,NaN
80,5837815,-12,0,0,10000,1565,325,-11,-8,5,-30,5,5,-44,104,-2031,-291,-162,-2209,158,159,158,160,5620,-49,-250,5865,-6,-1,3,8127,0,0,0,-2,0,0,2,2,-1,0,0,0,0,0,0,4,3,-2,0,2,0,5,0,0,0,0,3,3,1,1,0,0,0,0,271,266,274,278,0,0,0,0,272,266,274,280,0,0,0,0,0,0,0,0,0,0,0,0,1569,-2962,-94,5805846,1569,-2962,-99,0,0,0,0,0,1,2,-1,2,0,0,0,0,0,200,5623,-27,-100,5867,1569,-2962,-94,0,0,1,5620,-49,-250,5865,2,-3,58,35,-22,-3,0,1,7,0,1,1,-0.05279295690108105,0.033848904045030354,1.6143388748974021,0,0,0,"","","",NaN,NaN,NaN,NaN
84,5839831,-12,0,0,10000,1565,325,-1,-4,-4,3,2,-16,-54,86,-2039,205,81,-2023,158,159,158,158,5620,-49,-250,5865,-6,-1,2,8127,0,0,0,-2,0,0,0,1,1,0,0,0,0,0,0,0,2,2,0,2,0,1,0,0,0,0,3,2,1,1,0,0,0,0,271,266,274,278,0,0,0,0,272,266,275,278,0,0,0,0,0,0,0,0,0,0,0,0,1569,-2962,-94,5805846,1569,-2962,-99,0,0,0,0,0,1,2,-1,2,0,0,0,0,0,200,5623,-27,-100,5867,1569,-2962,-94,0,0,1,5620,-49,-250,5865,2,-3,58,35,-22,-3,0,1,7,0,1,1,-0.05279295690108105,0.033848904045030354,1.6143388748974021,0,0,0,"","","",NaN,NaN,NaN,NaN
88,5841847,-12,0,0,10000,1565,325,1,-4,-5,6,6,-9,-62,77,-2039,-414,-144,-2253,158,159,158,158,5620,-49,-250,5865,-5,-2,0,8127,0,0,0,-2,0,0,-1,1,1,0,0,0,0,0,0,-1,1,2,0,2,0,0,0,0,0,0,3,3,1,1,0,0,0,0,272,266,274,278,0,0,0,0,272,266,275,277,0,0,0,0,0,0,0,0,0,0,0,0,1569,-2962,-94,5805846,1569,-2962,-99,0,0,0,0,0,1,2,-1,2,0,0,0,0,0,200,5623,-27,-100,5867,1569,-2962,-94,0,0,1,5620,-49,-250,5865,2,-3,58,35,-22,-3,0,1,7,0,1,1,-0.05279295690108105,0.033848904045030354,1.6143388748974021,0,0,0,"","","",NaN,NaN,NaN,NaN
92,5843863,-12,0,0,10000,1565,325,5,-4,-13,3,-7,-22,-81,79,-2023,63,74,-2220,158,160,158,158,5620,-49,-250,5865,-4,-2,-2,8127,0,0,0,-2,0,0,-2,1,3,0,0,0,0,0,0,-3,1,5,0,5,1,0,0,0,0,0,3,3,1,1,0,0,0,0,272,266,274,278,0,0,0,0,269,266,275,280,0,0,0,0,0,0,0,0,0,0,0,0,1569,-2962,-94,5805846,1569,-2962,-99,0,0,0,0,0,1,2,-1,2,0,0,0,0,0,200,5623,-27,-100,5867,1569,-2962,-94,0,0,1,5620,-49,-250,5865,2,-3,58,35,-22,-3,0,1,7,0,1,1,-0.05279295690108105,0.033848904045030354,1.6143388748974021,0,0,0,"","","",NaN,NaN,NaN,NaN
96,5845879,-12,0,0,10000,1565,346,15,-5,-11,13,-4,-7,-92,82,-2010,-142,-69,-2335,159,160,158,158,5620,-49,-250,5865,-1,-3,-4,8127,0,0,0,-2,0,0,-4,1,2,0,0,0,0,0,0,-7,2,4,3,7,0,0,0,0,0,0,3,3,1,1,0,0,0,0,272,266,274,278,0,0,0,0,271,263,274,278,0,0,0,0,0,0,0,0,0,0,0,0,1569,-2962,-94,5805846,1569,-2962,-99,0,0,0,0,0,1,2,-1,2,0,0,0,0,0,200,5623,-27,-100,5867,1569,-2962,-94,0,0,1,5620,-49,-250,5865,2,-3,58,35,-22,-3,0,1,7,0,1,1,-0.05279295690108105,0.033848904045030354,1.6143388748974021,0,0,0,"","","",NaN,NaN,NaN,NaN
100,5847896,-12,0,0,10000,1565,346,13,-3,-10,10,-7,-10,-91,92,-2024,-153,171,-1945,159,160,158,158,5620,-48,-250,5865,1,-1,-5,8127,0,0,0,-2,0,0,-4,1,2,0,0,0,0,0,0,-6,1,4,3,6,1,0,0,0,0,0,3,3,1,1,0,0,0,0,272,266,274,278,0,0,0,0,271,266,272,278,0,0,0,0,0,0,0,0,0,0,0,0,1569,-2962,-94,5805846,1569,-2962,-99,0,0,0,0,0,1,2,-1,2,0,0,0,0,0,200,5623,-27,-100,5867,1569,-2962,-94,0,0,1,5620,-48,-250,5865,2,-3,58,35,-22,-3,0,1,7,0,1,1,-0.05262275950547071,0.03402660586104892,1.6143392045956948,0,0,0,"","","",NaN,NaN,NaN,NaN
104,5849912,-12,0,0,10000,1565,346,11,2,-3,14,14,3,-94,104,-2029,-31,204,-1935,160,159,158,158,5620,-48,-250,5865,2,-1,-4,8127,0,0,0,-2,0,0,-3,-1,1,0,0,0,0,0,0,-5,-1,1,4,4,1,0,0,0,0,0,3,3,1,1,0,0,0,0,272,266,274,278,0,0,0,0,269,266,277,280,0,0,0,0,0,0,0,0,0,0,0,0,1569,-2962,-94,5805846,1569,-2962,-99,0,0,0,0,0,1,2,-1,2,0,0,0,0,0,200,5623,-27,-100,5867,1569,-2962,-94,0,0,1,5620,-48,-250,5865,2,-3,58,35,-22,-3,0,1,7,0,1,1,-0.05262275950547071,0.03402660586104892,1.6143392045956948,0,0,0,"","","",NaN,NaN,NaN,NaN
108,5851927,-12,0,0,10000,1565,346,7,4,-3,1,4,-1,-86,125,-2032,109,75,-2333,159,159,159,158,5620,-48,-249,5865,2,1,-3,8127,0,0,0,-2,0,0,-2,-1,1,0,0,0,0,0,0,-3,-2,1,4,3,2,0,0,0,0,0,3,3,1,1,0,0,0,0,272,266,274,278,0,0,0,0,272,268,274,277,0,0,0,0,0,0,0,0,0,0,0,0,1569,-2962,-94,5805846,1569,-2962,-99,0,0,0,0,0,1,2,-1,2,0,0,0,0,0,200,5623,-27,-100,5867,1569,-2962,-94,0,0,1,5620,-48,-249,5865,2,-3,58,35,-22,-3,0,1,7,0,1,1,-0.052444510517648285,0.03385632907744088,1.614324162503776,0,0,0,"","","",NaN,NaN,NaN,NaN
112,5853944,-12,0,0,10000,1565,346,4,11,11,7,13,18,-77,127,-2044,179,154,-2250,160,158,159,158,5620,-48,-249,5865,1,2,0,8127,0,0,0,-2,0,0,-1,-2,-2,0,0,0,0,0,0,-3,-4,-4,5,0,2,0,0,0,0,0,3,3,1,1,0,0,0,0,271,266,274,278,0,0,0,0,271,266,275,280,0,0,0,0,0,0,0,0,0,0,0,0,1569,-2962,-94,5805846,1569,-2962,-99,0,0,0,0,0,1,2,-1,2,0,0,0,0,0,200,5623,-27,-100,5867,1569,-2962,-94,0,0,1,5620,-48,-249,5865,2,-3,58,35,-22,-3,0,1,7,0,1,1,-0.052444510517648285,0.03385632907744088,1.614324162503776,0,0,0,"","","",NaN,NaN,NaN,NaN
116,5855960,-12,0,0,10000,1565,346,-9,-3,8,-14,-12,7,-59,129,-2046,-117,157,-1627,158,158,158,159,5620,-48,-249,5865,-2,2,2,8127,0,0,0,-2,0,0,2,1,-2,0,0,0,0,0,0,3,1,-3,1,0,1,4,0,0,0,0,3,3,1,1,0,0,0,0,271,266,274,278,0,0,0,0,269,266,274,277,0,0,0,0,0,0,0,0,0,0,0,0,1569,-2962,-94,5805846,1569,-2962,-99,0,0,0,0,0,1,2,-1,2,0,0,0,0,0,200,5623,-27,-100,5867,1569,-2962,-94,0,0,1,5620,-48,-249,5865,2,-3,58,35,-22,-3,0,1,7,0,1,1,-0.052444510517648285,0.03385632907744088,1.614324162503776,0,0,0,"","","",NaN,NaN,NaN,NaN
120,5857976,-12,0,0,10000,1565,346,-5,1,13,18,5,22,-60,125,-2033,119,293,-1907,159,158,158,159,5620,-49,-249,5865,-5,2,3,8127,0,0,0,-2,0,0,1,0,-3,0,0,0,0,0,0,1,0,-5,3,0,1,4,0,0,0,0,3,3,1,1,0,0,0,0,271,266,274,278,0,0,0,0,271,268,272,278,0,0,0,0,0,0,0,0,0,0,0,0,1569,-2962,-94,5855913,1569,-2962,-98,0,0,0,0,0,1,-2,0,0,0,0,0,0,0,200,5625,-43,-69,5865,1569,-2962,-94,0,0,1,5620,-49,-249,5865,2,-3,58,35,-22,-3,0,1,7,0,1,1,-0.052614708590816295,0.03367862828613694,1.6143238355137584,0,0,0,"","","",NaN,NaN,NaN,NaN
124,5859992,-12,0,0,10000,1565,346,-10,-2,8,-15,-16,4,-52,119,-2032,-173,-112,-2032,158,158,159,160,5620,-49,-250,5865,-5,2,4,8127,0,0,0,-2,0,0,2,1,-2,0,0,0,0,0,0,3,1,-3,1,0,2,4,0,0,0,0,3,2,1,1,0,0,0,0,271,266,274,278,0,0,0,0,271,266,275,280,0,0,0,0,0,0,0,0,0,0,0,0,1569,-2962,-95,5855913,1569,-2962,-98,0,0,0,0,0,1,-2,0,0,0,0,0,0,0,200,5625,-43,-69,5865,1569,-2962,-95,0,0,1,5620,-49,-250,5865,2,-3,60,37,-23,-3,0,1,7,0,1,1,-0.05279295690108105,0.033848904045030354,1.6143388748974021,0,0,0,"","","",NaN,NaN,NaN,NaN
128,5862008,-12,0,0,10000,1565,346,-10,-2,4,0,-4,1,-59,90,-2046,61,225,-1858,158,158,159,159,5620,-49,-250,5865,-7,1,4,8127,0,0,0,-2,0,0,2,0,-1,0,0,0,0,0,0,3,1,-2,0,0,1,3,0,0,0,0,3,2,1,2,0,0,0,0,271,267,274,278,0,0,0,0,271,265,274,278,0,0,0,0,0,0,0,0,0,0,0,0,1569,-2962,-95,5855913,1569,-2962,-98,0,0,0,0,0,1,-2,0,0,0,0,0,0,0,200,5625,-43,-69,5865,1569,-2962,-95,0,0,1,5620,-49,-250,5865,2,-3,60,37,-23,-3,0,1,7,0,1,1,-0.05279295690108105,0.033848904045030354,1.6143388748974021,0,0,0,"","","",NaN,NaN,NaN,NaN
132,5864024,-12,0,0,10000,1565,346,-5,-9,-3,2,-13,-11,-62,82,-2043,-319,-60,-1911,158,158,158,159,5620,-49,-250,5865,-6,-1,2,8127,0,0,0,-2,0,0,1,2,1,0,0,0,0,0,0,1,4,1,0,0,0,4,0,0,0,0,3,2,1,2,0,0,0,0,271,267,274,278,0,0,0,0,272,266,275,278,0,0,0,0,0,0,0,0,0,0,0,0,1569,-2962,-95,5855913,1569,-2962,-98,0,0,0,0,0,1,-2,0,0,0,0,0,0,0,200,5625,-43,-69,5865,1569,-2962,-95,0,0,1,5620,-49,-250,5865,2,-3,60,37,-23,-3,0,1,7,0,1,1,-0.05279295690108105,0.033848904045030354,1.6143388748974021,0,0,0,"","","",NaN,NaN,NaN,NaN
136,5866041,-12,0,0,10000,1565,325,5,0,-7,11,10,-12,-78,72,-2037,78,219,-2049,158,159,159,158,5620,-49,-250,5865,-4,-1,0,8127,0,0,0,-2,0,0,-2,0,2,0,0,0,0,0,0,-3,0,3,0,4,2,0,0,0,0,0,2,2,1,2,0,0,0,0,271,267,274,278,0,0,0,0,271,266,272,277,0,0,0,0,0,0,0,0,0,0,0,0,1569,-2962,-95,5855913,1569,-2962,-98,0,0,0,0,0,1,-2,0,0,0,0,0,0,0,200,5625,-43,-69,5865,1569,-2962,-95,0,0,1,5620,-49,-250,5865,2,-3,60,37,-23,-3,0,1,7,0,1,1,-0.05279295690108105,0.033848904045030354,1.6143388748974021,0,0,0,"","","",NaN,NaN,NaN,NaN
140,5868056,-12,0,0,10000,1565,325,6,-5,-9,4,-3,-10,-83,73,-2030,-268,-111,-2188,158,160,158,158,5620,-49,-250,5865,-2,-2,-2,8127,0,0,0,-2,0,0,-2,1,2,0,0,0,0,0,0,-3,2,4,0,4,0,0,0,0,0,0,2,2,1,2,0,0,0,0,271,267,274,278,0,0,0,0,271,268,274,280,0,0,0,0,0,0,0,0,0,0,0,0,1569,-2962,-95,5855913,1569,-2962,-98,0,0,0,0,0,1,-2,0,0,0,0,0,0,0,200,5625,-43,-69,5865,1569,-2962,-95,0,0,1,5620,-49,-250,5865,2,-3,60,37,-23,-3,0,1,7,0,1,1,-0.05279295690108105,0.033848904045030354,1.6143388748974021,0,0,0,"","","",NaN,NaN,NaN,NaN
144,5870072,-12,0,0,10000,1565,325,12,1,-11,17,0,-12,-96,75,-2026,137,324,-2305,160,160,159,158,5620,-49,-250,5865,0,-1,-3,8127,0,0,0,-2,0,0,-3,0,3,0,0,0,0,0,0,-6,-1,4,4,6,2,0,0,0,0,0,2,3,1,1,0,0,0,0,271,267,274,278,0,0,0,0,271,265,275,278,0,0,0,0,0,0,0,0,0,0,0,0,1569,-2962,-95,5855913,1569,-2962,-98,0,0,0,0,0,1,-2,0,0,0,0,0,0,0,200,5625,-43,-69,5865,1569,-2962,-95,0,0,1,5620,-49,-250,5865,2,-3,60,37,-23,-3,0,1,7,0,1,1,-0.05279295690108105,0.033848904045030354,1.6143388748974021,0,0,0,"","","",NaN,NaN,NaN,NaN
148,5872088,-12,0,0,10000,1565,325,12,3,-7,8,8,-4,-94,95,-2028,-139,-52,-2118,160,160,159,158,5620,-48,-250,5865,3,0,-4,8127,0,0,0,-2,0,0,-3,-1,2,0,0,0,0,0,0,-6,-1,3,5,5,2,0,0,0,0,0,2,3,1,1,0,0,0,0,271,267,274,278,0,0,0,0,271,266,274,280,0,0,0,0,0,0,0,0,0,0,0,0,1569,-2962,-95,5855913,1569,-2962,-98,0,0,0,0,0,1,-2,0,0,0,0,0,0,0,200,5625,-43,-69,5865,1569,-2962,-95,0,0,1,5620,-48,-250,5865,2,-3,60,37,-23,-3,0,1,7,0,1,1,-0.05262275950547071,0.03402660586104892,1.6143392045956948,0,0,0,"","","",NaN,NaN,NaN,NaN
152,5874104,-12,0,0,10000,1565,325,8,3,-2,0,-2,-5,-90,112,-2034,166,274,-2100,159,159,158,158,5620,-48,-249,5865,3,1,-2,8127,0,0,0,-2,0,0,-2,-1,0,0,0,0,0,0,0,-4,-1,1,4,3,1,0,0,0,0,0,3,3,1,1,0,0,0,0,271,266,274,278,0,0,0,0,271,268,274,278,0,0,0,0,0,0,0,0,0,0,0,0,1569,-2962,-95,5855913,1569,-2962,-98,0,0,0,0,0,1,-2,0,0,0,0,0,0,0,200,5625,-43,-69,5865,1569,-2962,-95,0,0,1,5620,-48,-249,5865,2,-3,60,37,-23,-3,0,1,7,0,1,1,-0.052444510517648285,0.03385632907744088,1.614324162503776,0,0,0,"","","",NaN,NaN,NaN,NaN
156,5876121,-12,0,0,10000,1565,325,-4,7,5,-6,23,14,-80,131,-2042,-83,-79,-2203,159,158,159,158,5620,-48,-249,5865,1,1,-1,8127,0,0,0,-2,0,0,0,-2,-1,0,0,0,0,0,0,1,-3,-2,4,0,3,0,0,0,0,0,3,3,1,1,0,0,0,0,271,266,274,278,0,0,0,0,272,268,275,280,0,0,0,0,0,0,0,0,0,0,0,0,1569,-2962,-95,5855913,1569,-2962,-98,0,0,0,0,0,1,-2,0,0,0,0,0,0,0,200,5625,-43,-69,5865,1569,-2962,-95,0,0,1,5620,-48,-249,5865,2,-3,60,37,-23,-3,0,1,7,0,1,1,-0.052444510517648285,0.03385632907744088,1.614324162503776,0,0,0,"","","",NaN,NaN,NaN,NaN
160,5878137,-12,0,0,10000,1565,325,-2,5,10,-5,3,6,-68,137,-2050,145,299,-2074,159,158,159,159,5620,-49,-249,5865,1,2,1,8127,0,0,0,-2,0,0,0,-1,-2,0,0,0,0,0,0,0,-2,-4,4,0,2,2,0,0,0,0,3,2,1,1,0,0,0,0,271,267,274,278,0,0,0,0,269,268,275,278,0,0,0,0,0,0,0,0,0,0,0,0,1569,-2962,-95,5855913,1569,-2962,-98,0,0,0,0,0,1,-2,0,0,0,0,0,0,0,200,5625,-43,-69,5865,1569,-2962,-95,0,0,1,5620,-49,-249,5865,2,-3,60,37,-23,-3,0,1,7,0,1,1,-0.052614708590816295,0.03367862828613694,1.6143238355137584,0,0,0,"","","",NaN,NaN,NaN,NaN
164,5880153,-12,0,0,10000,1565,325,-12,-1,13,-5,-16,24,-60,139,-2040,-22,6,-2046,159,158,159,160,5620,-49,-250,5865,-3,2,3,8127,0,0,0,-2,0,0,2,0,-3,0,0,0,0,0,0,4,0,-5,2,0,2,5,0,0,0,0,3,2,1,1,0,0,0,0,271,267,274,278,0,0,0,0,271,265,277,277,0,0,0,0,0,0,0,0,0,0,0,0,1569,-2962,-95,5855913,1569,-2962,-98,0,0,0,0,0,1,-2,0,0,0,0,0,0,0,200,5625,-43,-69,5865,1569,-2962,-95,0,0,1,5620,-49,-250,5865,2,-3,60,37,-23,-3,0,1,7,0,1,1,-0.05279295690108105,0.033848904045030354,1.6143388748974021,0,0,0,"","","",NaN,NaN,NaN,NaN
168,5882169,-12,0,0,10000,1565,325,-17,-1,8,-14,-17,-6,-60,128,-2031,193,207,-2132,158,158,159,160,5620,-49,-250,5865,-5,2,4,8127,0,0,0,-2,0,0,3,0,-2,0,0,0,0,0,0,6,0,-3,1,0,4,6,0,0,0,0,3,2,2,2,0,0,0,0,271,267,274,278,0,0,0,0,271,268,277,278,0,0,0,0,0,0,0,0,0,0,0,0,1569,-2962,-95,5855913,1569,-2962,-98,0,0,0,0,0,1,-2,0,0,0,0,0,0,0,200,5625,-43,-69,5865,1569,-2962,-95,0,0,1,5620,-49,-250,5865,2,-3,60,37,-23,-3,0,1,7,0,1,1,-0.05279295690108105,0.033848904045030354,1.6143388748974021,0,0,0,"","","",NaN,NaN,NaN,NaN
172,5884185,-12,0,0,10000,1565,325,-13,-6,10,-5,-13,21,-57,108,-2034,-304,-84,-2239,158,158,158,160,5620,-49,-250,5865,-6,0,4,8127,0,0,0,-2,0,0,3,1,-2,0,0,0,0,0,0,5,2,-4,0,0,1,5,0,0,0,0,3,2,2,2,0,0,0,0,271,267,274,278,0,0,0,0,271,268,274,280,0,0,0,0,0,0,0,0,0,0,0,0,1569,-2962,-95,5855913,1569,-2962,-98,0,0,0,0,0,1,-2,0,0,0,0,0,0,0,200,5625,-43,-69,5865,1569,-2962,-95,0,0,1,5620,-49,-250,5865,2,-3,60,37,-23,-3,0,1,7,0,1,1,-0.05279295690108105,0.033848904045030354,1.6143388748974021,0,0,0,"","","",NaN,NaN,NaN,NaN
176,5886201,-12,0,0,10000,1566,375,-12,-2,-1,-11,-13,-12,-61,86,-2042,-138,194,-1805,158,158,159,159,5620,-49,-250,5865,-6,0,3,8127,0,0,0,-2,0,0,2,1,0,0,0,0,0,0,0,4,1,1,0,0,3,4,0,0,0,0,2,2,2,2,0,0,0,0,271,267,274,278,0,0,0,0,271,268,275,278,0,0,0,0,0,0,0,0,0,0,0,0,1569,-2962,-95,5855913,1569,-2962,-98,0,0,0,0,0,1,-2,0,0,0,0,0,0,0,200,5625,-43,-69,5865,1569,-2962,-95,0,0,1,5620,-49,-250,5865,2,-3,60,37,-23,-3,0,1,7,0,1,1,-0.05279295690108105,0.033848904045030354,1.6143388748974021,0,0,0,"","","",NaN,NaN,NaN,NaN
180,5888217,-12,0,0,10000,1566,375,1,-4,-4,14,10,-4,-74,74,-2037,-103,47,-1923,158,159,158,158,5620,-49,-250,5865,-4,-2,1,8127,0,0,0,-2,0,0,-1,1,1,0,0,0,0,0,0,-1,2,2,0,2,0,1,0,0,0,0,2,2,2,2,0,0,0,0,271,267,274,278,0,0,0,0,272,268,275,278,0,0,0,0,0,0,0,0,0,0,0,0,1569,-2962,-95,5855913,1569,-2962,-98,0,0,0,0,0,1,-2,0,0,0,0,0,0,0,200,5625,-43,-69,5865,1569,-2962,-95,0,0,1,5620,-49,-250,5865,2,-3,60,37,-23,-3,0,1,7,0,1,1,-0.05279295690108105,0.033848904045030354,1.6143388748974021,0,0,0,"","","",NaN,NaN,NaN,NaN
184,5890233,-12,0,0,10000,1566,375,1,-5,-13,3,-15,-25,-84,74,-2028,-80,-30,-2061,158,160,159,158,5620,-49,-250,5865,-2,-1,-1,8127,0,0,0,-2,0,0,-1,1,3,0,0,0,0,0,0,-1,2,5,0,5,2,1,0,0,0,0,2,2,2,2,0,0,0,0,271,267,275,278,0,0,0,0,271,265,274,278,0,0,0,0,0,0,0,0,0,0,0,0,1569,-2962,-95,5855913,1569,-2962,-98,0,0,0,0,0,1,-2,0,0,0,0,0,0,0,200,5625,-43,-69,5865,1569,-2962,-95,0,0,1,5620,-49,-250,5865,2,-3,60,37,-23,-3,0,1,7,0,1,1,-0.05279295690108105,0.033848904045030354,1.6143388748974021,0,0,0,"","","",NaN,NaN,NaN,NaN
188,5892249,-12,0,0,10000,1566,375,11,1,-10,17,8,-7,-95,72,-2024,29,173,-2190,158,159,158,158,5620,-49,-250,5865,1,-1,-3,8127,0,0,0,-2,0,0,-3,0,2,0,0,0,0,0,0,-5,0,4,0,4,0,0,0,0,0,0,2,2,2,2,0,0,0,0,271,266,275,278,0,0,0,0,271,268,275,278,0,0,0,0,0,0,0,0,0,0,0,0,1569,-2962,-95,5855913,1569,-2962,-98,0,0,0,0,0,1,-2,0,0,0,0,0,0,0,200,5625,-43,-69,5865,1569,-2962,-95,0,0,1,5620,-49,-250,5865,2,-3,60,37,-23,-3,0,1,7,0,1,1,-0.05279295690108105,0.033848904045030354,1.6143388748974021,0,0,0,"","","",NaN,NaN,NaN,NaN
192,5894266,-12,0,0,10000,1566,375,8,0,-13,3,0,-19,-94,90,-2025,-207,37,-2182,159,160,159,158,5620,-49,-250,5865,3,-1,-4,8127,0,0,0,-2,0,0,-2,0,3,0,0,0,0,0,0,-4,0,5,3,5,3,0,0,0,0,0,2,2,2,2,0,0,0,0,271,266,275,278,0,0,0,0,271,268,274,280,0,0,0,0,0,0,0,0,0,0,0,0,1569,-2962,-95,5855913,1569,-2962,-98,0,0,0,0,0,1,-2,0,0,0,0,0,0,0,200,5625,-43,-69,5865,1569,-2962,-95,0,0,1,5620,-49,-250,5865,2,-3,60,37,-23,-3,0,1,7,0,1,1,-0.05279295690108105,0.033848904045030354,1.6143388748974021,0,0,0,"","","",NaN,NaN,NaN,NaN
196,5896281,-12,0,0,10000,1566,375,8,7,-2,-1,5,4,-95,107,-2028,35,222,-2100,160,159,159,158,5620,-49,-250,5865,4,1,-4,8127,0,0,0,-2,0,0,-2,-2,1,0,0,0,0,0,0,-4,-3,1,5,3,2,0,0,0,0,0,2,2,2,2,0,0,0,0,271,266,275,278,0,0,0,0,269,265,274,278,0,0,0,0,0,0,0,0,0,0,0,0,1569,-2962,-95,5855913,1569,-2962,-98,0,0,0,0,0,1,-2,0,0,0,0,0,0,0,200,5625,-43,-69,5865,1569,-2962,-95,0,0,1,5620,-49,-250,5865,2,-3,60,37,-23,-3,0,1,7,0,1,1,-0.05279295690108105,0.033848904045030354,1.6143388748974021,0,0,0,"","","",NaN,NaN,NaN,NaN
200,5898298,-12,0,0,10000,1566,375,-2,1,-2,-18,4,-1,-85,129,-2036,-53,113,-1995,158,158,158,158,5620,-49,-250,5865,3,1,-3,8127,0,0,0,-2,0,0,0,0,0,0,0,0,0,0,0,0,0,1,0,0,1,0,0,0,0,0,2,2,2,2,0,0,0,0,271,266,275,278,0,0,0,0,271,268,274,278,0,0,0,0,0,0,0,0,0,0,0,0,1569,-2962,-95,5855913,1569,-2962,-98,0,0,0,0,0,1,-2,0,0,0,0,0,0,0,200,5625,-43,-69,5865,1569,-2962,-95,0,0,1,5620,-49,-250,5865,2,-3,60,37,-23,-3,0,1,7,0,1,1,-0.05279295690108105,0.033848904045030354,1.6143388748974021,0,0,0,"","","",NaN,NaN,NaN,NaN
204,5900314,-12,0,0,10000,1566,375,-5,5,9,-8,3,15,-75,139,-2045,34,87,-2125,159,158,159,159,5620,-49,-250,5865,1,2,-1,8127,0,0,0,-2,0,0,1,-1,-2,0,0,0,0,0,0,1,-2,-4,4,0,3,3,0,0,0,0,2,2,2,2,0,0,0,0,271,266,275,278,0,0,0,0,269,266,274,278,0,0,0,0,0,0,0,0,0,0,0,0,1569,-2962,-95,5855913,1569,-2962,-98,0,0,0,0,0,1,-2,0,0,0,0,0,0,0,200,5625,-43,-69,5865,1569,-2962,-95,0,0,1,5620,-49,-250,5865,2,-3,60,37,-23,-3,0,1,7,0,1,1,-0.05279295690108105,0.033848904045030354,1.6143388748974021,0,0,0,"","","",NaN,NaN,NaN,NaN
208,5902330,-12,0,0,10000,1566,375,-18,2,8,-31,-4,6,-60,143,-2049,-49,-52,-2116,159,158,160,160,5620,-49,-250,5865,-1,2,2,8127,0,0,0,-2,0,0,4,-1,-2,0,0,0,0,0,0,6,-1,-3,2,0,5,6,0,0,0,0,2,2,2,2,0,0,0,0,271,266,275,278,0,0,0,0,271,268,275,280,0,0,0,0,0,0,0,0,0,0,0,0,1569,-2962,-95,5855913,1569,-2962,-98,0,0,0,0,0,1,-2,0,0,0,0,0,0,0,200,5625,-43,-69,5865,1569,-2962,-95,0,0,1,5620,-49,-250,5865,2,-3,60,37,-23,-3,0,1,7,0,1,1,-0.05279295690108105,0.033848904045030354,1.6143388748974021,0,0,0,"","","",NaN,NaN,NaN,NaN
212,5904346,-12,0,0,10000,1566,375,-20,6,13,-26,16,14,-56,137,-2041,-7,28,-1967,160,158,161,161,5620,-49,-250,5865,-4,1,3,8127,0,0,0,-2,0,0,4,-1,-3,0,0,0,0,0,0,7,-3,-5,4,0,8,7,0,0,0,0,2,2,2,2,0,0,0,0,271,266,275,278,0,0,0,0,269,266,275,278,0,0,0,0,0,0,0,0,0,0,0,0,1569,-2962,-95,5855913,1569,-2962,-98,0,0,0,0,0,1,-2,0,0,0,0,0,0,0,200,5625,-43,-69,5865,1569,-2962,-95,0,0,1,5620,-49,-250,5865,2,-3,60,37,-23,-3,0,1,7,0,1,1,-0.05279295690108105,0.033848904045030354,1.6143388748974021,0,0,0,"","","",NaN,NaN,NaN,NaN
216,5906362,-12,0,0,10000,1565,392,-16,-5,8,-13,-10,6,-54,123,-2037,-79,-77,-2023,158,158,159,160,5620,-50,-250,5865,-5,1,4,8127,0,0,0,-2,0,0,3,1,-2,0,0,0,0,0,0,6,2,-3,0,0,2,6,0,0,0,0,2,2,2,2,0,0,0,0,271,266,275,278,0,0,0,0,269,265,277,275,0,0,0,0,0,0,0,0,0,0,0,0,1569,-2962,-95,5855913,1569,-2962,-98,0,0,0,0,0,1,-2,0,0,0,0,0,0,0,200,5625,-43,-69,5865,1569,-2962,-95,0,0,1,5620,-50,-250,5865,2,-3,60,37,-23,-3,0,1,7,0,1,1,-0.05296315225180723,0.03367120702569535,1.614338545204099,0,0,0,"","","",NaN,NaN,NaN,NaN
220,5908378,-12,0,0,10000,1565,392,-16,-2,4,-13,0,1,-57,97,-2043,-70,158,-1939,158,158,159,160,5620,-50,-250,5865,-6,0,4,8127,0,0,0,-2,0,0,3,0,-1,0,0,0,0,0,0,6,1,-2,0,0,3,5,0,0,0,0,2,2,2,3,0,0,0,0,271,266,275,278,0,0,0,0,272,266,274,281,0,0,0,0,0,0,0,0,0,0,0,0,1569,-2962,-95,5855913,1569,-2962,-98,0,0,0,0,0,1,-2,0,0,0,0,0,0,0,200,5625,-43,-69,5865,1569,-2962,-95,0,0,1,5620,-50,-250,5865,2,-3,60,37,-23,-3,0,1,7,0,1,1,-0.05296315225180723,0.03367120702569535,1.614338545204099,0,0,0,"","","",NaN,NaN,NaN,NaN
224,5910394,-12,0,0,10000,1565,392,-8,-6,-2,3,-8,-5,-59,82,-2043,-311,32,-1979,158,159,159,159,5620,-50,-251,5865,-5,-1,2,8127,0,0,0,-2,0,0,1,1,1,0,0,0,0,0,0,2,3,1,0,2,2,4,0,0,0,0,2,2,2,3,0,0,0,0,271,266,275,278,0,0,0,0,271,266,277,280,0,0,0,0,0,0,0,0,0,0,0,0,1569,-2962,-95,5906650,1569,-2962,-98,0,0,0,0,0,1,0,2,5,0,0,0,0,0,200,5626,-65,-69,5864,1569,-2962,-95,0,0,1,5620,-50,-251,5865,2,-3,61,39,-21,-2,0,1,7,0,1,1,-0.053141406231502215,0.03384148274191117,1.6143536451192861,0,0,0,"","","",NaN,NaN,NaN,NaN
228,5912410,-12,0,0,10000,1565,392,-4,-4,-8,0,6,-16,-71,72,-2035,-173,176,-2002,158,159,159,159,5620,-50,-251,5865,-3,-2,0,8127,0,0,0,-2,0,0,0,1,2,0,0,0,0,0,0,1,1,3,0,3,2,2,0,0,0,0,2,2,2,3,0,0,0,0,271,266,275,278,0,0,0,0,271,266,275,278,0,0,0,0,0,0,0,0,0,0,0,0,1569,-2962,-95,5906650,1569,-2962,-98,0,0,0,0,0,1,0,2,5,0,0,0,0,0,200,5626,-65,-69,5864,1569,-2962,-95,0,0,1,5620,-50,-251,5865,2,-3,61,39,-21,-2,0,1,7,0,1,1,-0.053141406231502215,0.03384148274191117,1.6143536451192861,0,0,0,"","","",NaN,NaN,NaN,NaN
232,5914426,-12,0,0,10000,1565,392,6,1,-13,11,13,-10,-78,73,-2026,-184,72,-1992,158,160,159,158,5620,-50,-251,5865,0,-2,-3,8127,0,0,0,-2,0,0,-2,0,3,0,0,0,0,0,0,-3,0,5,0,5,3,0,0,0,0,0,2,2,2,2,0,0,0,0,271,266,275,278,0,0,0,0,269,266,274,280,0,0,0,0,0,0,0,0,0,0,0,0,1569,-2962,-95,5906650,1569,-2962,-98,0,0,0,0,0,1,0,2,5,0,0,0,0,0,200,5626,-65,-69,5864,1569,-2962,-95,0,0,1,5620,-50,-251,5865,2,-3,61,39,-21,-2,0,1,7,0,1,1,-0.053141406231502215,0.03384148274191117,1.6143536451192861,0,0,0,"","","",NaN,NaN,NaN,NaN
236,5916442,-12,0,0,10000,1565,392,8,-3,-11,10,-6,-12,-86,78,-2027,-31,269,-2024,159,160,158,158,5620,-50,-251,5865,2,-1,-4,8127,0,0,0,-2,0,0,-2,1,2,0,0,0,0,0,0,-4,1,4,2,5,1,0,0,0,0,0,2,2,2,2,0,0,0,0,271,266,275,278,0,0,0,0,268,263,275,278,0,0,0,0,0,0,0,0,0,0,0,0,1569,-2962,-95,5906650,1569,-2962,-98,0,0,0,0,0,1,0,2,5,0,0,0,0,0,200,5626,-65,-69,5864,1569,-2962,-95,0,0,1,5620,-50,-251,5865,2,-3,61,39,-21,-2,0,1,7,0,1,1,-0.053141406231502215,0.03384148274191117,1.6143536451192861,0,0,0,"","","",NaN,NaN,NaN,NaN
240,5918458,-12,0,0,10000,1565,392,5,1,-11,1,5,-6,-86,101,-2029,-98,143,-1973,159,160,159,158,5620,-50,-251,5865,3,-1,-5,8127,0,0,0,-2,0,0,-2,0,3,0,0,0,0,0,0,-3,0,4,2,4,2,0,0,0,0,0,2,2,2,2,0,0,0,0,271,266,275,278,0,0,0,0,271,268,275,281,0,0,0,0,0,0,0,0,0,0,0,0,1569,-2962,-95,5906650,1569,-2962,-98,0,0,0,0,0,1,0,2,5,0,0,0,0,0,200,5626,-65,-69,5864,1569,-2962,-95,0,0,1,5620,-50,-251,5865,2,-3,61,39,-21,-2,0,1,7,0,1,1,-0.053141406231502215,0.03384148274191117,1.6143536451192861,0,0,0,"","","",NaN,NaN,NaN,NaN
244,5920475,-12,0,0,10000,1565,392,1,4,0,-10,5,2,-83,120,-2029,-40,232,-2415,159,158,158,158,5620,-50,-250,5865,4,0,-3,8127,0,0,0,-2,0,0,-1,-1,0,0,0,0,0,0,0,-1,-1,0,2,1,1,0,0,0,0,0,2,2,2,2,0,0,0,0,271,266,275,278,0,0,0,0,269,266,275,280,0,0,0,0,0,0,0,0,0,0,0,0,1569,-2962,-95,5906650,1569,-2962,-98,0,0,0,0,0,1,0,2,5,0,0,0,0,0,200,5626,-65,-69,5864,1569,-2962,-95,0,0,1,5620,-50,-250,5865,2,-3,61,39,-21,-2,0,1,7,0,1,1,-0.05296315225180723,0.03367120702569535,1.614338545204099,0,0,0,"","","",NaN,NaN,NaN,NaN
248,5922491,-12,0,0,10000,1565,392,-10,5,2,-27,14,10,-66,143,-2041,-223,38,-2060,159,158,160,158,5620,-50,-251,5865,2,1,-2,8127,0,0,0,-2,0,0,2,-1,0,0,0,0,0,0,0,3,-2,-1,2,0,4,0,0,0,0,0,2,2,2,2,0,0,0,0,270,266,275,278,0,0,0,0,271,265,274,277,0,0,0,0,0,0,0,0,0,0,0,0,1569,-2962,-95,5906650,1569,-2962,-98,0,0,0,0,0,1,0,2,5,0,0,0,0,0,200,5626,-65,-69,5864,1569,-2962,-95,0,0,1,5620,-50,-251,5865,2,-3,61,39,-21,-2,0,1,7,0,1,1,-0.053141406231502215,0.03384148274191117,1.6143536451192861,0,0,0,"","","",NaN,NaN,NaN,NaN
252,5924507,-12,0,0,10000,1565,392,-11,4,12,-18,4,14,-62,146,-2047,24,259,-1845,159,158,160,160,5620,-50,-251,5865,0,1,1,8127,0,0,0,-2,0,0,2,-1,-3,0,0,0,0,0,0,4,-2,-5,4,0,4,5,0,0,0,0,2,2,2,2,0,0,0,0,270,266,275,279,0,0,0,0,271,266,275,280,0,0,0,0,0,0,0,0,0,0,0,0,1569,-2962,-95,5906650,1569,-2962,-98,0,0,0,0,0,1,0,2,5,0,0,0,0,0,200,5626,-65,-69,5864,1569,-2962,-95,0,0,1,5620,-50,-251,5865,2,-3,61,39,-21,-2,0,1,7,0,1,1,-0.053141406231502215,0.03384148274191117,1.6143536451192861,0,0,0,"","","",NaN,NaN,NaN,NaN
256,5926523,-12,0,0,10000,1556,432,-20,-2,9,-23,2,7,-50,149,-2040,-237,-82,-2029,158,158,160,161,5620,-50,-251,5865,-3,0,3,8127,0,0,0,-2,0,0,4,0,-2,0,0,0,0,0,0,7,1,-4,1,0,4,7,0,0,0,0,2,2,2,2,0,0,0,0,270,266,275,279,0,0,0,0,269,265,274,278,0,0,0,0,0,0,0,0,0,0,0,0,1569,-2962,-95,5906650,1569,-2962,-98,0,0,0,0,0,1,0,2,5,0,0,0,0,0,200,5626,-65,-69,5864,1569,-2962,-95,0,0,1,5620,-50,-251,5865,2,-3,61,39,-21,-2,0,1,7,0,1,1,-0.053141406231502215,0.03384148274191117,1.6143536451192861,0,0,0,"","","",NaN,NaN,NaN,NaN
260,5928539,-12,0,0,10000,1556,432,-19,3,14,-23,3,12,-48,132,-2036,131,-16,-2342,159,158,160,161,5620,-50,-251,5865,-4,1,5,8127,0,0,0,-2,0,0,4,-1,-3,0,0,0,0,0,0,7,-1,-6,4,0,6,8,0,0,0,0,2,2,3,3,0,0,0,0,270,266,275,279,0,0,0,0,271,268,275,278,0,0,0,0,0,0,0,0,0,0,0,0,1569,-2962,-95,5906650,1569,-2962,-98,0,0,0,0,0,1,0,2,5,0,0,0,0,0,200,5626,-65,-69,5864,1569,-2962,-95,0,0,1,5620,-50,-251,5865,2,-3,61,39,-21,-2,0,1,7,0,1,1,-0.053141406231502215,0.03384148274191117,1.6143536451192861,0,0,0,"","","",NaN,NaN,NaN,NaN
264,5930556,-12,0,0,10000,1556,432,-21,-5,4,-22,-1,-2,-47,113,-2038,-97,-126,-2266,158,158,159,161,5620,-50,-251,5865,-6,-1,4,8127,0,0,0,-2,0,0,4,1,-1,0,0,0,0,0,0,8,2,-2,0,0,4,7,0,0,0,0,2,2,3,3,0,0,0,0,270,266,275,279,0,0,0,0,272,265,277,280,0,0,0,0,0,0,0,0,0,0,0,0,1569,-2962,-95,5906650,1569,-2962,-98,0,0,0,0,0,1,0,2,5,0,0,0,0,0,200,5626,-65,-69,5864,1569,-2962,-95,0,0,1,5620,-50,-251,5865,2,-3,61,39,-21,-2,0,1,7,0,1,1,-0.053141406231502215,0.03384148274191117,1.6143536451192861,0,0,0,"","","",NaN,NaN,NaN,NaN
268,5932571,-12,0,0,10000,1556,432,-9,-5,3,5,-4,-4,-59,90,-2039,18,217,-1799,158,158,158,159,5620,-51,-251,5865,-5,-1,4,8127,0,0,0,-2,0,0,2,1,-1,0,0,0,0,0,0,3,2,-1,0,1,1,4,0,0,0,0,2,2,3,3,0,0,0,0,270,266,275,279,0,0,0,0,271,265,275,277,0,0,0,0,0,0,0,0,0,0,0,0,1569,-2962,-95,5906650,1569,-2962,-98,0,0,0,0,0,1,0,2,5,0,0,0,0,0,200,5626,-65,-69,5864,1569,-2962,-95,0,0,1,5620,-51,-251,5865,2,-3,61,39,-21,-2,0,1,7,0,1,1,-0.05331160577023982,0.03366378203970676,1.6143533153174419,0,0,0,"","","",NaN,NaN,NaN,NaN
272,5934588,-12,0,0,10000,1556,432,-3,-9,-6,12,-18,-3,-67,78,-2032,-217,-49,-1886,158,160,158,159,5620,-50,-252,5865,-3,-2,1,8127,0,0,0,-2,0,0,0,2,1,0,0,0,0,0,0,0,4,2,0,4,1,3,0,0,0,0,2,2,3,3,0,0,0,0,270,266,275,279,0,0,0,0,271,266,275,281,0,0,0,0,0,0,0,0,0,0,0,0,1569,-2962,-95,5906650,1569,-2962,-98,0,0,0,0,0,1,0,2,5,0,0,0,0,0,200,5626,-65,-69,5864,1569,-2962,-95,0,0,1,5620,-50,-252,5865,2,-3,61,39,-21,-2,0,1,7,0,1,1,-0.053319664873748146,0.03401175943970125,1.6143688034236854,0,0,0,"","","",NaN,NaN,NaN,NaN
276,5936603,-12,0,0,10000,1556,432,3,-5,-9,7,-8,-17,-78,70,-2031,67,347,-2029,158,159,158,158,5620,-50,-252,5865,0,-2,-1,8127,0,0,0,-2,0,0,-1,1,2,0,0,0,0,0,0,-2,2,4,0,4,1,0,0,0,0,0,1,2,2,3,0,0,0,0,270,266,275,279,0,0,0,0,271,265,275,280,0,0,0,0,0,0,0,0,0,0,0,0,1569,-2962,-95,5906650,1569,-2962,-98,0,0,0,0,0,1,0,2,5,0,0,0,0,0,200,5626,-65,-69,5864,1569,-2962,-95,0,0,1,5620,-50,-252,5865,2,-3,61,39,-21,-2,0,1,7,0,1,1,-0.053319664873748146,0.03401175943970125,1.6143688034236854,0,0,0,"","","",NaN,NaN,NaN,NaN
280,5938619,-12,0,0,10000,1556,432,6,-6,-12,15,-5,-2,-85,78,-2028,-181,121,-2035,158,160,158,158,5620,-50,-252,5865,2,-3,-4,8127,0,0,0,-2,0,0,-2,1,3,0,0,0,0,0,0,-3,2,5,0,5,1,0,0,0,0,0,1,2,2,3,0,0,0,0,270,266,275,279,0,0,0,0,268,268,277,278,0,0,0,0,0,0,0,0,0,0,0,0,1569,-2962,-95,5906650,1569,-2962,-98,0,0,0,0,0,1,0,2,5,0,0,0,0,0,200,5626,-65,-69,5864,1569,-2962,-95,0,0,1,5620,-50,-252,5865,2,-3,61,39,-21,-2,0,1,7,0,1,1,-0.053319664873748146,0.03401175943970125,1.6143688034236854,0,0,0,"","","",NaN,NaN,NaN,NaN
284,5940636,-12,0,0,10000,1556,432,10,-1,-9,8,2,-12,-84,94,-2033,-109,447,-1885,159,159,158,158,5620,-50,-251,5865,5,-2,-4,8127,0,0,0,-2,0,0,-3,0,2,0,0,0,0,0,0,-5,0,4,3,4,0,0,0,0,0,0,1,2,2,3,0,0,0,0,270,266,275,279,0,0,0,0,269,265,277,278,0,0,0,0,0,0,0,0,0,0,0,0,1569,-2962,-95,5906650,1569,-2962,-98,0,0,0,0,0,1,0,2,5,0,0,0,0,0,200,5626,-65,-69,5864,1569,-2962,-95,0,0,1,5620,-50,-251,5865,2,-3,61,39,-21,-2,0,1,7,0,1,1,-0.053141406231502215,0.03384148274191117,1.6143536451192861,0,0,0,"","","",NaN,NaN,NaN,NaN
288,5942652,-12,0,0,10000,1556,432,5,0,-4,7,4,16,-84,116,-2036,-130,207,-2100,159,159,158,158,5620,-50,-251,5865,5,-1,-5,8127,0,0,0,-2,0,0,-2,0,1,0,0,0,0,0,0,-3,0,2,2,3,1,0,0,0,0,0,1,2,2,2,0,0,0,0,270,266,276,279,0,0,0,0,269,266,277,280,0,0,0,0,0,0,0,0,0,0,0,0,1569,-2962,-95,5906650,1569,-2962,-98,0,0,0,0,0,1,0,2,5,0,0,0,0,0,200,5626,-65,-69,5864,1569,-2962,-95,0,0,1,5620,-50,-251,5865,2,-3,61,39,-21,-2,0,1,7,0,1,1,-0.053141406231502215,0.03384148274191117,1.6143536451192861,0,0,0,"","","",NaN,NaN,NaN,NaN
292,5944668,-12,0,0,10000,1556,432,2,-2,0,1,-15,-3,-76,137,-2042,-72,332,-1971,158,158,158,158,5620,-50,-251,5865,5,0,-2,8127,0,0,0,-2,0,0,-1,0,0,0,0,0,0,0,0,-2,1,0,1,1,0,0,0,0,0,0,1,2,2,2,0,0,0,0,270,266,276,279,0,0,0,0,269,266,277,278,0,0,0,0,0,0,0,0,0,0,0,0,1569,-2962,-95,5906650,1569,-2962,-98,0,0,0,0,0,1,0,2,5,0,0,0,0,0,200,5626,-65,-69,5864,1569,-2962,-95,0,0,1,5620,-50,-251,5865,2,-3,61,39,-21,-2,0,1,7,0,1,1,-0.053141406231502215,0.03384148274191117,1.6143536451192861,0,0,0,"","","",NaN,NaN,NaN,NaN
296,5946684,-12,0,0,10000,1576,475,-10,3,8,-13,13,21,-70,146,-2048,-120,178,-2044,158,158,159,158,5620,-50,-251,5865,2,0,-1,8127,0,0,0,-2,0,0,2,-1,-2,0,0,0,0,0,0,3,-1,-3,0,0,3,1,0,0,0,0,1,2,2,2,0,0,0,0,270,266,276,279,0,0,0,0,268,266,275,280,0,0,0,0,0,0,0,0,0,0,0,0,1569,-2962,-95,5906650,1569,-2962,-98,0,0,0,0,0,1,0,2,5,0,0,0,0,0,200,5626,-65,-69,5864,1569,-2962,-95,0,0,1,5620,-50,-251,5865,2,-3,61,39,-21,-2,0,1,7,0,1,1,-0.053141406231502215,0.03384148274191117,1.6143536451192861,0,0,0,"","","",NaN,NaN,NaN,NaN
300,5948700,-12,0,0,10000,1576,475,-13,1,11,-26,2,1,-57,153,-2054,-112,43,-1939,159,158,159,160,5620,-50,-252,5865,1,1,2,8127,0,0,0,-2,0,0,3,0,-2,0,0,0,0,0,0,4,0,-4,2,0,3,5,0,0,0,0,1,2,2,2,0,0,0,0,270,266,276,279,0,0,0,0,271,268,275,278,0,0,0,0,0,0,0,0,0,0,0,0,1569,-2962,-95,5906650,1569,-2962,-98,0,0,0,0,0,1,0,2,5,0,0,0,0,0,200,5626,-65,-69,5864,1569,-2962,-95,0,0,1,5620,-50,-252,5865,2,-3,61,39,-21,-2,0,1,7,0,1,1,-0.053319664873748146,0.03401175943970125,1.6143688034236854,0,0,0,"","","",NaN,NaN,NaN,NaN
304,5950716,-12,0,0,10000,1576,475,-19,2,13,-21,12,18,-57,140,-2047,40,-16,-2054,159,158,160,161,5620,-51,-252,5865,-2,1,3,8127,0,0,0,-2,0,0,4,-1,-3,0,0,0,0,0,0,7,-1,-5,3,0,6,7,0,0,0,0,1,2,2,3,0,0,0,0,270,266,276,279,0,0,0,0,271,265,275,281,0,0,0,0,0,0,0,0,0,0,0,0,1569,-2962,-95,5906650,1569,-2962,-98,0,0,0,0,0,1,0,2,5,0,0,0,0,0,200,5626,-65,-69,5864,1569,-2962,-95,0,0,1,5620,-51,-252,5865,2,-3,61,39,-21,-2,0,1,7,0,1,1,-0.05348986114155447,0.03383405771323298,1.6143684709101078,0,0,0,"","","",NaN,NaN,NaN,NaN
308,5952732,-12,0,0,10000,1576,475,-17,-3,8,-19,-1,-5,-55,123,-2042,57,-21,-2138,158,158,159,160,5620,-51,-252,5865,-3,0,5,8127,0,0,0,-2,0,0,4,1,-2,0,0,0,0,0,0,6,1,-3,1,0,3,6,0,0,0,0,1,2,2,3,0,0,0,0,270,266,276,279,0,0,0,0,269,266,275,280,0,0,0,0,0,0,0,0,0,0,0,0,1569,-2962,-95,5906650,1569,-2962,-98,0,0,0,0,0,1,0,2,5,0,0,0,0,0,200,5626,-65,-69,5864,1569,-2962,-95,0,0,1,5620,-51,-252,5865,2,-3,61,39,-21,-2,0,1,7,0,1,1,-0.05348986114155447,0.03383405771323298,1.6143684709101078,0,0,0,"","","",NaN,NaN,NaN,NaN
312,5954748,-12,0,0,10000,1576,475,-8,-6,7,0,-8,7,-56,99,-2046,-83,-68,-1968,158,158,158,159,5620,-51,-252,5865,-3,0,4,8127,0,0,0,-2,0,0,1,1,-2,0,0,0,0,0,0,2,2,-3,0,0,0,3,0,0,0,0,1,2,2,3,0,0,0,0,270,266,276,279,0,0,0,0,269,268,278,278,0,0,0,0,0,0,0,0,0,0,0,0,1569,-2962,-95,5906650,1569,-2962,-98,0,0,0,0,0,1,0,2,5,0,0,0,0,0,200,5626,-65,-69,5864,1569,-2962,-95,0,0,1,5620,-51,-252,5865,2,-3,61,39,-21,-2,0,1,7,0,1,1,-0.05348986114155447,0.03383405771323298,1.6143684709101078,0,0,0,"","","",NaN,NaN,NaN,NaN
316,5956764,-12,0,0,10000,1576,475,-7,-9,-5,3,-27,-17,-67,82,-2042,57,78,-1949,158,158,158,160,5620,-51,-252,5865,-3,-1,2,8127,0,0,0,-2,0,0,1,2,1,0,0,0,0,0,0,2,4,2,0,0,0,6,0,0,0,0,1,1,2,3,0,0,0,0,270,266,276,279,0,0,0,0,269,265,277,281,0,0,0,0,0,0,0,0,0,0,0,0,1569,-2962,-95,5906650,1569,-2962,-98,0,0,0,0,0,1,0,2,5,0,0,0,0,0,200,5626,-65,-69,5864,1569,-2962,-95,0,0,1,5620,-51,-252,5865,2,-3,61,39,-21,-2,0,1,7,0,1,1,-0.05348986114155447,0.03383405771323298,1.6143684709101078,0,0,0,"","","",NaN,NaN,NaN,NaN
320,5958811,-12,0,0,10000,1576,475,4,-2,-6,15,6,-5,-78,74,-2035,-199,-10,-2084,158,159,158,158,5620,-50,-253,5865,0,-1,0,8127,0,0,0,-2,0,0,-1,0,1,0,0,0,0,0,0,-2,1,2,0,3,1,0,0,0,0,0,1,2,2,3,0,0,0,0,270,266,276,279,0,0,0,0,271,268,274,281,0,0,0,0,0,0,0,0,0,0,0,0,1569,-2962,-96,5956047,1569,-2962,-99,0,0,0,0,0,0,-1,2,0,0,0,0,0,0,200,5625,-32,-86,5865,1569,-2962,-96,0,0,0,5620,-50,-253,5865,2,-3,63,39,-13,-2,0,1,7,0,1,1,-0.053497932486303156,0.03418203712401967,1.614384024968565,0,0,0,"","","",NaN,NaN,NaN,NaN
324,5960797,-12,0,0,10000,1576,475,7,-3,-14,14,-4,-18,-87,75,-2031,-138,162,-2065,158,160,159,158,5620,-50,-253,5865,3,-1,-2,8127,0,0,0,-2,0,0,-2,1,3,0,0,0,0,0,0,-4,1,6,1,5,2,0,0,0,0,0,1,2,2,3,0,0,0,0,270,266,276,279,0,0,0,0,268,266,275,278,0,0,0,0,0,0,0,0,0,0,0,0,1569,-2962,-96,5956047,1569,-2962,-99,0,0,0,0,0,0,-1,2,0,0,0,0,0,0,200,5625,-32,-86,5865,1569,-2962,-96,0,0,0,5620,-50,-253,5865,2,-3,63,39,-13,-2,0,1,7,0,1,1,-0.053497932486303156,0.03418203712401967,1.614384024968565,0,0,0,"","","",NaN,NaN,NaN,NaN
328,5962812,-12,0,0,10000,1576,475,14,-2,-12,21,-1,-5,-94,87,-2037,41,254,-1830,159,160,159,158,5620,-50,-253,5865,5,-1,-4,8127,0,0,0,-2,0,0,-4,0,3,0,0,0,0,0,0,-6,1,5,4,7,2,0,0,0,0,0,1,2,2,3,0,0,0,0,270,266,276,279,0,0,0,0,269,266,275,280,0,0,0,0,0,0,0,0,0,0,0,0,1569,-2962,-96,5956047,1569,-2962,-99,0,0,0,0,0,0,-1,2,0,0,0,0,0,0,200,5625,-32,-86,5865,1569,-2962,-96,0,0,0,5620,-50,-253,5865,2,-3,63,39,-13,-2,0,1,7,0,1,1,-0.053497932486303156,0.03418203712401967,1.614384024968565,0,0,0,"","","",NaN,NaN,NaN,NaN
332,5964828,-12,0,0,10000,1576,475,7,-1,-12,16,-7,-13,-96,109,-2039,-91,243,-2038,159,160,159,158,5620,-50,-252,5865,5,0,-5,8127,0,0,0,-2,0,0,-2,0,3,0,0,0,0,0,0,-4,1,5,2,5,2,0,0,0,0,0,1,2,2,2,0,0,0,0,270,266,276,279,0,0,0,0,268,266,275,278,0,0,0,0,0,0,0,0,0,0,0,0,1569,-2962,-96,5956047,1569,-2962,-99,0,0,0,0,0,0,-1,2,0,0,0,0,0,0,200,5625,-32,-86,5865,1569,-2962,-96,0,0,0,5620,-50,-252,5865,2,-3,63,39,-13,-2,0,1,7,0,1,1,-0.053319664873748146,0.03401175943970125,1.6143688034236854,0,0,0,"","","",NaN,NaN,NaN,NaN
336,5966845,-12,0,0,10000,1571,360,9,2,-1,13,-1,9,-93,132,-2047,-33,249,-2013,159,159,158,158,5620,-50,-252,5864,6,1,-4,8127,0,0,0,-2,0,0,-3,-1,0,0,0,0,0,0,0,-4,-1,0,4,3,1,0,0,0,0,0,1,2,2,2,0,0,0,0,270,266,276,279,0,0,0,0,269,265,275,277,0,0,0,0,0,0,0,0,0,0,0,0,1569,-2962,-96,5956047,1569,-2962,-99,0,0,0,0,0,0,-1,2,0,0,0,0,0,0,200,5625,-32,-86,5865,1569,-2962,-96,0,0,0,5620,-50,-252,5864,2,-3,63,39,-13,-2,0,1,7,0,1,1,-0.05331204191010657,0.03401327278283449,1.6140211284301964,0,0,0,"","","",NaN,NaN,NaN,NaN
340,5968861,-12,0,0,10000,1571,360,-5,5,2,-19,8,9,-79,149,-2055,-288,202,-2036,159,158,159,158,5621,-50,-252,5864,5,2,-2,8127,0,0,0,-2,0,0,1,-1,-1,0,0,0,0,0,0,1,-2,-1,3,0,3,0,0,0,0,0,2,2,2,2,0,0,0,0,270,266,276,279,0,0,0,0,271,266,274,280,0,0,0,0,0,0,0,0,0,0,0,0,1569,-2962,-96,5956047,1569,-2962,-99,0,0,0,0,0,0,-1,2,0,0,0,0,0,0,200,5625,-32,-86,5865,1569,-2962,-96,0,0,0,5621,-50,-252,5864,2,-3,63,39,-13,-2,0,1,7,0,1,1,-0.053313553103587,0.0340209103211665,1.6140134512866005,0,0,0,"","","",NaN,NaN,NaN,NaN
344,5970877,-12,0,0,10000,1571,360,-5,2,12,-14,3,24,-73,153,-2057,58,198,-2151,159,158,159,159,5620,-50,-252,5864,3,2,0,8127,0,0,0,-2,0,0,1,-1,-3,0,0,0,0,0,0,1,-1,-5,3,0,2,4,0,0,0,0,2,2,2,2,0,0,0,0,270,266,276,279,0,0,0,0,269,266,278,278,0,0,0,0,0,0,0,0,0,0,0,0,1569,-2962,-96,5956047,1569,-2962,-99,0,0,0,0,0,0,-1,2,0,0,0,0,0,0,200,5625,-32,-86,5865,1569,-2962,-96,0,0,0,5620,-50,-252,5864,2,-3,63,39,-13,-2,0,1,7,0,1,1,-0.05331204191010657,0.03401327278283449,1.6140211284301964,0,0,0,"","","",NaN,NaN,NaN,NaN
348,5972893,-12,0,0,10000,1571,360,-12,1,8,-11,-7,4,-62,152,-2057,-37,-73,-1814,159,158,159,160,5620,-50,-252,5865,0,3,2,8127,0,0,0,-2,0,0,2,0,-2,0,0,0,0,0,0,4,0,-3,2,0,3,4,0,0,0,0,2,2,2,2,0,0,0,0,270,266,276,279,0,0,0,0,271,268,277,280,0,0,0,0,0,0,0,0,0,0,0,0,1569,-2962,-96,5956047,1569,-2962,-99,0,0,0,0,0,0,-1,2,0,0,0,0,0,0,200,5625,-32,-86,5865,1569,-2962,-96,0,0,0,5620,-50,-252,5865,2,-3,63,39,-13,-2,0,1,7,0,1,1,-0.053319664873748146,0.03401175943970125,1.6143688034236854,0,0,0,"","","",NaN,NaN,NaN,NaN
352,5974909,-12,0,0,10000,1571,360,-13,8,15,-10,17,8,-58,128,-2051,-125,34,-2220,160,158,160,160,5620,-50,-252,5865,-2,3,5,8127,0,0,0,-2,0,0,3,-2,-3,0,0,0,0,0,0,5,-3,-6,5,0,6,6,0,0,0,0,2,2,2,2,0,0,0,0,270,266,276,279,0,0,0,0,271,266,275,278,0,0,0,0,0,0,0,0,0,0,0,0,1569,-2962,-96,5956047,1569,-2962,-99,0,0,0,0,0,0,-1,2,0,0,0,0,0,0,200,5625,-32,-86,5865,1569,-2962,-96,0,0,0,5620,-50,-252,5865,2,-3,63,39,-13,-2,0,1,7,0,1,1,-0.053319664873748146,0.03401175943970125,1.6143688034236854,0,0,0,"","","",NaN,NaN,NaN,NaN
356,5976925,-12,0,0,10000,1571,360,-14,4,6,-29,17,-2,-53,108,-2047,-254,-169,-2234,159,158,160,160,5620,-50,-252,5865,-3,2,4,8127,0,0,0,-2,0,0,3,-1,-1,0,0,0,0,0,0,5,-2,-3,2,0,5,4,0,0,0,0,2,2,2,3,0,0,0,0,270,266,276,279,0,0,0,0,268,265,277,280,0,0,0,0,0,0,0,0,0,0,0,0,1569,-2962,-96,5956047,1569,-2962,-99,0,0,0,0,0,0,-1,2,0,0,0,0,0,0,200,5625,-32,-86,5865,1569,-2962,-96,0,0,0,5620,-50,-252,5865,2,-3,63,39,-13,-2,0,1,7,0,1,1,-0.053319664873748146,0.03401175943970125,1.6143688034236854,0,0,0,"","","",NaN,NaN,NaN,NaN
360,5978941,-12,0,0,10000,1571,360,-6,3,3,-10,17,-5,-63,85,-2033,-128,-1,-2238,159,158,159,159,5620,-51,-253,5865,-2,1,4,8127,0,0,0,-2,0,0,1,-1,-1,0,0,0,0,0,0,2,-1,-1,2,0,2,2,0,0,0,0,2,2,2,3,0,0,0,0,270,266,276,279,0,0,0,0,272,265,277,280,0,0,0,0,0,0,0,0,0,0,0,0,1569,-2962,-96,5956047,1569,-2962,-99,0,0,0,0,0,0,-1,2,0,0,0,0,0,0,200,5625,-32,-86,5865,1569,-2962,-96,0,0,0,5620,-51,-253,5865,2,-3,63,39,-13,-2,0,1,7,0,1,1,-0.053668128660322605,0.03400433809556253,1.6143836897409747,0,0,0,"","","",NaN,NaN,NaN,NaN
364,5980957,-12,0,0,10000,1571,360,6,-2,-8,8,6,-17,-67,75,-2026,-182,-54,-2162,158,160,158,158,5620,-51,-253,5865,0,0,1,8127,0,0,0,-2,0,0,-2,0,2,0,0,0,0,0,0,-3,1,3,1,4,0,0,0,0,0,0,2,2,2,2,0,0,0,0,270,266,276,279,0,0,0,0,269,266,278,278,0,0,0,0,0,0,0,0,0,0,0,0,1569,-2962,-96,5956047,1569,-2962,-99,0,0,0,0,0,0,-1,2,0,0,0,0,0,0,200,5625,-32,-86,5865,1569,-2962,-96,0,0,0,5620,-51,-253,5865,2,-3,63,39,-13,-2,0,1,7,0,1,1,-0.053668128660322605,0.03400433809556253,1.6143836897409747,0,0,0,"","","",NaN,NaN,NaN,NaN
368,5982973,-12,0,0,10000,1571,360,6,2,-10,5,3,-17,-79,68,-2022,-158,122,-2208,159,159,159,158,5620,-51,-253,5865,2,1,-1,8127,0,0,0,-2,0,0,-2,-1,2,0,0,0,0,0,0,-3,-1,4,3,4,3,0,0,0,0,0,2,2,2,2,0,0,0,0,270,266,276,279,0,0,0,0,271,265,277,281,0,0,0,0,0,0,0,0,0,0,0,0,1569,-2962,-96,5956047,1569,-2962,-99,0,0,0,0,0,0,-1,2,0,0,0,0,0,0,200,5625,-32,-86,5865,1569,-2962,-96,0,0,0,5620,-51,-253,5865,2,-3,63,39,-13,-2,0,1,7,0,1,1,-0.053668128660322605,0.03400433809556253,1.6143836897409747,0,0,0,"","","",NaN,NaN,NaN,NaN
372,5984989,-12,0,0,10000,1571,360,15,1,-13,7,7,-14,-84,84,-2018,-162,175,-2194,160,161,159,158,5620,-50,-252,5865,5,0,-3,8127,0,0,0,-2,0,0,-4,0,3,0,0,0,0,0,0,-7,0,5,5,7,3,0,0,0,0,0,2,2,2,2,0,0,0,0,270,266,276,279,0,0,0,0,272,265,275,280,0,0,0,0,0,0,0,0,0,0,0,0,1569,-2962,-96,5956047,1569,-2962,-99,0,0,0,0,0,0,-1,2,0,0,0,0,0,0,200,5625,-32,-86,5865,1569,-2962,-96,0,0,0,5620,-50,-252,5865,2,-3,63,39,-13,-2,0,1,7,0,1,1,-0.053319664873748146,0.03401175943970125,1.6143688034236854,0,0,0,"","","",NaN,NaN,NaN,NaN
376,5987005,-12,0,0,10000,1571,425,12,6,-12,6,8,-8,-91,105,-2012,-34,146,-2115,160,160,160,158,5620,-50,-252,5865,6,1,-5,8127,0,0,0,-2,0,0,-3,-1,3,0,0,0,0,0,0,-6,-2,5,6,6,4,0,0,0,0,0,2,2,2,2,0,0,0,0,270,266,276,279,0,0,0,0,269,263,277,278,0,0,0,0,0,0,0,0,0,0,0,0,1569,-2962,-96,5956047,1569,-2962,-99,0,0,0,0,0,0,-1,2,0,0,0,0,0,0,200,5625,-32,-86,5865,1569,-2962,-96,0,0,0,5620,-50,-252,5865,2,-3,63,39,-13,-2,0,1,7,0,1,1,-0.053319664873748146,0.03401175943970125,1.6143688034236854,0,0,0,"","","",NaN,NaN,NaN,NaN
380,5989021,-12,0,0,10000,1571,425,13,4,-5,4,2,0,-86,131,-2021,12,128,-2137,160,160,159,158,5620,-50,-252,5864,7,2,-4,8127,0,0,0,-2,0,0,-3,-1,1,0,0,0,0,0,0,-6,-2,2,5,4,2,0,0,0,0,0,2,2,2,2,0,0,0,0,270,266,276,279,0,0,0,0,271,266,275,280,0,0,0,0,0,0,0,0,0,0,0,0,1569,-2962,-96,5956047,1569,-2962,-99,0,0,0,0,0,0,-1,2,0,0,0,0,0,0,200,5625,-32,-86,5865,1569,-2962,-96,0,0,0,5620,-50,-252,5864,2,-3,63,39,-13,-2,0,1,7,0,1,1,-0.05331204191010657,0.03401327278283449,1.6140211284301964,0,0,0,"","","",NaN,NaN,NaN,NaN
384,5991038,-12,0,0,10000,1571,425,1,4,0,-1,2,10,-82,148,-2030,1,288,-2027,159,158,158,158,5621,-50,-252,5864,5,2,-3,8127,0,0,0,-2,0,0,-1,-1,0,0,0,0,0,0,0,-1,-2,0,2,0,1,0,0,0,0,0,3,2,2,2,0,0,0,0,270,266,276,279,0,0,0,0,271,265,275,280,0,0,0,0,0,0,0,0,0,0,0,0,1569,-2962,-96,5956047,1569,-2962,-99,0,0,0,0,0,0,-1,2,0,0,0,0,0,0,200,5625,-32,-86,5865,1569,-2962,-96,0,0,0,5621,-50,-252,5864,2,-3,63,39,-13,-2,0,1,7,0,1,1,-0.053313553103587,0.0340209103211665,1.6140134512866005,0,0,0,"","","",NaN,NaN,NaN,NaN
388,5993054,-12,0,0,10000,1571,425,-1,7,9,-2,7,21,-71,164,-2034,-211,102,-2069,159,158,159,158,5621,-50,-252,5864,3,2,0,8127,0,0,0,-2,0,0,0,-2,-2,0,0,0,0,0,0,0,-3,-4,3,0,2,0,0,0,0,0,3,2,2,2,0,0,0,0,270,266,276,279,0,0,0,0,271,268,278,280,0,0,0,0,0,0,0,0,0,0,0,0,1569,-2962,-96,5956047,1569,-2962,-99,0,0,0,0,0,0,-1,2,0,0,0,0,0,0,200,5625,-32,-86,5865,1569,-2962,-96,0,0,0,5621,-50,-252,5864,2,-3,63,39,-13,-2,0,1,7,0,1,1,-0.053313553103587,0.0340209103211665,1.6140134512866005,0,0,0,"","","",NaN,NaN,NaN,NaN
392,5995070,-12,0,0,10000,1571,425,-8,7,13,-10,4,16,-61,158,-2045,-66,187,-2023,160,158,160,160,5620,-50,-252,5865,0,3,2,8127,0,0,0,-2,0,0,1,-2,-3,0,0,0,0,0,0,3,-3,-5,5,0,4,4,0,0,0,0,3,2,2,2,0,0,0,0,270,266,276,279,0,0,0,0,271,268,275,278,0,0,0,0,0,0,0,0,0,0,0,0,1569,-2962,-96,5956047,1569,-2962,-99,0,0,0,0,0,0,-1,2,0,0,0,0,0,0,200,5625,-32,-86,5865,1569,-2962,-96,0,0,0,5620,-50,-252,5865,2,-3,63,39,-13,-2,0,1,7,0,1,1,-0.053319664873748146,0.03401175943970125,1.6143688034236854,0,0,0,"","","",NaN,NaN,NaN,NaN
396,5997086,-12,0,0,10000,1571,425,-12,2,15,-16,5,19,-50,138,-2053,-293,165,-1659,159,158,159,160,5620,-51,-252,5865,-2,2,4,8127,0,0,0,-2,0,0,2,0,-3,0,0,0,0,0,0,4,-1,-6,4,0,3,6,0,0,0,0,3,2,2,2,0,0,0,0,270,266,276,279,0,0,0,0,271,263,277,280,0,0,0,0,0,0,0,0,0,0,0,0,1569,-2962,-96,5956047,1569,-2962,-99,0,0,0,0,0,0,-1,2,0,0,0,0,0,0,200,5625,-32,-86,5865,1569,-2962,-96,0,0,0,5620,-51,-252,5865,2,-3,63,39,-13,-2,0,1,7,0,1,1,-0.05348986114155447,0.03383405771323298,1.6143684709101078,0,0,0,"","","",NaN,NaN,NaN,NaN
400,5999102,-12,0,0,10000,1571,425,-7,0,13,1,0,11,-49,111,-2051,-69,257,-1726,159,158,159,160,5620,-51,-252,5865,-4,1,5,8127,0,0,0,-2,0,0,1,0,-3,0,0,0,0,0,0,2,0,-5,3,0,1,4,0,0,0,0,3,2,3,2,0,0,0,0,270,266,276,279,0,0,0,0,271,266,278,280,0,0,0,0,0,0,0,0,0,0,0,0,1569,-2962,-96,5956047,1569,-2962,-99,0,0,0,0,0,0,-1,2,0,0,0,0,0,0,200,5625,-32,-86,5865,1569,-2962,-96,0,0,0,5620,-51,-252,5865,2,-3,63,39,-13,-2,0,1,7,0,1,1,-0.05348986114155447,0.03383405771323298,1.6143684709101078,0,0,0,"","","",NaN,NaN,NaN,NaN
404,6001118,-12,0,0,10000,1571,425,-1,-3,5,5,-9,9,-51,86,-2046,-91,19,-1839,159,158,158,159,5620,-51,-252,5865,-3,1,4,8127,0,0,0,-2,0,0,0,1,-1,0,0,0,0,0,0,0,1,-2,2,0,0,2,0,0,0,0,3,2,3,2,0,0,0,0,270,266,276,279,0,0,0,0,269,266,277,278,0,0,0,0,0,0,0,0,0,0,0,0,1569,-2962,-96,5956047,1569,-2962,-99,0,0,0,0,0,0,-1,2,0,0,0,0,0,0,200,5625,-32,-86,5865,1569,-2962,-96,0,0,0,5620,-51,-252,5865,2,-3,63,39,-13,-2,0,1,7,0,1,1,-0.05348986114155447,0.03383405771323298,1.6143684709101078,0,0,0,"","","",NaN,NaN,NaN,NaN
408,6003134,-12,0,0,10000,1571,425,6,1,-2,19,-12,-12,-57,67,-2048,37,81,-2021,160,158,158,158,5620,-51,-252,5865,-2,1,3,8127,0,0,0,-2,0,0,-2,0,1,0,0,0,0,0,0,-3,0,1,4,0,0,0,0,0,0,0,3,2,2,2,0,0,0,0,270,266,276,279,0,0,0,0,271,265,277,280,0,0,0,0,0,0,0,0,0,0,0,0,1569,-2962,-96,5956047,1569,-2962,-99,0,0,0,0,0,0,-1,2,0,0,0,0,0,0,200,5625,-32,-86,5865,1569,-2962,-96,0,0,0,5620,-51,-252,5865,2,-3,63,39,-13,-2,0,1,7,0,1,1,-0.05348986114155447,0.03383405771323298,1.6143684709101078,0,0,0,"","","",NaN,NaN,NaN,NaN
412,6005150,-12,0,0,10000,1571,425,6,2,-10,-2,8,-16,-69,57,-2042,17,75,-2148,159,159,158,158,5620,-51,-252,5865,0,-1,0,8127,0,0,0,-2,0,0,-2,-1,2,0,0,0,0,0,0,-3,-1,4,3,1,0,0,0,0,0,0,3,2,2,2,0,0,0,0,270,266,276,279,0,0,0,0,271,265,275,280,0,0,0,0,0,0,0,0,0,0,0,0,1569,-2962,-96,5956047,1569,-2962,-99,0,0,0,0,0,0,-1,2,0,0,0,0,0,0,200,5625,-32,-86,5865,1569,-2962,-96,0,0,0,5620,-51,-252,5865,2,-3,63,39,-13,-2,0,1,7,0,1,1,-0.05348986114155447,0.03383405771323298,1.6143684709101078,0,0,0,"","","",NaN,NaN,NaN,NaN
416,6007166,-12,0,0,10000,1570,360,18,-4,-12,19,-7,-19,-77,68,-2033,-58,138,-2030,159,161,158,158,5620,-51,-252,5865,3,-2,-2,8127,0,0,0,-2,0,0,-5,1,3,0,0,0,0,0,0,-8,2,5,4,8,1,0,0,0,0,0,3,2,2,2,0,0,0,0,270,266,276,279,0,0,0,0,271,266,275,280,0,0,0,0,0,0,0,0,0,0,0,0,1569,-2962,-96,5956047,1569,-2962,-99,0,0,0,0,0,0,-1,2,0,0,0,0,0,0,200,5625,-32,-86,5865,1569,-2962,-96,0,0,0,5620,-51,-252,5865,2,-3,63,39,-13,-2,0,1,7,0,1,1,-0.05348986114155447,0.03383405771323298,1.6143684709101078,0,0,0,"","","",NaN,NaN,NaN,NaN
420,6009182,-12,0,0,10000,1570,360,17,2,-14,14,6,-8,-84,89,-2031,-106,126,-2089,160,161,159,158,5620,-51,-252,5865,5,-1,-5,8127,0,0,0,-2,0,0,-4,0,3,0,0,0,0,0,0,-7,-1,6,6,8,3,0,0,0,0,0,3,2,2,2,0,0,0,0,270,266,276,279,0,0,0,0,272,268,277,278,0,0,0,0,0,0,0,0,0,0,0,0,1569,-2962,-96,5956047,1569,-2962,-99,0,0,0,0,0,0,-1,2,0,0,0,0,0,0,200,5625,-32,-86,5865,1569,-2962,-96,0,0,0,5620,-51,-252,5865,2,-3,63,39,-13,-2,0,1,7,0,1,1,-0.05348986114155447,0.03383405771323298,1.6143684709101078,0,0,0,"","","",NaN,NaN,NaN,NaN
