loopIteration,timeUs,rcCommand[0],rcCommand[1],rcCommand[2],rcCommand[3],vbatLatest,amperageLatest,gyroADC[0],gyroADC[1],gyroADC[2],gyroADCafterRpm[0],gyroADCafterRpm[1],gyroADCafterRpm[2],accSmooth[0],accSmooth[1],accSmooth[2],accADCafterRpm[0],accADCafterRpm[1],accADCafterRpm[2],motor[0],motor[1],motor[2],motor[3],quat[0],quat[1],quat[2],quat[3],alpha[0],alpha[1],alpha[2],quatSp[0],quatSp[1],quatSp[2],quatSp[3],gyroSp[0],gyroSp[1],gyroSp[2],alphaSp[0],alphaSp[1],alphaSp[2],spfSp[0],spfSp[1],spfSp[2],dv[0],dv[1],dv[2],dv[3],dv[4],dv[5],u[0],u[1],u[2],u[3],u[4],u[5],u[6],u[7],u_state[0],u_state[1],u_state[2],u_state[3],u_state[4],u_state[5],u_state[6],u_state[7],omega[0],omega[1],omega[2],omega[3],omega[4],omega[5],omega[6],omega[7],omegaUnfiltered[0],omegaUnfiltered[1],omegaUnfiltered[2],omegaUnfiltered[3],omegaUnfiltered[4],omegaUnfiltered[5],omegaUnfiltered[6],omegaUnfiltered[7],omega_dot[0],omega_dot[1],omega_dot[2],omega_dot[3],omega_dot[4],omega_dot[5],omega_dot[6],omega_dot[7],pos[0],pos[1],pos[2],extTime,extPos[0],extPos[1],extPos[2],posSp[0],posSp[1],posSp[2],vel[0],vel[1],vel[2],extVel[0],extVel[1],extVel[2],velSp[0],velSp[1],velSp[2],accSp[0],accSp[1],accSp[2],extQuat[0],extQuat[1],extQuat[2],extQuat[3],ekf_pos[0],ekf_pos[1],ekf_pos[2],ekf_vel[0],ekf_vel[1],ekf_vel[2],ekf_quat[0],ekf_quat[1],ekf_quat[2],ekf_quat[3],ekf_acc_b[0],ekf_acc_b[1],ekf_acc_b[2],ekf_gyro_b[0],ekf_gyro_b[1],ekf_gyro_b[2],motor_0_rls_x[0],motor_0_rls_x[1],motor_0_rls_x[2],motor_0_rls_x[3],motor_1_rls_x[0],motor_1_rls_x[1],motor_1_rls_x[2],motor_1_rls_x[3],motor_2_rls_x[0],motor_2_rls_x[1],motor_2_rls_x[2],motor_2_rls_x[3],motor_3_rls_x[0],motor_3_rls_x[1],motor_3_rls_x[2],motor_3_rls_x[3],imu_rls_x[0],imu_rls_x[1],imu_rls_x[2],fx_x_rls_x[0],fx_x_rls_x[1],fx_x_rls_x[2],fx_x_rls_x[3],fx_y_rls_x[0],fx_y_rls_x[1],fx_y_rls_x[2],fx_y_rls_x[3],fx_z_rls_x[0],fx_z_rls_x[1],fx_z_rls_x[2],fx_z_rls_x[3],fx_p_rls_x[0],fx_p_rls_x[1],fx_p_rls_x[2],fx_p_rls_x[3],fx_p_rls_x[4],fx_p_rls_x[5],fx_p_rls_x[6],fx_p_rls_x[7],fx_q_rls_x[0],fx_q_rls_x[1],fx_q_rls_x[2],fx_q_rls_x[3],fx_q_rls_x[4],fx_q_rls_x[5],fx_q_rls_x[6],fx_q_rls_x[7],fx_r_rls_x[0],fx_r_rls_x[1],fx_r_rls_x[2],fx_r_rls_x[3],fx_r_rls_x[4],fx_r_rls_x[5],fx_r_rls_x[6],fx_r_rls_x[7],learnerGains[0],learnerGains[1],learnerGains[2],learnerGains[3],flightModeFlags,stateFlags,failsafePhase,rxSignalReceived,rxFlightChannelsValid,timeMs,timeS
0,0,-0.0024,0.0,0.0012,0.0,1523,128,0.003490658498693331,0.0,-0.0017453292493466656,0.006981316997386662,-0.003490658498693331,-0.006981316997386662,-0.1197100830078125,0.16280571289062498,-9.782707983398437,-0.3591302490234375,0.0383072265625,-9.093177905273437,0.0,0.0,0.0,0.0,0.9996308600959763,-0.00824412452319429,-0.005414051925679833,-0.02608588655100283,0.0,0.0,0.0,1.0,0.0,0.0,0.0,-0.003490658498693331,0.0,0.0017453292493466656,-0.17453292493466654,0.0,0.0,0.0,0.0,0.0,0.0,0.0,0.0,-0.1,0.0,0.1,0.0,0.00012304663467454166,0.0,0.0,0.0,0.0,0.0,0.0,0.0,0.00012304663467454166,0.0,0.0,0.0,0.0,0.0,0.0,271.0,272.0,272.0,279.0,0.0,0.0,0.0,0.0,271.0,271.0,272.0,281.0,0.0,0.0,0.0,0.0,0,0,0,0,0,0,0,0,-38.043,279.589,7231.729,0,0.0,0.0,0.0,0.0,0.0,0.0,0.58,-0.41,21.77,0.0,0.0,0.0,0.0,0.0,0.0,0.0,0.0,2.0,0.0,0.0,0.0,0.0,0.0,0.0,0.0,0.0,0.0,0.0,0.0,0.0,0.0,0.0,0.0,0.0,0.0,0.0,0.0,0.0,0.0,0.0,0.0,0.0,0.0,0.0,0.0,0.0,0.0,0.0,0.0,0.0,0.0,0.0,0.0,0.0,0.0,0.0,0.0,0.0,0.0,0.0,0.0,0.0,0.0,0.0,0.0,0.0,0.0,0.0,0.0,0.0,0.0,0.0,0.0,0.0,0.0,0.0,0.0,0.0,0.0,0.0,0.0,0.0,0.0,0.0,0.0,0.0,0.0,0.0,0.0,0.0,0.0,0.0,0.0,0.0,0.0,0.0,0.0,0,0,0,0,,0.0,0.0
4,1987,-0.0024,0.0,0.0012,0.0,1523,128,0.0,-0.003490658498693331,0.0,-0.0017453292493466656,-0.010471975496079993,0.0017453292493466656,-0.1149216796875,0.16280571289062498,-9.782707983398437,-0.6177040283203125,0.1771709228515625,-9.423577734375,0.0,0.0,0.0,0.0,0.9996308600959763,-0.00824412452319429,-0.005414051925679833,-0.02608588655100283,0.0,0.0,0.0,1.0,0.0,0.0,0.0,-0.003490658498693331,0.0,0.0017453292493466656,0.0,0.0,0.0,0.0,0.0,0.0,0.0,0.0,0.0,-0.1,0.1,0.0,0.0,0.00012304663467454166,0.0,0.0,0.0,0.0,0.0,0.0,0.0,0.00012304663467454166,0.0,0.0,0.0,0.0,0.0,0.0,271.0,272.0,272.0,279.0,0.0,0.0,0.0,0.0,271.0,272.0,269.0,277.0,0.0,0.0,0.0,0.0,0,0,0,0,0,0,0,0,-38.042,279.588,7231.772,0,0.0,0.0,0.0,0.0,0.0,0.0,0.58,-0.41,21.77,0.0,0.0,0.0,0.0,0.0,0.0,0.0,0.0,2.0,0.0,0.0,0.0,0.0,0.0,0.0,0.0,0.0,0.0,0.0,0.0,0.0,0.0,0.0,0.0,0.0,0.0,0.0,0.0,0.0,0.0,0.0,0.0,0.0,0.0,0.0,0.0,0.0,0.0,0.0,0.0,0.0,0.0,0.0,0.0,0.0,0.0,0.0,0.0,0.0,0.0,0.0,0.0,0.0,0.0,0.0,0.0,0.0,0.0,0.0,0.0,0.0,0.0,0.0,0.0,0.0,0.0,0.0,0.0,0.0,0.0,0.0,0.0,0.0,0.0,0.0,0.0,0.0,0.0,0.0,0.0,0.0,0.0,0.0,0.0,0.0,0.0,0.0,0.0,1,0,0,1,1,1.987,0.001987
8,3975,-0.0024,0.0,0.0012,0.0,1523,128,0.0017453292493466656,-0.003490658498693331,0.0,0.003490658498693331,-0.01221730474542666,0.003490658498693331,-0.11013327636718749,0.1580173095703125,-9.787496386718749,-0.1292868896484375,0.7613561279296874,-9.117119921875,0.0,0.0,0.0,0.0,0.9996308600959763,-0.00824412452319429,-0.005414051925679833,-0.02608588655100283,0.0,0.0,0.0,1.0,0.0,0.0,0.0,-0.003490658498693331,0.0,0.0017453292493466656,-0.17453292493466654,0.0,0.0,0.0,0.0,0.0,0.0,0.0,0.0,-0.1,0.1,0.0,0.0,0.00012304663467454166,0.0,0.0,0.0,0.0,0.0,0.0,0.0,0.00012304663467454166,0.0,0.0,0.0,0.0,0.0,0.0,271.0,272.0,272.0,279.0,0.0,0.0,0.0,0.0,272.0,272.0,272.0,280.0,0.0,0.0,0.0,0.0,0,0,0,0,0,0,0,0,-38.041,279.587,7231.816,0,0.0,0.0,0.0,0.0,0.0,0.0,0.58,-0.41,21.77,0.0,0.0,0.0,0.0,0.0,0.0,0.0,0.0,2.0,0.0,0.0,0.0,0.0,0.0,0.0,0.0,0.0,0.0,0.0,0.0,0.0,0.0,0.0,0.0,0.0,0.0,0.0,0.0,0.0,0.0,0.0,0.0,0.0,0.0,0.0,0.0,0.0,0.0,0.0,0.0,0.0,0.0,0.0,0.0,0.0,0.0,0.0,0.0,0.0,0.0,0.0,0.0,0.0,0.0,0.0,0.0,0.0,0.0,0.0,0.0,0.0,0.0,0.0,0.0,0.0,0.0,0.0,0.0,0.0,0.0,0.0,0.0,0.0,0.0,0.0,0.0,0.0,0.0,0.0,0.0,0.0,0.0,0.0,0.0,0.0,0.0,0.0,0.0,1,0,0,1,1,3.975,0.003975
12,5961,-0.0024,0.0,0.0012,0.0,1523,128,0.0,-0.003490658498693331,0.0017453292493466656,-0.0017453292493466656,0.0,0.006981316997386662,-0.11013327636718749,0.1484405029296875,-9.792284790039062,0.4165910888671875,1.0773907470703123,-10.20887587890625,0.0,0.0,0.0,0.0,0.9996308600959763,-0.00824412452319429,-0.005414051925679833,-0.02608588655100283,0.0,0.0,0.0,1.0,0.0,0.0,0.0,-0.003490658498693331,0.0,0.0017453292493466656,0.0,0.17453292493466654,0.0,0.0,0.0,0.0,0.0,0.0,0.0,-0.1,0.1,0.0,0.0,0.00012304663467454166,0.0,0.0,0.0,0.0,0.0,0.0,0.0,0.00012304663467454166,0.0,0.0,0.0,0.0,0.0,0.0,271.0,272.0,272.0,279.0,0.0,0.0,0.0,0.0,272.0,272.0,269.0,277.0,0.0,0.0,0.0,0.0,0,0,0,0,0,0,0,0,-38.04,279.587,7231.86,0,0.0,0.0,0.0,0.0,0.0,0.0,0.58,-0.41,21.77,0.0,0.0,0.0,0.0,0.0,0.0,0.0,0.0,2.0,0.0,0.0,0.0,0.0,0.0,0.0,0.0,0.0,0.0,0.0,0.0,0.0,0.0,0.0,0.0,0.0,0.0,0.0,0.0,0.0,0.0,0.0,0.0,0.0,0.0,0.0,0.0,0.0,0.0,0.0,0.0,0.0,0.0,0.0,0.0,0.0,0.0,0.0,0.0,0.0,0.0,0.0,0.0,0.0,0.0,0.0,0.0,0.0,0.0,0.0,0.0,0.0,0.0,0.0,0.0,0.0,0.0,0.0,0.0,0.0,0.0,0.0,0.0,0.0,0.0,0.0,0.0,0.0,0.0,0.0,0.0,0.0,0.0,0.0,0.0,0.0,0.0,0.0,0.0,1,0,0,1,1,5.961,0.005961
16,7948,-0.0024,0.0,0.0012,0.0,1523,128,0.0,-0.003490658498693331,0.003490658498693331,0.0,0.0,0.01221730474542666,-0.1149216796875,0.13407529296874998,-9.787496386718749,0.9097966308593749,1.1013327636718748,-10.769119067382812,0.0,0.0,0.0,0.0,0.9996308600959763,-0.00824412452319429,-0.005414051925679833,-0.02608588655100283,0.0,0.0,0.0,1.0,0.0,0.0,0.0,-0.003490658498693331,0.0,0.0017453292493466656,0.0,0.0,0.0,0.0,0.0,0.0,0.0,0.0,0.0,-0.1,0.1,0.0,0.0,0.0,0.0,0.0,0.0,0.0,0.0,0.0,0.0,0.00012304663467454166,0.0,0.0,0.0,0.0,0.0,0.0,271.0,272.0,272.0,279.0,0.0,0.0,0.0,0.0,271.0,272.0,272.0,281.0,0.0,0.0,0.0,0.0,0,0,0,0,0,0,0,0,-38.039,279.586,7231.903,0,0.0,0.0,0.0,0.0,0.0,0.0,0.58,-0.41,21.77,0.0,0.0,0.0,0.0,0.0,0.0,0.0,0.0,2.0,0.0,0.0,0.0,0.0,0.0,0.0,0.0,0.0,0.0,0.0,0.0,0.0,0.0,0.0,0.0,0.0,0.0,0.0,0.0,0.0,0.0,0.0,0.0,0.0,0.0,0.0,0.0,0.0,0.0,0.0,0.0,0.0,0.0,0.0,0.0,0.0,0.0,0.0,0.0,0.0,0.0,0.0,0.0,0.0,0.0,0.0,0.0,0.0,0.0,0.0,0.0,0.0,0.0,0.0,0.0,0.0,0.0,0.0,0.0,0.0,0.0,0.0,0.0,0.0,0.0,0.0,0.0,0.0,0.0,0.0,0.0,0.0,0.0,0.0,0.0,0.0,0.0,0.0,0.0,1,0,0,1,1,7.948,0.007948
20,9935,-0.0024,0.0,0.0012,0.0,1523,128,0.0,-0.0017453292493466656,0.0,0.0017453292493466656,0.003490658498693331,-0.0017453292493466656,-0.1292868896484375,0.11013327636718749,-9.763554370117188,0.47884033203125,0.9097966308593749,-10.524910498046875,0.0,0.0,0.0,0.0,0.9996308600959763,-0.00824412452319429,-0.005414051925679833,-0.02608588655100283,0.0,0.0,0.0,1.0,0.0,0.0,0.0,-0.003490658498693331,0.0,0.0017453292493466656,0.0,0.0,0.0,0.0,0.0,0.0,0.0,0.0,0.0,-0.1,0.0,0.0,0.0,0.0,0.0,0.0,0.0,0.0,0.0,0.0,0.0,0.00012304663467454166,0.0,0.0,0.0,0.0,0.0,0.0,271.0,272.0,272.0,279.0,0.0,0.0,0.0,0.0,272.0,272.0,272.0,281.0,0.0,0.0,0.0,0.0,0,0,0,0,0,0,0,0,-38.037,279.585,7231.946,0,0.0,0.0,0.0,0.0,0.0,0.0,0.58,-0.41,21.77,0.0,0.0,0.0,0.0,0.0,0.0,0.0,0.0,2.0,0.0,0.0,0.0,0.0,0.0,0.0,0.0,0.0,0.0,0.0,0.0,0.0,0.0,0.0,0.0,0.0,0.0,0.0,0.0,0.0,0.0,0.0,0.0,0.0,0.0,0.0,0.0,0.0,0.0,0.0,0.0,0.0,0.0,0.0,0.0,0.0,0.0,0.0,0.0,0.0,0.0,0.0,0.0,0.0,0.0,0.0,0.0,0.0,0.0,0.0,0.0,0.0,0.0,0.0,0.0,0.0,0.0,0.0,0.0,0.0,0.0,0.0,0.0,0.0,0.0,0.0,0.0,0.0,0.0,0.0,0.0,0.0,0.0,0.0,0.0,0.0,0.0,0.0,0.0,1,0,0,1,1,9.935,0.009935
24,11922,-0.0024,0.0,0.0012,0.0,1523,128,0.0,0.0,0.0,0.0,0.0017453292493466656,-0.006981316997386662,-0.1292868896484375,0.1197100830078125,-9.749189160156249,-0.411802685546875,-0.4213794921875,-10.151415039062499,0.0,0.0,0.0,0.0,0.9996308600959763,-0.00824412452319429,-0.005414051925679833,-0.02608588655100283,0.0,0.0,0.0,1.0,0.0,0.0,0.0,-0.003490658498693331,0.0,0.0017453292493466656,0.0,0.0,0.0,0.0,0.0,0.0,0.0,0.0,0.0,-0.1,0.0,0.1,0.0,0.0,0.0,0.0,0.0,0.0,0.0,0.0,0.0,0.00012304663467454166,0.0,0.0,0.0,0.0,0.0,0.0,271.0,272.0,272.0,279.0,0.0,0.0,0.0,0.0,271.0,272.0,271.0,275.0,0.0,0.0,0.0,0.0,0,0,0,0,0,0,0,0,-38.036,279.584,7231.99,0,0.0,0.0,0.0,0.0,0.0,0.0,0.58,-0.41,21.77,0.0,0.0,0.0,0.0,0.0,0.0,0.0,0.0,2.0,0.0,0.0,0.0,0.0,0.0,0.0,0.0,0.0,0.0,0.0,0.0,0.0,0.0,0.0,0.0,0.0,0.0,0.0,0.0,0.0,0.0,0.0,0.0,0.0,0.0,0.0,0.0,0.0,0.0,0.0,0.0,0.0,0.0,0.0,0.0,0.0,0.0,0.0,0.0,0.0,0.0,0.0,0.0,0.0,0.0,0.0,0.0,0.0,0.0,0.0,0.0,0.0,0.0,0.0,0.0,0.0,0.0,0.0,0.0,0.0,0.0,0.0,0.0,0.0,0.0,0.0,0.0,0.0,0.0,0.0,0.0,0.0,0.0,0.0,0.0,0.0,0.0,0.0,0.0,1,0,0,1,1,11.922,0.011922
28,13909,-0.0024,0.0,0.0012,0.0,1523,128,0.0,0.0017453292493466656,-0.0017453292493466656,0.006981316997386662,0.0017453292493466656,-0.010471975496079993,-0.12449848632812499,0.12449848632812499,-9.744400756835937,-0.40222587890625,-0.2442085693359375,-9.696516723632811,0.0,0.0,0.0,0.0,0.9996308600959763,-0.00824412452319429,-0.005414051925679833,-0.02608588655100283,0.0,0.0,0.0,1.0,0.0,0.0,0.0,-0.003490658498693331,0.0,0.0017453292493466656,0.0,0.0,0.0,0.0,0.0,0.0,0.0,0.0,0.0,-0.1,0.0,0.1,0.0,0.0,0.0,0.0,0.0,0.0,0.0,0.0,0.0,0.00012304663467454166,0.0,0.0,0.0,0.0,0.0,0.0,271.0,272.0,272.0,279.0,0.0,0.0,0.0,0.0,272.0,272.0,271.0,281.0,0.0,0.0,0.0,0.0,0,0,0,0,0,0,0,0,-38.036,279.584,7231.99,0,0.0,0.0,0.0,0.0,0.0,0.0,0.58,-0.41,21.77,0.0,0.0,0.0,0.0,0.0,0.0,0.0,0.0,2.0,0.0,0.0,0.0,0.0,0.0,0.0,0.0,0.0,0.0,0.0,0.0,0.0,0.0,0.0,0.0,0.0,0.0,0.0,0.0,0.0,0.0,0.0,0.0,0.0,0.0,0.0,0.0,0.0,0.0,0.0,0.0,0.0,0.0,0.0,0.0,0.0,0.0,0.0,0.0,0.0,0.0,0.0,0.0,0.0,0.0,0.0,0.0,0.0,0.0,0.0,0.0,0.0,0.0,0.0,0.0,0.0,0.0,0.0,0.0,0.0,0.0,0.0,0.0,0.0,0.0,0.0,0.0,0.0,0.0,0.0,0.0,0.0,0.0,0.0,0.0,0.0,0.0,0.0,0.0,1,0,0,1,1,13.909,0.013909
32,15896,-0.0024,0.0,0.0012,0.0,1523,128,0.0,0.003490658498693331,-0.0017453292493466656,0.006981316997386662,0.003490658498693331,-0.008726646246733328,-0.1149216796875,0.1388636962890625,-9.753977563476562,-0.6560112548828124,-0.5985504150390625,-9.390058911132812,0.0,0.0,0.0,0.0,0.9996308600959763,-0.00824412452319429,-0.005414051925679833,-0.02608588655100283,0.0,0.17453292493466654,0.0,1.0,0.0,0.0,0.0,-0.003490658498693331,0.0,0.0017453292493466656,-0.17453292493466654,0.0,0.0,0.0,0.0,0.0,0.0,0.0,0.0,-0.1,-0.1,0.1,0.00012304663467454166,0.00012304663467454166,0.00012304663467454166,0.0,0.0,0.0,0.0,0.0,0.0,0.00012304663467454166,0.0,0.0,0.0,0.0,0.0,0.0,271.0,272.0,272.0,279.0,0.0,0.0,0.0,0.0,271.0,272.0,271.0,280.0,0.0,0.0,0.0,0.0,0,0,0,0,0,0,0,0,-38.035,279.583,7232.037,0,0.0,0.0,0.0,0.0,0.0,0.0,0.58,-0.41,21.77,0.0,0.0,0.0,0.0,0.0,0.0,0.0,0.0,2.0,0.0,0.0,0.0,0.0,0.0,0.0,0.0,0.0,0.0,0.0,0.0,0.0,0.0,0.0,0.0,0.0,0.0,0.0,0.0,0.0,0.0,0.0,0.0,0.0,0.0,0.0,0.0,0.0,0.0,0.0,0.0,0.0,0.0,0.0,0.0,0.0,0.0,0.0,0.0,0.0,0.0,0.0,0.0,0.0,0.0,0.0,0.0,0.0,0.0,0.0,0.0,0.0,0.0,0.0,0.0,0.0,0.0,0.0,0.0,0.0,0.0,0.0,0.0,0.0,0.0,0.0,0.0,0.0,0.0,0.0,0.0,0.0,0.0,0.0,0.0,0.0,0.0,0.0,0.0,1,0,0,1,1,15.896,0.015896
36,17883,-0.0024,0.0,0.0012,0.0,1522,0,0.0017453292493466656,0.0017453292493466656,-0.0017453292493466656,0.003490658498693331,0.005235987748039996,-0.003490658498693331,-0.1005564697265625,0.1580173095703125,-9.758765966796874,-0.7326257080078125,-0.6703764648437499,-9.275137231445312,0.0,0.0,0.0,0.0,0.9996308600959763,-0.00824412452319429,-0.005414051925679833,-0.02608588655100283,0.0,0.17453292493466654,0.0,1.0,0.0,0.0,0.0,-0.003490658498693331,0.0,0.0017453292493466656,-0.17453292493466654,0.0,0.0,0.0,0.0,0.0,0.0,0.0,0.0,-0.1,-0.1,0.1,0.00012304663467454166,0.00012304663467454166,0.00012304663467454166,0.0,0.0,0.0,0.0,0.0,0.0,0.00012304663467454166,0.0,0.0,0.0,0.0,0.0,0.0,271.0,272.0,272.0,279.0,0.0,0.0,0.0,0.0,271.0,272.0,272.0,281.0,0.0,0.0,0.0,0.0,0,0,0,0,0,0,0,0,-38.034,279.582,7232.08,0,0.0,0.0,0.0,0.0,0.0,0.0,0.58,-0.41,21.77,0.0,0.0,0.0,0.0,0.0,0.0,0.0,0.0,2.0,0.0,0.0,0.0,0.0,0.0,0.0,0.0,0.0,0.0,0.0,0.0,0.0,0.0,0.0,0.0,0.0,0.0,0.0,0.0,0.0,0.0,0.0,0.0,0.0,0.0,0.0,0.0,0.0,0.0,0.0,0.0,0.0,0.0,0.0,0.0,0.0,0.0,0.0,0.0,0.0,0.0,0.0,0.0,0.0,0.0,0.0,0.0,0.0,0.0,0.0,0.0,0.0,0.0,0.0,0.0,0.0,0.0,0.0,0.0,0.0,0.0,0.0,0.0,0.0,0.0,0.0,0.0,0.0,0.0,0.0,0.0,0.0,0.0,0.0,0.0,0.0,0.0,0.0,0.0,1,0,0,1,1,17.883,0.017883
40,19869,-0.0024,0.0,0.0012,0.0,1522,0,0.0017453292493466656,0.0017453292493466656,-0.0017453292493466656,0.0,0.0017453292493466656,-0.005235987748039996,-0.1005564697265625,0.16759411621093748,-9.758765966796874,-0.2825157958984375,-0.277727392578125,-9.375693701171874,0.0,0.0,0.0,0.0,0.9996308600959763,-0.00824412452319429,-0.005414051925679833,-0.02608588655100283,0.0,0.17453292493466654,0.0,1.0,0.0,0.0,0.0,-0.003490658498693331,0.0,0.0017453292493466656,-0.17453292493466654,0.0,0.0,0.0,0.0,0.0,0.0,0.0,0.0,-0.1,0.0,0.1,0.00012304663467454166,0.00012304663467454166,0.00012304663467454166,0.0,0.0,0.0,0.0,0.0,0.0,0.00012304663467454166,0.0,0.0,0.0,0.0,0.0,0.0,271.0,272.0,272.0,279.0,0.0,0.0,0.0,0.0,271.0,272.0,271.0,280.0,0.0,0.0,0.0,0.0,0,0,0,0,0,0,0,0,-38.033,279.582,7232.124,0,0.0,0.0,0.0,0.0,0.0,0.0,0.58,-0.41,21.77,0.0,0.0,0.0,0.0,0.0,0.0,0.0,0.0,2.0,0.0,0.0,0.0,0.0,0.0,0.0,0.0,0.0,0.0,0.0,0.0,0.0,0.0,0.0,0.0,0.0,0.0,0.0,0.0,0.0,0.0,0.0,0.0,0.0,0.0,0.0,0.0,0.0,0.0,0.0,0.0,0.0,0.0,0.0,0.0,0.0,0.0,0.0,0.0,0.0,0.0,0.0,0.0,0.0,0.0,0.0,0.0,0.0,0.0,0.0,0.0,0.0,0.0,0.0,0.0,0.0,0.0,0.0,0.0,0.0,0.0,0.0,0.0,0.0,0.0,0.0,0.0,0.0,0.0,0.0,0.0,0.0,0.0,0.0,0.0,0.0,0.0,0.0,0.0,1,0,0,1,1,19.869,0.019868999999999998
44,21857,-0.0024,0.0,0.0012,0.0,1522,0,0.0,0.0,0.0,0.0,-0.005235987748039996,-0.0017453292493466656,-0.09576806640624999,0.181959326171875,-9.763554370117188,-0.37828386230468747,-0.1005564697265625,-9.777919580078125,0.0,0.0,0.0,0.0,0.9996308600959763,-0.00824412452319429,-0.005414051925679833,-0.02608588655100283,0.0,0.17453292493466654,0.0,1.0,0.0,0.0,0.0,-0.003490658498693331,0.0,0.0017453292493466656,0.0,0.0,0.0,0.0,0.0,0.0,0.0,0.0,0.0,-0.1,0.0,0.1,0.0,0.00012304663467454166,0.0,0.0,0.0,0.0,0.0,0.0,0.0,0.00012304663467454166,0.0,0.0,0.0,0.0,0.0,0.0,271.0,272.0,272.0,279.0,0.0,0.0,0.0,0.0,271.0,272.0,271.0,277.0,0.0,0.0,0.0,0.0,0,0,0,0,0,0,0,0,-38.031,279.581,7232.168,0,0.0,0.0,0.0,0.0,0.0,0.0,0.58,-0.41,21.77,0.0,0.0,0.0,0.0,0.0,0.0,0.0,0.0,2.0,0.0,0.0,0.0,0.0,0.0,0.0,0.0,0.0,0.0,0.0,0.0,0.0,0.0,0.0,0.0,0.0,0.0,0.0,0.0,0.0,0.0,0.0,0.0,0.0,0.0,0.0,0.0,0.0,0.0,0.0,0.0,0.0,0.0,0.0,0.0,0.0,0.0,0.0,0.0,0.0,0.0,0.0,0.0,0.0,0.0,0.0,0.0,0.0,0.0,0.0,0.0,0.0,0.0,0.0,0.0,0.0,0.0,0.0,0.0,0.0,0.0,0.0,0.0,0.0,0.0,0.0,0.0,0.0,0.0,0.0,0.0,0.0,0.0,0.0,0.0,0.0,0.0,0.0,0.0,1,0,0,1,1,21.857,0.021856999999999998
48,23843,-0.0024,0.0,0.0012,0.0,1522,0,0.0,0.0,0.0,-0.003490658498693331,-0.003490658498693331,0.005235987748039996,-0.09576806640624999,0.1867477294921875,-9.7683427734375,0.2920926025390625,0.3687070556640625,-9.9215716796875,0.0,0.0,0.0,0.0,0.9996308600959763,-0.00824412452319429,-0.005414051925679833,-0.02608588655100283,0.0,0.17453292493466654,0.0,1.0,0.0,0.0,0.0,-0.003490658498693331,0.0,0.0017453292493466656,0.0,0.0,0.0,0.0,0.0,0.0,0.0,0.0,0.0,-0.1,0.0,0.1,0.0,0.00012304663467454166,0.0,0.0,0.0,0.0,0.0,0.0,0.0,0.00012304663467454166,0.0,0.0,0.0,0.0,0.0,0.0,271.0,272.0,272.0,280.0,0.0,0.0,0.0,0.0,271.0,271.0,272.0,281.0,0.0,0.0,0.0,0.0,0,0,0,0,0,0,0,0,-38.03,279.58,7232.212,0,0.0,0.0,0.0,0.0,0.0,0.0,0.58,-0.41,21.77,0.0,0.0,0.0,0.0,0.0,0.0,0.0,0.0,2.0,0.0,0.0,0.0,0.0,0.0,0.0,0.0,0.0,0.0,0.0,0.0,0.0,0.0,0.0,0.0,0.0,0.0,0.0,0.0,0.0,0.0,0.0,0.0,0.0,0.0,0.0,0.0,0.0,0.0,0.0,0.0,0.0,0.0,0.0,0.0,0.0,0.0,0.0,0.0,0.0,0.0,0.0,0.0,0.0,0.0,0.0,0.0,0.0,0.0,0.0,0.0,0.0,0.0,0.0,0.0,0.0,0.0,0.0,0.0,0.0,0.0,0.0,0.0,0.0,0.0,0.0,0.0,0.0,0.0,0.0,0.0,0.0,0.0,0.0,0.0,0.0,0.0,0.0,0.0,1,0,0,1,1,23.843,0.023843
52,25830,-0.0024,0.0,0.0012,0.0,1522,0,0.0,0.0017453292493466656,0.0,-0.005235987748039996,0.003490658498693331,0.0017453292493466656,-0.105344873046875,0.1867477294921875,-9.7683427734375,0.8379705810546875,0.469263525390625,-10.414777221679687,0.0,0.0,0.0,0.0,0.9996308600959763,-0.00824412452319429,-0.005414051925679833,-0.02608588655100283,0.0,0.0,0.0,1.0,0.0,0.0,0.0,-0.003490658498693331,0.0,0.0017453292493466656,0.0,0.0,0.0,0.0,0.0,0.0,0.0,0.0,0.0,-0.1,0.0,0.0,0.00012304663467454166,0.00012304663467454166,0.0,0.0,0.0,0.0,0.0,0.0,0.0,0.00012304663467454166,0.0,0.0,0.0,0.0,0.0,0.0,271.0,272.0,272.0,280.0,0.0,0.0,0.0,0.0,269.0,272.0,271.0,277.0,0.0,0.0,0.0,0.0,0,0,0,0,0,0,0,0,-38.029,279.579,7232.256,0,0.0,0.0,0.0,0.0,0.0,0.0,0.58,-0.41,21.77,0.0,0.0,0.0,0.0,0.0,0.0,0.0,0.0,2.0,0.0,0.0,0.0,0.0,0.0,0.0,0.0,0.0,0.0,0.0,0.0,0.0,0.0,0.0,0.0,0.0,0.0,0.0,0.0,0.0,0.0,0.0,0.0,0.0,0.0,0.0,0.0,0.0,0.0,0.0,0.0,0.0,0.0,0.0,0.0,0.0,0.0,0.0,0.0,0.0,0.0,0.0,0.0,0.0,0.0,0.0,0.0,0.0,0.0,0.0,0.0,0.0,0.0,0.0,0.0,0.0,0.0,0.0,0.0,0.0,0.0,0.0,0.0,0.0,0.0,0.0,0.0,0.0,0.0,0.0,0.0,0.0,0.0,0.0,0.0,0.0,0.0,0.0,0.0,1,0,0,1,1,25.830000000000002,0.02583
56,27817,-0.0024,0.0,0.0012,0.0,1522,0,0.0017453292493466656,-0.0017453292493466656,0.0017453292493466656,0.005235987748039996,0.005235987748039996,0.003490658498693331,-0.1149216796875,0.1867477294921875,-9.763554370117188,0.430956298828125,0.0047884033203125,-10.309432348632813,0.0,0.0,0.0,0.0,0.9996308600959763,-0.00824412452319429,-0.005414051925679833,-0.02608588655100283,0.0,0.0,0.0,1.0,0.0,0.0,0.0,-0.003490658498693331,0.0,0.0017453292493466656,-0.17453292493466654,0.0,0.0,0.0,0.0,0.0,0.0,0.0,0.0,-0.1,0.0,0.0,0.0,0.00012304663467454166,0.0,0.0,0.0,0.0,0.0,0.0,0.0,0.00012304663467454166,0.0,0.0,0.0,0.0,0.0,0.0,271.0,272.0,272.0,280.0,0.0,0.0,0.0,0.0,272.0,271.0,272.0,280.0,0.0,0.0,0.0,0.0,0,0,0,0,0,0,0,0,-38.028,279.578,7232.299,0,0.0,0.0,0.0,0.0,0.0,0.0,0.58,-0.41,21.77,0.0,0.0,0.0,0.0,0.0,0.0,0.0,0.0,2.0,0.0,0.0,0.0,0.0,0.0,0.0,0.0,0.0,0.0,0.0,0.0,0.0,0.0,0.0,0.0,0.0,0.0,0.0,0.0,0.0,0.0,0.0,0.0,0.0,0.0,0.0,0.0,0.0,0.0,0.0,0.0,0.0,0.0,0.0,0.0,0.0,0.0,0.0,0.0,0.0,0.0,0.0,0.0,0.0,0.0,0.0,0.0,0.0,0.0,0.0,0.0,0.0,0.0,0.0,0.0,0.0,0.0,0.0,0.0,0.0,0.0,0.0,0.0,0.0,0.0,0.0,0.0,0.0,0.0,0.0,0.0,0.0,0.0,0.0,0.0,0.0,0.0,0.0,0.0,1,0,0,1,1,27.817,0.027816999999999998
60,29804,-0.0024,0.0,0.0012,0.0,1522,0,0.0,0.0,-0.0017453292493466656,-0.003490658498693331,0.003490658498693331,-0.005235987748039996,-0.1292868896484375,0.181959326171875,-9.758765966796874,0.1771709228515625,-0.4261678955078125,-10.194510668945313,0.0,0.0,0.0,0.0,0.9996308600959763,-0.00824412452319429,-0.005414051925679833,-0.02608588655100283,0.0,0.0,0.0,1.0,0.0,0.0,0.0,-0.003490658498693331,0.0,0.0017453292493466656,0.0,0.0,0.0,0.0,0.0,0.0,0.0,0.0,0.0,-0.1,0.0,0.1,0.0,0.0,0.0,0.0,0.0,0.0,0.0,0.0,0.0,0.00012304663467454166,0.0,0.0,0.0,0.0,0.0,0.0,271.0,272.0,272.0,280.0,0.0,0.0,0.0,0.0,272.0,272.0,271.0,280.0,0.0,0.0,0.0,0.0,0,0,0,0,0,0,0,0,-38.027,279.578,7232.342,0,0.0,0.0,0.0,0.0,0.0,0.0,0.58,-0.41,21.77,0.0,0.0,0.0,0.0,0.0,0.0,0.0,0.0,2.0,0.0,0.0,0.0,0.0,0.0,0.0,0.0,0.0,0.0,0.0,0.0,0.0,0.0,0.0,0.0,0.0,0.0,0.0,0.0,0.0,0.0,0.0,0.0,0.0,0.0,0.0,0.0,0.0,0.0,0.0,0.0,0.0,0.0,0.0,0.0,0.0,0.0,0.0,0.0,0.0,0.0,0.0,0.0,0.0,0.0,0.0,0.0,0.0,0.0,0.0,0.0,0.0,0.0,0.0,0.0,0.0,0.0,0.0,0.0,0.0,0.0,0.0,0.0,0.0,0.0,0.0,0.0,0.0,0.0,0.0,0.0,0.0,0.0,0.0,0.0,0.0,0.0,0.0,0.0,1,0,0,1,1,29.804000000000002,0.029803999999999997
64,31791,-0.0024,0.0,0.0012,0.0,1522,0,-0.0017453292493466656,-0.0017453292493466656,-0.0017453292493466656,0.0017453292493466656,-0.0017453292493466656,-0.010471975496079993,-0.12449848632812499,0.1867477294921875,-9.758765966796874,-0.6272808349609375,-1.0534487304687499,-9.495403784179686,0.0,0.0,0.0,0.0,0.9996308600959763,-0.00824412452319429,-0.005414051925679833,-0.02608588655100283,0.0,0.0,0.0,1.0,0.0,0.0,0.0,-0.003490658498693331,0.0,0.0017453292493466656,0.0,0.0,0.0,0.0,0.0,0.0,0.0,0.0,0.0,0.0,0.0,0.1,0.0,0.00012304663467454166,0.0,0.0,0.0,0.0,0.0,0.0,0.0,0.00012304663467454166,0.0,0.0,0.0,0.0,0.0,0.0,271.0,272.0,272.0,280.0,0.0,0.0,0.0,0.0,268.0,272.0,271.0,278.0,0.0,0.0,0.0,0.0,0,0,0,0,0,0,0,0,-38.026,279.577,7232.386,0,0.0,0.0,0.0,0.0,0.0,0.0,0.58,-0.41,21.77,0.0,0.0,0.0,0.0,0.0,0.0,0.0,0.0,2.0,0.0,0.0,0.0,0.0,0.0,0.0,0.0,0.0,0.0,0.0,0.0,0.0,0.0,0.0,0.0,0.0,0.0,0.0,0.0,0.0,0.0,0.0,0.0,0.0,0.0,0.0,0.0,0.0,0.0,0.0,0.0,0.0,0.0,0.0,0.0,0.0,0.0,0.0,0.0,0.0,0.0,0.0,0.0,0.0,0.0,0.0,0.0,0.0,0.0,0.0,0.0,0.0,0.0,0.0,0.0,0.0,0.0,0.0,0.0,0.0,0.0,0.0,0.0,0.0,0.0,0.0,0.0,0.0,0.0,0.0,0.0,0.0,0.0,0.0,0.0,0.0,0.0,0.0,0.0,1,0,0,1,1,31.791,0.031791
68,33778,-0.0024,0.0,0.0012,0.0,1522,0,0.0017453292493466656,-0.0017453292493466656,0.0,0.003490658498693331,-0.005235987748039996,-0.003490658498693331,-0.1149216796875,0.19632453613281248,-9.7683427734375,-0.9528922607421875,-0.948103857421875,-8.810662109374999,0.0,0.0,0.0,0.0,0.9996308600959763,-0.00824412452319429,-0.005414051925679833,-0.02608588655100283,0.0,0.0,0.0,1.0,0.0,0.0,0.0,-0.003490658498693331,0.0,0.0017453292493466656,-0.17453292493466654,0.0,0.0,0.0,0.0,0.0,0.0,0.0,0.0,-0.1,0.0,0.1,0.0,0.00012304663467454166,0.0,0.0,0.0,0.0,0.0,0.0,0.0,0.00012304663467454166,0.0,0.0,0.0,0.0,0.0,0.0,271.0,272.0,272.0,280.0,0.0,0.0,0.0,0.0,271.0,272.0,272.0,280.0,0.0,0.0,0.0,0.0,0,0,0,0,0,0,0,0,-38.024,279.576,7232.429,0,0.0,0.0,0.0,0.0,0.0,0.0,0.58,-0.41,21.77,0.0,0.0,0.0,0.0,0.0,0.0,0.0,0.0,2.0,0.0,0.0,0.0,0.0,0.0,0.0,0.0,0.0,0.0,0.0,0.0,0.0,0.0,0.0,0.0,0.0,0.0,0.0,0.0,0.0,0.0,0.0,0.0,0.0,0.0,0.0,0.0,0.0,0.0,0.0,0.0,0.0,0.0,0.0,0.0,0.0,0.0,0.0,0.0,0.0,0.0,0.0,0.0,0.0,0.0,0.0,0.0,0.0,0.0,0.0,0.0,0.0,0.0,0.0,0.0,0.0,0.0,0.0,0.0,0.0,0.0,0.0,0.0,0.0,0.0,0.0,0.0,0.0,0.0,0.0,0.0,0.0,0.0,0.0,0.0,0.0,0.0,0.0,0.0,1,0,0,1,1,33.778,0.033777999999999996
72,35765,-0.0024,0.0,0.0012,0.0,1522,0,0.0,-0.003490658498693331,0.0,-0.0017453292493466656,-0.003490658498693331,-0.0017453292493466656,-0.105344873046875,0.2059013427734375,-9.787496386718749,-0.4070142822265625,-0.4740519287109375,-8.968679418945312,0.0,0.0,0.0,0.0,0.9996308600959763,-0.00824412452319429,-0.005414051925679833,-0.02608588655100283,0.0,-0.17453292493466654,0.0,1.0,0.0,0.0,0.0,-0.003490658498693331,0.0,0.0017453292493466656,-0.17453292493466654,0.0,0.0,0.0,0.0,0.0,0.0,0.0,0.0,-0.1,0.1,0.0,0.0,0.00012304663467454166,0.0,0.0,0.0,0.0,0.0,0.0,0.0,0.00012304663467454166,0.0,0.0,0.0,0.0,0.0,0.0,271.0,272.0,272.0,280.0,0.0,0.0,0.0,0.0,269.0,272.0,269.0,280.0,0.0,0.0,0.0,0.0,0,0,0,0,0,0,0,0,-38.023,279.575,7232.472,0,0.0,0.0,0.0,0.0,0.0,0.0,0.58,-0.41,21.77,0.0,0.0,0.0,0.0,0.0,0.0,0.0,0.0,2.0,0.0,0.0,0.0,0.0,0.0,0.0,0.0,0.0,0.0,0.0,0.0,0.0,0.0,0.0,0.0,0.0,0.0,0.0,0.0,0.0,0.0,0.0,0.0,0.0,0.0,0.0,0.0,0.0,0.0,0.0,0.0,0.0,0.0,0.0,0.0,0.0,0.0,0.0,0.0,0.0,0.0,0.0,0.0,0.0,0.0,0.0,0.0,0.0,0.0,0.0,0.0,0.0,0.0,0.0,0.0,0.0,0.0,0.0,0.0,0.0,0.0,0.0,0.0,0.0,0.0,0.0,0.0,0.0,0.0,0.0,0.0,0.0,0.0,0.0,0.0,0.0,0.0,0.0,0.0,1,0,0,1,1,35.765,0.035765
76,37752,-0.0024,0.0,0.0,0.0,1519,0,0.0017453292493466656,0.0,0.0,-0.0017453292493466656,0.005235987748039996,0.003490658498693331,-0.1005564697265625,0.201112939453125,-9.797073193359374,-0.3687070556640625,0.023942016601562498,-9.303867651367186,0.0,0.0,0.0,0.0,0.9996308600959763,-0.00824412452319429,-0.005414051925679833,-0.02608588655100283,0.0,0.0,0.0,1.0,0.0,0.0,0.0,-0.003490658498693331,0.0,0.0017453292493466656,-0.17453292493466654,0.0,0.0,0.0,0.0,0.0,0.0,0.0,0.0,-0.1,0.0,0.0,0.0,0.0,0.0,0.0,0.0,0.0,0.0,0.0,0.0,0.00012304663467454166,0.0,0.0,0.0,0.0,0.0,0.0,271.0,272.0,272.0,280.0,0.0,0.0,0.0,0.0,272.0,272.0,272.0,278.0,0.0,0.0,0.0,0.0,0,0,0,0,0,0,0,0,-38.022,279.574,7232.516,0,0.0,0.0,0.0,0.0,0.0,0.0,0.58,-0.41,21.77,0.0,0.0,0.0,0.0,0.0,0.0,0.0,0.0,2.0,0.0,0.0,0.0,0.0,0.0,0.0,0.0,0.0,0.0,0.0,0.0,0.0,0.0,0.0,0.0,0.0,0.0,0.0,0.0,0.0,0.0,0.0,0.0,0.0,0.0,0.0,0.0,0.0,0.0,0.0,0.0,0.0,0.0,0.0,0.0,0.0,0.0,0.0,0.0,0.0,0.0,0.0,0.0,0.0,0.0,0.0,0.0,0.0,0.0,0.0,0.0,0.0,0.0,0.0,0.0,0.0,0.0,0.0,0.0,0.0,0.0,0.0,0.0,0.0,0.0,0.0,0.0,0.0,0.0,0.0,0.0,0.0,0.0,0.0,0.0,0.0,0.0,0.0,0.0,1,0,0,1,1,37.752,0.037752
80,39739,-0.0024,0.0,0.0,0.0,1519,0,0.0,0.0017453292493466656,0.0,-0.010471975496079993,0.0,0.006981316997386662,-0.105344873046875,0.1867477294921875,-9.801861596679688,0.05746083984375,0.55545478515625,-10.036493359375,0.0,0.0,0.0,0.0,0.9996308600959763,-0.00824412452319429,-0.005414051925679833,-0.02608588655100283,0.0,0.0,0.0,1.0,0.0,0.0,0.0,-0.003490658498693331,0.0,0.0017453292493466656,0.0,0.0,0.0,0.0,0.0,0.0,0.0,0.0,0.0,-0.1,0.0,0.0,0.00012304663467454166,0.00012304663467454166,0.0,0.0,0.0,0.0,0.0,0.0,0.0,0.00012304663467454166,0.0,0.0,0.0,0.0,0.0,0.0,271.0,272.0,272.0,280.0,0.0,0.0,0.0,0.0,271.0,272.0,272.0,280.0,0.0,0.0,0.0,0.0,0,0,0,0,0,0,0,0,-38.021,279.573,7232.56,0,0.0,0.0,0.0,0.0,0.0,0.0,0.58,-0.41,21.77,0.0,0.0,0.0,0.0,0.0,0.0,0.0,0.0,2.0,0.0,0.0,0.0,0.0,0.0,0.0,0.0,0.0,0.0,0.0,0.0,0.0,0.0,0.0,0.0,0.0,0.0,0.0,0.0,0.0,0.0,0.0,0.0,0.0,0.0,0.0,0.0,0.0,0.0,0.0,0.0,0.0,0.0,0.0,0.0,0.0,0.0,0.0,0.0,0.0,0.0,0.0,0.0,0.0,0.0,0.0,0.0,0.0,0.0,0.0,0.0,0.0,0.0,0.0,0.0,0.0,0.0,0.0,0.0,0.0,0.0,0.0,0.0,0.0,0.0,0.0,0.0,0.0,0.0,0.0,0.0,0.0,0.0,0.0,0.0,0.0,0.0,0.0,0.0,1,0,0,1,1,39.739000000000004,0.039739
84,41725,-0.0024,0.0,0.0,0.0,1519,0,0.0,0.0017453292493466656,0.0,-0.005235987748039996,0.0017453292493466656,0.0017453292493466656,-0.11013327636718749,0.16759411621093748,-9.792284790039062,0.086191259765625,0.9959878906249999,-10.199299072265624,0.0,0.0,0.0,0.0,0.9996308600959763,-0.00824412452319429,-0.005414051925679833,-0.02608588655100283,0.0,0.0,0.0,1.0,0.0,0.0,0.0,-0.003490658498693331,0.0,0.0017453292493466656,0.0,0.0,0.0,0.0,0.0,0.0,0.0,0.0,0.0,-0.1,0.0,0.0,0.00012304663467454166,0.00012304663467454166,0.0,0.0,0.0,0.0,0.0,0.0,0.0,0.00012304663467454166,0.0,0.0,0.0,0.0,0.0,0.0,271.0,272.0,272.0,280.0,0.0,0.0,0.0,0.0,269.0,272.0,271.0,280.0,0.0,0.0,0.0,0.0,0,0,0,0,0,0,0,0,-38.02,279.573,7232.604,0,0.0,0.0,0.0,0.0,0.0,0.0,0.58,-0.41,21.77,0.0,0.0,0.0,0.0,0.0,0.0,0.0,0.0,2.0,0.0,0.0,0.0,0.0,0.0,0.0,0.0,0.0,0.0,0.0,0.0,0.0,0.0,0.0,0.0,0.0,0.0,0.0,0.0,0.0,0.0,0.0,0.0,0.0,0.0,0.0,0.0,0.0,0.0,0.0,0.0,0.0,0.0,0.0,0.0,0.0,0.0,0.0,0.0,0.0,0.0,0.0,0.0,0.0,0.0,0.0,0.0,0.0,0.0,0.0,0.0,0.0,0.0,0.0,0.0,0.0,0.0,0.0,0.0,0.0,0.0,0.0,0.0,0.0,0.0,0.0,0.0,0.0,0.0,0.0,0.0,0.0,0.0,0.0,0.0,0.0,0.0,0.0,0.0,1,0,0,1,1,41.725,0.041725
88,43712,-0.0024,0.0,0.0,0.0,1519,0,0.0,0.003490658498693331,0.0,-0.003490658498693331,0.003490658498693331,0.003490658498693331,-0.11013327636718749,0.1580173095703125,-9.782707983398437,0.229843359375,0.9193734375,-10.548852514648438,0.0,0.0,0.0,0.0,0.9996308600959763,-0.00824412452319429,-0.005414051925679833,-0.02608588655100283,0.0,0.17453292493466654,0.0,1.0,0.0,0.0,0.0,-0.003490658498693331,0.0,0.0,0.0,0.0,0.0,0.0,0.0,0.0,0.0,0.0,0.0,-0.1,-0.1,0.0,0.00012304663467454166,0.0,0.00012304663467454166,0.0,0.0,0.0,0.0,0.0,0.0,0.00012304663467454166,0.0,0.0,0.0,0.0,0.0,0.0,271.0,272.0,272.0,279.0,0.0,0.0,0.0,0.0,271.0,271.0,272.0,277.0,0.0,0.0,0.0,0.0,0,0,0,0,0,0,0,0,-38.019,279.572,7232.647,0,0.0,0.0,0.0,0.0,0.0,0.0,0.58,-0.41,21.77,0.0,0.0,0.0,0.0,0.0,0.0,0.0,0.0,2.0,0.0,0.0,0.0,0.0,0.0,0.0,0.0,0.0,0.0,0.0,0.0,0.0,0.0,0.0,0.0,0.0,0.0,0.0,0.0,0.0,0.0,0.0,0.0,0.0,0.0,0.0,0.0,0.0,0.0,0.0,0.0,0.0,0.0,0.0,0.0,0.0,0.0,0.0,0.0,0.0,0.0,0.0,0.0,0.0,0.0,0.0,0.0,0.0,0.0,0.0,0.0,0.0,0.0,0.0,0.0,0.0,0.0,0.0,0.0,0.0,0.0,0.0,0.0,0.0,0.0,0.0,0.0,0.0,0.0,0.0,0.0,0.0,0.0,0.0,0.0,0.0,0.0,0.0,0.0,1,0,0,1,1,43.712,0.043712
92,45699,-0.0024,0.0,0.0,0.0,1519,0,0.0017453292493466656,0.0,0.0,0.005235987748039996,0.0,0.0017453292493466656,-0.1149216796875,0.15322890625,-9.773131176757811,-1.0773907470703123,0.7996633544921875,-10.342951171874999,0.0,0.0,0.0,0.0,0.9996308600959763,-0.00824412452319429,-0.005414051925679833,-0.02608588655100283,0.0,0.0,0.0,1.0,0.0,0.0,0.0,-0.003490658498693331,0.0,0.0,-0.17453292493466654,0.0,0.0,0.0,0.0,0.0,0.0,0.0,0.0,-0.1,0.0,0.0,0.00012304663467454166,0.00012304663467454166,0.0,0.0,0.0,0.0,0.0,0.0,0.0,0.00012304663467454166,0.0,0.0,0.0,0.0,0.0,0.0,271.0,272.0,272.0,279.0,0.0,0.0,0.0,0.0,271.0,272.0,271.0,280.0,0.0,0.0,0.0,0.0,0,0,0,0,0,0,0,0,-38.018,279.571,7232.69,0,0.0,0.0,0.0,0.0,0.0,0.0,0.58,-0.41,21.77,0.0,0.0,0.0,0.0,0.0,0.0,0.0,0.0,2.0,0.0,0.0,0.0,0.0,0.0,0.0,0.0,0.0,0.0,0.0,0.0,0.0,0.0,0.0,0.0,0.0,0.0,0.0,0.0,0.0,0.0,0.0,0.0,0.0,0.0,0.0,0.0,0.0,0.0,0.0,0.0,0.0,0.0,0.0,0.0,0.0,0.0,0.0,0.0,0.0,0.0,0.0,0.0,0.0,0.0,0.0,0.0,0.0,0.0,0.0,0.0,0.0,0.0,0.0,0.0,0.0,0.0,0.0,0.0,0.0,0.0,0.0,0.0,0.0,0.0,0.0,0.0,0.0,0.0,0.0,0.0,0.0,0.0,0.0,0.0,0.0,0.0,0.0,0.0,1,0,0,1,1,45.699,0.045699
96,47686,-0.0024,0.0,0.0,0.0,1519,0,0.003490658498693331,0.0,-0.0017453292493466656,0.006981316997386662,0.006981316997386662,-0.005235987748039996,-0.12449848632812499,0.1580173095703125,-9.773131176757811,-0.6607996582031249,-0.3591302490234375,-9.801861596679688,0.0,0.0,0.0,0.0,0.9996308600959763,-0.00824412452319429,-0.005414051925679833,-0.02608588655100283,0.17453292493466654,0.0,0.0,1.0,0.0,0.0,0.0,-0.003490658498693331,0.0,0.0,-0.17453292493466654,0.0,0.0,0.0,0.0,0.0,0.0,0.0,0.0,-0.1,0.0,0.0,0.00012304663467454166,0.00012304663467454166,0.0,0.0,0.0,0.0,0.0,0.0,0.00012304663467454166,0.00012304663467454166,0.0,0.0,0.0,0.0,0.0,0.0,271.0,272.0,272.0,279.0,0.0,0.0,0.0,0.0,271.0,272.0,272.0,280.0,0.0,0.0,0.0,0.0,0,0,0,0,0,0,0,0,-38.016,279.57,7232.734,0,0.0,0.0,0.0,0.0,0.0,0.0,0.58,-0.41,21.77,0.0,0.0,0.0,0.0,0.0,0.0,0.0,0.0,2.0,0.0,0.0,0.0,0.0,0.0,0.0,0.0,0.0,0.0,0.0,0.0,0.0,0.0,0.0,0.0,0.0,0.0,0.0,0.0,0.0,0.0,0.0,0.0,0.0,0.0,0.0,0.0,0.0,0.0,0.0,0.0,0.0,0.0,0.0,0.0,0.0,0.0,0.0,0.0,0.0,0.0,0.0,0.0,0.0,0.0,0.0,0.0,0.0,0.0,0.0,0.0,0.0,0.0,0.0,0.0,0.0,0.0,0.0,0.0,0.0,0.0,0.0,0.0,0.0,0.0,0.0,0.0,0.0,0.0,0.0,0.0,0.0,0.0,0.0,0.0,0.0,0.0,0.0,0.0,1,0,0,1,1,47.686,0.047686
100,49673,-0.0024,0.0,0.0,0.0,1519,0,0.0,-0.0017453292493466656,-0.0017453292493466656,0.0017453292493466656,-0.003490658498693331,-0.005235987748039996,-0.13407529296874998,0.1580173095703125,-9.763554370117188,-0.967257470703125,-0.5315127685546874,-9.481038574218749,0.0,0.0,0.0,0.0,0.9996308600959763,-0.00824412452319429,-0.005414051925679833,-0.02608588655100283,0.0,0.0,0.0,1.0,0.0,0.0,0.0,-0.003490658498693331,0.0,0.0,0.0,0.0,0.0,0.0,0.0,0.0,0.0,0.0,0.0,-0.1,0.0,0.0,0.0,0.00012304663467454166,0.0,0.0,0.0,0.0,0.0,0.0,0.0,0.00012304663467454166,0.0,0.0,0.0,0.0,0.0,0.0,271.0,272.0,272.0,279.0,0.0,0.0,0.0,0.0,271.0,272.0,272.0,281.0,0.0,0.0,0.0,0.0,0,0,0,0,0,0,0,0,-38.015,279.569,7232.78,0,0.0,0.0,0.0,0.0,0.0,0.0,0.58,-0.41,21.77,0.0,0.0,0.0,0.0,0.0,0.0,0.0,0.0,2.0,0.0,0.0,0.0,0.0,0.0,0.0,0.0,0.0,0.0,0.0,0.0,0.0,0.0,0.0,0.0,0.0,0.0,0.0,0.0,0.0,0.0,0.0,0.0,0.0,0.0,0.0,0.0,0.0,0.0,0.0,0.0,0.0,0.0,0.0,0.0,0.0,0.0,0.0,0.0,0.0,0.0,0.0,0.0,0.0,0.0,0.0,0.0,0.0,0.0,0.0,0.0,0.0,0.0,0.0,0.0,0.0,0.0,0.0,0.0,0.0,0.0,0.0,0.0,0.0,0.0,0.0,0.0,0.0,0.0,0.0,0.0,0.0,0.0,0.0,0.0,0.0,0.0,0.0,0.0,1,0,0,1,1,49.673,0.049672999999999995
104,51660,-0.0024,0.0,0.0,0.0,1519,0,0.003490658498693331,-0.003490658498693331,-0.003490658498693331,0.008726646246733328,-0.006981316997386662,-0.006981316997386662,-0.1292868896484375,0.16280571289062498,-9.763554370117188,-1.1444283935546875,-0.5698199951171875,-8.71489404296875,0.0,0.0005291005291005291,0.0,0.0,0.9996308600959763,-0.00824412452319429,-0.005414051925679833,-0.02608588655100283,0.0,0.0,0.0,1.0,0.0,0.0,0.0,-0.003490658498693331,0.0,0.0,-0.17453292493466654,0.0,0.0,0.0,0.0,0.0,0.0,0.0,0.0,-0.1,0.1,0.1,0.0,0.0002460932693490833,0.0,0.0,0.0,0.0,0.0,0.0,0.0,0.00012304663467454166,0.0,0.0,0.0,0.0,0.0,0.0,271.0,272.0,272.0,279.0,0.0,0.0,0.0,0.0,269.0,272.0,269.0,280.0,0.0,0.0,0.0,0.0,0,0,0,0,0,0,0,0,-38.014,279.568,7232.823,0,0.0,0.0,0.0,0.0,0.0,0.0,0.58,-0.41,21.77,0.0,0.0,0.0,0.0,0.0,0.0,0.0,0.0,2.0,0.0,0.0,0.0,0.0,0.0,0.0,0.0,0.0,0.0,0.0,0.0,0.0,0.0,0.0,0.0,0.0,0.0,0.0,0.0,0.0,0.0,0.0,0.0,0.0,0.0,0.0,0.0,0.0,0.0,0.0,0.0,0.0,0.0,0.0,0.0,0.0,0.0,0.0,0.0,0.0,0.0,0.0,0.0,0.0,0.0,0.0,0.0,0.0,0.0,0.0,0.0,0.0,0.0,0.0,0.0,0.0,0.0,0.0,0.0,0.0,0.0,0.0,0.0,0.0,0.0,0.0,0.0,0.0,0.0,0.0,0.0,0.0,0.0,0.0,0.0,0.0,0.0,0.0,0.0,1,0,0,1,1,51.660000000000004,0.05166
108,53647,-0.0024,0.0,0.0,0.0,1519,0,0.0,-0.003490658498693331,-0.0017453292493466656,-0.005235987748039996,-0.006981316997386662,-0.0017453292493466656,-0.1197100830078125,0.16280571289062498,-9.773131176757811,-0.6655880615234374,0.143652099609375,-8.671798413085938,0.0,0.0,0.0,0.0,0.9996308600959763,-0.00824412452319429,-0.005414051925679833,-0.02608588655100283,0.0,0.0,0.0,1.0,0.0,0.0,0.0,-0.003490658498693331,0.0,0.0,0.0,0.0,0.0,0.0,0.0,0.0,0.0,0.0,0.0,-0.1,0.1,0.0,0.0,0.00012304663467454166,0.0,0.0,0.0,0.0,0.0,0.0,0.0,0.00012304663467454166,0.0,0.0,0.0,0.0,0.0,0.0,271.0,272.0,272.0,279.0,0.0,0.0,0.0,0.0,271.0,271.0,272.0,280.0,0.0,0.0,0.0,0.0,0,0,0,0,0,0,0,0,-38.013,279.568,7232.867,0,0.0,0.0,0.0,0.0,0.0,0.0,0.58,-0.41,21.77,0.0,0.0,0.0,0.0,0.0,0.0,0.0,0.0,2.0,0.0,0.0,0.0,0.0,0.0,0.0,0.0,0.0,0.0,0.0,0.0,0.0,0.0,0.0,0.0,0.0,0.0,0.0,0.0,0.0,0.0,0.0,0.0,0.0,0.0,0.0,0.0,0.0,0.0,0.0,0.0,0.0,0.0,0.0,0.0,0.0,0.0,0.0,0.0,0.0,0.0,0.0,0.0,0.0,0.0,0.0,0.0,0.0,0.0,0.0,0.0,0.0,0.0,0.0,0.0,0.0,0.0,0.0,0.0,0.0,0.0,0.0,0.0,0.0,0.0,0.0,0.0,0.0,0.0,0.0,0.0,0.0,0.0,0.0,0.0,0.0,0.0,0.0,0.0,1,0,0,1,1,53.647,0.053647
112,55634,-0.0024,0.0,0.0,0.0,1519,0,0.0,-0.0017453292493466656,0.0,-0.0017453292493466656,-0.0017453292493466656,0.006981316997386662,-0.1005564697265625,0.1580173095703125,-9.787496386718749,0.3064578125,1.1827356201171875,-9.208099584960937,0.0,0.0,0.0,0.0,0.9996308600959763,-0.00824412452319429,-0.005414051925679833,-0.02608588655100283,0.0,0.0,0.0,1.0,0.0,0.0,0.0,-0.003490658498693331,0.0,0.0,0.0,0.0,0.0,0.0,0.0,0.0,0.0,0.0,0.0,-0.1,0.1,0.0,0.0,0.00012304663467454166,0.0,0.0,0.0,0.0,0.0,0.0,0.0,0.00012304663467454166,0.0,0.0,0.0,0.0,0.0,0.0,271.0,272.0,272.0,279.0,0.0,0.0,0.0,0.0,271.0,272.0,268.0,281.0,0.0,0.0,0.0,0.0,0,0,0,0,0,0,0,0,-38.012,279.567,7232.91,0,0.0,0.0,0.0,0.0,0.0,0.0,0.58,-0.41,21.77,0.0,0.0,0.0,0.0,0.0,0.0,0.0,0.0,2.0,0.0,0.0,0.0,0.0,0.0,0.0,0.0,0.0,0.0,0.0,0.0,0.0,0.0,0.0,0.0,0.0,0.0,0.0,0.0,0.0,0.0,0.0,0.0,0.0,0.0,0.0,0.0,0.0,0.0,0.0,0.0,0.0,0.0,0.0,0.0,0.0,0.0,0.0,0.0,0.0,0.0,0.0,0.0,0.0,0.0,0.0,0.0,0.0,0.0,0.0,0.0,0.0,0.0,0.0,0.0,0.0,0.0,0.0,0.0,0.0,0.0,0.0,0.0,0.0,0.0,0.0,0.0,0.0,0.0,0.0,0.0,0.0,0.0,0.0,0.0,0.0,0.0,0.0,0.0,1,0,0,1,1,55.634,0.055633999999999996
116,57621,-0.0024,0.0,0.0,0.0,1518,0,0.0,-0.0017453292493466656,0.0,-0.005235987748039996,0.0017453292493466656,0.008726646246733328,-0.1005564697265625,0.15322890625,-9.787496386718749,0.5793968017578125,0.9241618408203125,-10.424354028320312,0.0,0.0,0.0,0.0,0.9996308600959763,-0.00824412452319429,-0.005414051925679833,-0.02608588655100283,0.0,0.0,0.0,1.0,0.0,0.0,0.0,-0.003490658498693331,0.0,0.0,0.0,0.0,0.0,0.0,0.0,0.0,0.0,0.0,0.0,-0.1,0.0,0.0,0.0,0.00012304663467454166,0.0,0.0,0.0,0.0,0.0,0.0,0.0,0.00012304663467454166,0.0,0.0,0.0,0.0,0.0,0.0,271.0,272.0,271.0,279.0,0.0,0.0,0.0,0.0,272.0,272.0,274.0,281.0,0.0,0.0,0.0,0.0,0,0,0,0,0,0,0,0,-38.011,279.566,7232.954,0,0.0,0.0,0.0,0.0,0.0,0.0,0.58,-0.41,21.77,0.0,0.0,0.0,0.0,0.0,0.0,0.0,0.0,2.0,0.0,0.0,0.0,0.0,0.0,0.0,0.0,0.0,0.0,0.0,0.0,0.0,0.0,0.0,0.0,0.0,0.0,0.0,0.0,0.0,0.0,0.0,0.0,0.0,0.0,0.0,0.0,0.0,0.0,0.0,0.0,0.0,0.0,0.0,0.0,0.0,0.0,0.0,0.0,0.0,0.0,0.0,0.0,0.0,0.0,0.0,0.0,0.0,0.0,0.0,0.0,0.0,0.0,0.0,0.0,0.0,0.0,0.0,0.0,0.0,0.0,0.0,0.0,0.0,0.0,0.0,0.0,0.0,0.0,0.0,0.0,0.0,0.0,0.0,0.0,0.0,0.0,0.0,0.0,1,0,0,1,1,57.621,0.057621
120,59608,-0.0024,0.0,0.0,0.0,1518,0,-0.0017453292493466656,0.0,0.0017453292493466656,-0.005235987748039996,0.0017453292493466656,0.01221730474542666,-0.11013327636718749,0.1388636962890625,-9.773131176757811,0.8762778076171874,1.1540052001953125,-10.481814868164061,0.0,0.0,0.0,0.0,0.9996308600959763,-0.00824412452319429,-0.005414051925679833,-0.02608588655100283,0.0,0.0,0.0,1.0,0.0,0.0,0.0,-0.003490658498693331,0.0,0.0,0.0,0.0,0.0,0.0,0.0,0.0,0.0,0.0,0.0,0.0,0.0,-0.1,0.0,0.0,0.0,0.0,0.0,0.0,0.0,0.0,0.0,0.00012304663467454166,0.0,0.0,0.0,0.0,0.0,0.0,271.0,272.0,271.0,279.0,0.0,0.0,0.0,0.0,271.0,272.0,272.0,281.0,0.0,0.0,0.0,0.0,0,0,0,0,0,0,0,0,-38.009,279.565,7232.998,0,0.0,0.0,0.0,0.0,0.0,0.0,0.58,-0.41,21.77,0.0,0.0,0.0,0.0,0.0,0.0,0.0,0.0,2.0,0.0,0.0,0.0,0.0,0.0,0.0,0.0,0.0,0.0,0.0,0.0,0.0,0.0,0.0,0.0,0.0,0.0,0.0,0.0,0.0,0.0,0.0,0.0,0.0,0.0,0.0,0.0,0.0,0.0,0.0,0.0,0.0,0.0,0.0,0.0,0.0,0.0,0.0,0.0,0.0,0.0,0.0,0.0,0.0,0.0,0.0,0.0,0.0,0.0,0.0,0.0,0.0,0.0,0.0,0.0,0.0,0.0,0.0,0.0,0.0,0.0,0.0,0.0,0.0,0.0,0.0,0.0,0.0,0.0,0.0,0.0,0.0,0.0,0.0,0.0,0.0,0.0,0.0,0.0,1,0,0,1,1,59.608000000000004,0.059607999999999994
124,61595,-0.0024,0.0,0.0,0.0,1518,0,0.0,0.0,0.003490658498693331,0.0017453292493466656,-0.003490658498693331,0.005235987748039996,-0.12449848632812499,0.12449848632812499,-9.758765966796874,0.4165910888671875,0.612915625,-10.228029492187499,0.0,0.0,0.0,0.0,0.9996308600959763,-0.00824412452319429,-0.005414051925679833,-0.02608588655100283,0.0,0.0,0.0,1.0,0.0,0.0,0.0,-0.003490658498693331,0.0,0.0,0.0,0.0,0.0,0.0,0.0,0.0,0.0,0.0,0.0,-0.1,0.0,-0.1,0.00012304663467454166,0.00012304663467454166,0.0,0.00012304663467454166,0.0,0.0,0.0,0.0,0.0,0.00012304663467454166,0.0,0.0,0.0,0.0,0.0,0.0,271.0,272.0,271.0,279.0,0.0,0.0,0.0,0.0,271.0,272.0,269.0,281.0,0.0,0.0,0.0,0.0,0,0,0,0,0,0,0,0,-38.008,279.564,7233.041,0,0.0,0.0,0.0,0.0,0.0,0.0,0.58,-0.41,21.77,0.0,0.0,0.0,0.0,0.0,0.0,0.0,0.0,2.0,0.0,0.0,0.0,0.0,0.0,0.0,0.0,0.0,0.0,0.0,0.0,0.0,0.0,0.0,0.0,0.0,0.0,0.0,0.0,0.0,0.0,0.0,0.0,0.0,0.0,0.0,0.0,0.0,0.0,0.0,0.0,0.0,0.0,0.0,0.0,0.0,0.0,0.0,0.0,0.0,0.0,0.0,0.0,0.0,0.0,0.0,0.0,0.0,0.0,0.0,0.0,0.0,0.0,0.0,0.0,0.0,0.0,0.0,0.0,0.0,0.0,0.0,0.0,0.0,0.0,0.0,0.0,0.0,0.0,0.0,0.0,0.0,0.0,0.0,0.0,0.0,0.0,0.0,0.0,1,0,0,1,1,61.595,0.061595
128,63582,-0.0024,0.0,0.0,0.0,1518,0,0.0,-0.0017453292493466656,0.003490658498693331,0.0017453292493466656,-0.0017453292493466656,0.0017453292493466656,-0.12449848632812499,0.12449848632812499,-9.758765966796874,0.16759411621093748,0.373495458984375,-10.275913525390624,0.0,0.0,0.0,0.0,0.9996308600959763,-0.00824412452319429,-0.005414051925679833,-0.02608588655100283,0.0,0.0,0.0,1.0,0.0,0.0,0.0,-0.003490658498693331,0.0,0.0,0.0,0.0,0.0,0.0,0.0,0.0,0.0,0.0,0.0,-0.1,0.1,-0.1,0.00012304663467454166,0.00012304663467454166,0.0,0.00012304663467454166,0.0,0.0,0.0,0.0,0.0,0.00012304663467454166,0.0,0.0,0.0,0.0,0.0,0.0,271.0,272.0,271.0,279.0,0.0,0.0,0.0,0.0,271.0,272.0,271.0,277.0,0.0,0.0,0.0,0.0,0,0,0,0,0,0,0,0,-38.007,279.563,7233.084,0,0.0,0.0,0.0,0.0,0.0,0.0,0.58,-0.41,21.77,0.0,0.0,0.0,0.0,0.0,0.0,0.0,0.0,2.0,0.0,0.0,0.0,0.0,0.0,0.0,0.0,0.0,0.0,0.0,0.0,0.0,0.0,0.0,0.0,0.0,0.0,0.0,0.0,0.0,0.0,0.0,0.0,0.0,0.0,0.0,0.0,0.0,0.0,0.0,0.0,0.0,0.0,0.0,0.0,0.0,0.0,0.0,0.0,0.0,0.0,0.0,0.0,0.0,0.0,0.0,0.0,0.0,0.0,0.0,0.0,0.0,0.0,0.0,0.0,0.0,0.0,0.0,0.0,0.0,0.0,0.0,0.0,0.0,0.0,0.0,0.0,0.0,0.0,0.0,0.0,0.0,0.0,0.0,0.0,0.0,0.0,0.0,0.0,1,0,0,1,1,63.582,0.063582
132,65568,-0.0024,0.0,0.0,0.0,1518,0,0.0017453292493466656,-0.0017453292493466656,0.003490658498693331,0.008726646246733328,-0.0017453292493466656,0.0017453292493466656,-0.1197100830078125,0.13407529296874998,-9.763554370117188,-0.201112939453125,0.0143652099609375,-9.4618849609375,0.0,0.0,0.0,0.0,0.9996308600959763,-0.00824412452319429,-0.005414051925679833,-0.02608588655100283,0.0,0.0,0.17453292493466654,1.0,0.0,0.0,0.0,-0.003490658498693331,0.0,0.0,-0.17453292493466654,0.0,0.0,0.0,0.0,0.0,0.0,0.0,0.0,-0.1,0.0,-0.1,0.00012304663467454166,0.00012304663467454166,0.0,0.00012304663467454166,0.0,0.0,0.0,0.0,0.00012304663467454166,0.00012304663467454166,0.0,0.0,0.0,0.0,0.0,0.0,271.0,272.0,271.0,279.0,0.0,0.0,0.0,0.0,271.0,272.0,269.0,281.0,0.0,0.0,0.0,0.0,0,0,0,0,0,0,0,0,-38.006,279.563,7233.128,0,0.0,0.0,0.0,0.0,0.0,0.0,0.58,-0.41,21.77,0.0,0.0,0.0,0.0,0.0,0.0,0.0,0.0,2.0,0.0,0.0,0.0,0.0,0.0,0.0,0.0,0.0,0.0,0.0,0.0,0.0,0.0,0.0,0.0,0.0,0.0,0.0,0.0,0.0,0.0,0.0,0.0,0.0,0.0,0.0,0.0,0.0,0.0,0.0,0.0,0.0,0.0,0.0,0.0,0.0,0.0,0.0,0.0,0.0,0.0,0.0,0.0,0.0,0.0,0.0,0.0,0.0,0.0,0.0,0.0,0.0,0.0,0.0,0.0,0.0,0.0,0.0,0.0,0.0,0.0,0.0,0.0,0.0,0.0,0.0,0.0,0.0,0.0,0.0,0.0,0.0,0.0,0.0,0.0,0.0,0.0,0.0,0.0,1,0,0,1,1,65.568,0.065568
136,67555,-0.0024,0.0,0.0,0.0,1518,0,0.0017453292493466656,-0.0017453292493466656,0.0017453292493466656,0.005235987748039996,0.0017453292493466656,0.0017453292493466656,-0.1197100830078125,0.143652099609375,-9.763554370117188,-0.2537853759765625,-0.105344873046875,-9.639055883789062,0.0,0.0,0.0,0.0,0.9996308600959763,-0.00824412452319429,-0.005414051925679833,-0.02608588655100283,0.0,0.0,0.17453292493466654,1.0,0.0,0.0,0.0,-0.003490658498693331,0.0,0.0,-0.17453292493466654,0.0,0.0,0.0,0.0,0.0,0.0,0.0,0.0,-0.1,0.0,0.0,0.00012304663467454166,0.00012304663467454166,0.0,0.0,0.0,0.0,0.0,0.0,0.00012304663467454166,0.00012304663467454166,0.0,0.0,0.0,0.0,0.0,0.0,271.0,272.0,271.0,280.0,0.0,0.0,0.0,0.0,271.0,272.0,272.0,281.0,0.0,0.0,0.0,0.0,0,0,0,0,0,0,0,0,-38.005,279.562,7233.172,0,0.0,0.0,0.0,0.0,0.0,0.0,0.58,-0.41,21.77,0.0,0.0,0.0,0.0,0.0,0.0,0.0,0.0,2.0,0.0,0.0,0.0,0.0,0.0,0.0,0.0,0.0,0.0,0.0,0.0,0.0,0.0,0.0,0.0,0.0,0.0,0.0,0.0,0.0,0.0,0.0,0.0,0.0,0.0,0.0,0.0,0.0,0.0,0.0,0.0,0.0,0.0,0.0,0.0,0.0,0.0,0.0,0.0,0.0,0.0,0.0,0.0,0.0,0.0,0.0,0.0,0.0,0.0,0.0,0.0,0.0,0.0,0.0,0.0,0.0,0.0,0.0,0.0,0.0,0.0,0.0,0.0,0.0,0.0,0.0,0.0,0.0,0.0,0.0,0.0,0.0,0.0,0.0,0.0,0.0,0.0,0.0,0.0,1,0,0,1,1,67.555,0.06755499999999999
140,69543,-0.0024,0.0,0.0,0.0,1518,0,0.0017453292493466656,0.0017453292493466656,0.0,0.008726646246733328,0.005235987748039996,0.003490658498693331,-0.1149216796875,0.1580173095703125,-9.773131176757811,-0.6655880615234374,-0.17238251953125,-8.892064965820312,0.0,0.0,0.0,0.0,0.9996308600959763,-0.00824412452319429,-0.005414051925679833,-0.02608588655100283,0.0,0.0,0.0,1.0,0.0,0.0,0.0,-0.003490658498693331,0.0,0.0,-0.17453292493466654,0.0,0.0,0.0,0.0,0.0,0.0,0.0,0.0,-0.1,0.0,0.0,0.00012304663467454166,0.00012304663467454166,0.0,0.0,0.0,0.0,0.0,0.0,0.00012304663467454166,0.00012304663467454166,0.0,0.0,0.0,0.0,0.0,0.0,271.0,272.0,271.0,280.0,0.0,0.0,0.0,0.0,271.0,271.0,272.0,277.0,0.0,0.0,0.0,0.0,0,0,0,0,0,0,0,0,-38.004,279.561,7233.216,0,0.0,0.0,0.0,0.0,0.0,0.0,0.58,-0.41,21.77,0.0,0.0,0.0,0.0,0.0,0.0,0.0,0.0,2.0,0.0,0.0,0.0,0.0,0.0,0.0,0.0,0.0,0.0,0.0,0.0,0.0,0.0,0.0,0.0,0.0,0.0,0.0,0.0,0.0,0.0,0.0,0.0,0.0,0.0,0.0,0.0,0.0,0.0,0.0,0.0,0.0,0.0,0.0,0.0,0.0,0.0,0.0,0.0,0.0,0.0,0.0,0.0,0.0,0.0,0.0,0.0,0.0,0.0,0.0,0.0,0.0,0.0,0.0,0.0,0.0,0.0,0.0,0.0,0.0,0.0,0.0,0.0,0.0,0.0,0.0,0.0,0.0,0.0,0.0,0.0,0.0,0.0,0.0,0.0,0.0,0.0,0.0,0.0,1,0,0,1,1,69.543,0.069543
144,71529,-0.0024,0.0,0.0,0.0,1518,0,-0.0017453292493466656,-0.0017453292493466656,0.0,-0.005235987748039996,-0.010471975496079993,0.003490658498693331,-0.1197100830078125,0.1580173095703125,-9.777919580078125,-0.2154781494140625,0.38307226562499996,-9.279925634765624,0.0,0.0,0.0,0.0,0.9996308600959763,-0.00824412452319429,-0.005414051925679833,-0.02608588655100283,0.0,0.0,0.0,1.0,0.0,0.0,0.0,-0.003490658498693331,0.0,0.0,0.0,0.0,0.0,0.0,0.0,0.0,0.0,0.0,0.0,0.0,0.0,0.0,0.0,0.0,0.0,0.0,0.0,0.0,0.0,0.0,0.00012304663467454166,0.00012304663467454166,0.0,0.0,0.0,0.0,0.0,0.0,271.0,272.0,271.0,280.0,0.0,0.0,0.0,0.0,271.0,272.0,271.0,281.0,0.0,0.0,0.0,0.0,0,0,0,0,0,0,0,0,-38.002,279.56,7233.259,0,0.0,0.0,0.0,0.0,0.0,0.0,0.58,-0.41,21.77,0.0,0.0,0.0,0.0,0.0,0.0,0.0,0.0,2.0,0.0,0.0,0.0,0.0,0.0,0.0,0.0,0.0,0.0,0.0,0.0,0.0,0.0,0.0,0.0,0.0,0.0,0.0,0.0,0.0,0.0,0.0,0.0,0.0,0.0,0.0,0.0,0.0,0.0,0.0,0.0,0.0,0.0,0.0,0.0,0.0,0.0,0.0,0.0,0.0,0.0,0.0,0.0,0.0,0.0,0.0,0.0,0.0,0.0,0.0,0.0,0.0,0.0,0.0,0.0,0.0,0.0,0.0,0.0,0.0,0.0,0.0,0.0,0.0,0.0,0.0,0.0,0.0,0.0,0.0,0.0,0.0,0.0,0.0,0.0,0.0,0.0,0.0,0.0,1,0,0,1,1,71.529,0.071529
148,73516,-0.0024,0.0,0.0,0.0,1518,0,-0.0017453292493466656,0.0,-0.0017453292493466656,-0.003490658498693331,-0.003490658498693331,-0.0017453292493466656,-0.12449848632812499,0.15322890625,-9.777919580078125,0.1867477294921875,0.699106884765625,-9.797073193359374,0.0,0.0,0.0,0.0,0.9996308600959763,-0.00824412452319429,-0.005414051925679833,-0.02608588655100283,0.0,0.0,0.0,1.0,0.0,0.0,0.0,-0.003490658498693331,0.0,0.0,0.0,0.0,0.0,0.0,0.0,0.0,0.0,0.0,0.0,0.0,0.0,0.0,0.0,0.0,0.0,0.0,0.0,0.0,0.0,0.0,0.0,0.00012304663467454166,0.0,0.0,0.0,0.0,0.0,0.0,271.0,272.0,271.0,280.0,0.0,0.0,0.0,0.0,272.0,274.0,272.0,275.0,0.0,0.0,0.0,0.0,0,0,0,0,0,0,0,0,-38.001,279.559,7233.302,0,0.0,0.0,0.0,0.0,0.0,0.0,0.58,-0.41,21.77,0.0,0.0,0.0,0.0,0.0,0.0,0.0,0.0,2.0,0.0,0.0,0.0,0.0,0.0,0.0,0.0,0.0,0.0,0.0,0.0,0.0,0.0,0.0,0.0,0.0,0.0,0.0,0.0,0.0,0.0,0.0,0.0,0.0,0.0,0.0,0.0,0.0,0.0,0.0,0.0,0.0,0.0,0.0,0.0,0.0,0.0,0.0,0.0,0.0,0.0,0.0,0.0,0.0,0.0,0.0,0.0,0.0,0.0,0.0,0.0,0.0,0.0,0.0,0.0,0.0,0.0,0.0,0.0,0.0,0.0,0.0,0.0,0.0,0.0,0.0,0.0,0.0,0.0,0.0,0.0,0.0,0.0,0.0,0.0,0.0,0.0,0.0,0.0,1,0,0,1,1,73.516,0.073516
152,75503,-0.0024,0.0,0.0012,0.0,1518,0,-0.003490658498693331,-0.0017453292493466656,0.0017453292493466656,-0.010471975496079993,-0.006981316997386662,0.008726646246733328,-0.1197100830078125,0.1484405029296875,-9.782707983398437,0.6416460449218749,1.0917559570312498,-10.601524951171875,0.0,0.0,0.0,0.0,0.9996308600959763,-0.00824412452319429,-0.005414051925679833,-0.02608588655100283,-0.17453292493466654,0.0,0.0,1.0,0.0,0.0,0.0,-0.003490658498693331,0.0,0.0,0.0,0.0,0.0,0.0,0.0,0.0,0.0,0.0,0.0,0.0,0.0,0.0,0.0,0.0,0.0,0.0,0.0,0.0,0.0,0.0,0.0,0.00012304663467454166,0.0,0.0,0.0,0.0,0.0,0.0,271.0,272.0,271.0,280.0,0.0,0.0,0.0,0.0,271.0,272.0,269.0,281.0,0.0,0.0,0.0,0.0,0,0,0,0,0,0,0,0,-38.0,279.559,7233.346,0,0.0,0.0,0.0,0.0,0.0,0.0,0.58,-0.41,21.77,0.0,0.0,0.0,0.0,0.0,0.0,0.0,0.0,2.0,0.0,0.0,0.0,0.0,0.0,0.0,0.0,0.0,0.0,0.0,0.0,0.0,0.0,0.0,0.0,0.0,0.0,0.0,0.0,0.0,0.0,0.0,0.0,0.0,0.0,0.0,0.0,0.0,0.0,0.0,0.0,0.0,0.0,0.0,0.0,0.0,0.0,0.0,0.0,0.0,0.0,0.0,0.0,0.0,0.0,0.0,0.0,0.0,0.0,0.0,0.0,0.0,0.0,0.0,0.0,0.0,0.0,0.0,0.0,0.0,0.0,0.0,0.0,0.0,0.0,0.0,0.0,0.0,0.0,0.0,0.0,0.0,0.0,0.0,0.0,0.0,0.0,0.0,0.0,1,0,0,1,1,75.503,0.075503
156,77490,-0.0024,0.0,0.0012,0.0,1529,0,-0.003490658498693331,0.0,0.0017453292493466656,-0.005235987748039996,0.0017453292493466656,0.005235987748039996,-0.12449848632812499,0.13407529296874998,-9.782707983398437,0.9002198242187499,0.0047884033203125,-11.156979736328124,0.0,0.0,0.0,0.0,0.9996308600959763,-0.00824412452319429,-0.005414051925679833,-0.02608588655100283,-0.17453292493466654,0.0,0.0,1.0,0.0,0.0,0.0,-0.003490658498693331,0.0,0.0,0.0,0.0,0.0,0.0,0.0,0.0,0.0,0.0,0.0,0.0,0.0,0.0,0.0,0.0,0.0,0.0,0.0,0.0,0.0,0.0,0.0,0.00012304663467454166,0.0,0.0,0.0,0.0,0.0,0.0,271.0,272.0,271.0,280.0,0.0,0.0,0.0,0.0,271.0,271.0,272.0,280.0,0.0,0.0,0.0,0.0,0,0,0,0,0,0,0,0,-37.999,279.558,7233.389,0,0.0,0.0,0.0,0.0,0.0,0.0,0.58,-0.41,21.77,0.0,0.0,0.0,0.0,0.0,0.0,0.0,0.0,2.0,0.0,0.0,0.0,0.0,0.0,0.0,0.0,0.0,0.0,0.0,0.0,0.0,0.0,0.0,0.0,0.0,0.0,0.0,0.0,0.0,0.0,0.0,0.0,0.0,0.0,0.0,0.0,0.0,0.0,0.0,0.0,0.0,0.0,0.0,0.0,0.0,0.0,0.0,0.0,0.0,0.0,0.0,0.0,0.0,0.0,0.0,0.0,0.0,0.0,0.0,0.0,0.0,0.0,0.0,0.0,0.0,0.0,0.0,0.0,0.0,0.0,0.0,0.0,0.0,0.0,0.0,0.0,0.0,0.0,0.0,0.0,0.0,0.0,0.0,0.0,0.0,0.0,0.0,0.0,1,0,0,1,1,77.49,0.07749
160,79477,-0.0024,0.0,0.0012,0.0,1529,0,-0.003490658498693331,0.003490658498693331,0.003490658498693331,0.003490658498693331,0.008726646246733328,0.005235987748039996,-0.1292868896484375,0.1149216796875,-9.763554370117188,-0.05746083984375,1.1013327636718748,-10.955866796875,0.0,0.0,0.0,0.0,0.9996308600959763,-0.00824412452319429,-0.005414051925679833,-0.02608588655100283,-0.17453292493466654,0.17453292493466654,0.0,1.0,0.0,0.0,0.0,-0.003490658498693331,0.0,0.0017453292493466656,0.0,0.0,0.0,0.0,0.0,0.0,0.0,0.0,0.0,0.0,-0.1,-0.1,0.0,0.0,0.0,0.0,0.0,0.0,0.0,0.0,0.0,0.00012304663467454166,0.0,0.0,0.0,0.0,0.0,0.0,271.0,272.0,271.0,280.0,0.0,0.0,0.0,0.0,271.0,271.0,271.0,274.0,0.0,0.0,0.0,0.0,0,0,0,0,0,0,0,0,-37.998,279.557,7233.432,0,0.0,0.0,0.0,0.0,0.0,0.0,0.58,-0.41,21.77,0.0,0.0,0.0,0.0,0.0,0.0,0.0,0.0,2.0,0.0,0.0,0.0,0.0,0.0,0.0,0.0,0.0,0.0,0.0,0.0,0.0,0.0,0.0,0.0,0.0,0.0,0.0,0.0,0.0,0.0,0.0,0.0,0.0,0.0,0.0,0.0,0.0,0.0,0.0,0.0,0.0,0.0,0.0,0.0,0.0,0.0,0.0,0.0,0.0,0.0,0.0,0.0,0.0,0.0,0.0,0.0,0.0,0.0,0.0,0.0,0.0,0.0,0.0,0.0,0.0,0.0,0.0,0.0,0.0,0.0,0.0,0.0,0.0,0.0,0.0,0.0,0.0,0.0,0.0,0.0,0.0,0.0,0.0,0.0,0.0,0.0,0.0,0.0,1,0,0,1,1,79.477,0.07947699999999999
164,81464,-0.0024,0.0,0.0012,0.0,1529,0,-0.0017453292493466656,0.0017453292493466656,0.0017453292493466656,0.005235987748039996,0.005235987748039996,-0.006981316997386662,-0.1292868896484375,0.1149216796875,-9.744400756835937,-0.6512228515624999,-0.7852981445312499,-10.352527978515624,0.0,0.0,0.0,0.0,0.9996308600959763,-0.00824412452319429,-0.005414051925679833,-0.02608588655100283,-0.17453292493466654,0.17453292493466654,0.0,1.0,0.0,0.0,0.0,-0.003490658498693331,0.0,0.0017453292493466656,0.0,0.0,0.0,0.0,0.0,0.0,0.0,0.0,0.0,0.0,0.0,0.0,0.0,0.0,0.0,0.0,0.0,0.0,0.0,0.0,0.0,0.00012304663467454166,0.0,0.0,0.0,0.0,0.0,0.0,271.0,272.0,271.0,280.0,0.0,0.0,0.0,0.0,271.0,272.0,269.0,281.0,0.0,0.0,0.0,0.0,0,0,0,0,0,0,0,0,-37.997,279.556,7233.476,0,0.0,0.0,0.0,0.0,0.0,0.0,0.58,-0.41,21.77,0.0,0.0,0.0,0.0,0.0,0.0,0.0,0.0,2.0,0.0,0.0,0.0,0.0,0.0,0.0,0.0,0.0,0.0,0.0,0.0,0.0,0.0,0.0,0.0,0.0,0.0,0.0,0.0,0.0,0.0,0.0,0.0,0.0,0.0,0.0,0.0,0.0,0.0,0.0,0.0,0.0,0.0,0.0,0.0,0.0,0.0,0.0,0.0,0.0,0.0,0.0,0.0,0.0,0.0,0.0,0.0,0.0,0.0,0.0,0.0,0.0,0.0,0.0,0.0,0.0,0.0,0.0,0.0,0.0,0.0,0.0,0.0,0.0,0.0,0.0,0.0,0.0,0.0,0.0,0.0,0.0,0.0,0.0,0.0,0.0,0.0,0.0,0.0,1,0,0,1,1,81.464,0.081464
168,83451,-0.0024,0.0,0.0012,0.0,1529,0,0.0017453292493466656,0.003490658498693331,0.0,0.010471975496079993,0.0017453292493466656,-0.010471975496079993,-0.12449848632812499,0.1197100830078125,-9.739612353515625,-0.6272808349609375,-0.488417138671875,-9.399635717773437,0.0,0.0,0.0,0.0,0.9996308600959763,-0.00824412452319429,-0.005414051925679833,-0.02608588655100283,-0.17453292493466654,0.17453292493466654,0.0,1.0,0.0,0.0,0.0,-0.003490658498693331,0.0,0.0017453292493466656,-0.17453292493466654,0.0,0.0,0.0,0.0,0.0,0.0,0.0,0.0,-0.1,-0.1,0.0,0.00012304663467454166,0.00012304663467454166,0.00012304663467454166,0.0,0.0,0.0,0.0,0.0,0.0,0.00012304663467454166,0.0,0.0,0.0,0.0,0.0,0.0,271.0,272.0,271.0,280.0,0.0,0.0,0.0,0.0,272.0,271.0,272.0,280.0,0.0,0.0,0.0,0.0,0,0,0,0,0,0,0,0,-37.995,279.555,7233.52,0,0.0,0.0,0.0,0.0,0.0,0.0,0.58,-0.41,21.77,0.0,0.0,0.0,0.0,0.0,0.0,0.0,0.0,2.0,0.0,0.0,0.0,0.0,0.0,0.0,0.0,0.0,0.0,0.0,0.0,0.0,0.0,0.0,0.0,0.0,0.0,0.0,0.0,0.0,0.0,0.0,0.0,0.0,0.0,0.0,0.0,0.0,0.0,0.0,0.0,0.0,0.0,0.0,0.0,0.0,0.0,0.0,0.0,0.0,0.0,0.0,0.0,0.0,0.0,0.0,0.0,0.0,0.0,0.0,0.0,0.0,0.0,0.0,0.0,0.0,0.0,0.0,0.0,0.0,0.0,0.0,0.0,0.0,0.0,0.0,0.0,0.0,0.0,0.0,0.0,0.0,0.0,0.0,0.0,0.0,0.0,0.0,0.0,1,0,0,1,1,83.45100000000001,0.083451
172,85438,-0.0024,0.0,0.0012,0.0,1529,0,0.0017453292493466656,0.003490658498693331,0.0,0.006981316997386662,0.010471975496079993,-0.003490658498693331,-0.1149216796875,0.13407529296874998,-9.749189160156249,-0.699106884765625,-0.6081272216796875,-9.107543115234375,0.0005291005291005291,0.0,0.0,0.0,0.9996308600959763,-0.00824412452319429,-0.005414051925679833,-0.02608588655100283,0.0,0.17453292493466654,0.0,1.0,0.0,0.0,0.0,-0.003490658498693331,0.0,0.0017453292493466656,-0.17453292493466654,-0.17453292493466654,0.0,0.0,0.0,0.0,0.0,0.0,0.0,-0.1,-0.1,0.0,0.0002460932693490833,0.00012304663467454166,0.00012304663467454166,0.0,0.0,0.0,0.0,0.0,0.0,0.00012304663467454166,0.0,0.0,0.0,0.0,0.0,0.0,271.0,272.0,271.0,280.0,0.0,0.0,0.0,0.0,271.0,272.0,269.0,280.0,0.0,0.0,0.0,0.0,0,0,0,0,0,0,0,0,-37.994,279.554,7233.564,0,0.0,0.0,0.0,0.0,0.0,0.0,0.58,-0.41,21.77,0.0,0.0,0.0,0.0,0.0,0.0,0.0,0.0,2.0,0.0,0.0,0.0,0.0,0.0,0.0,0.0,0.0,0.0,0.0,0.0,0.0,0.0,0.0,0.0,0.0,0.0,0.0,0.0,0.0,0.0,0.0,0.0,0.0,0.0,0.0,0.0,0.0,0.0,0.0,0.0,0.0,0.0,0.0,0.0,0.0,0.0,0.0,0.0,0.0,0.0,0.0,0.0,0.0,0.0,0.0,0.0,0.0,0.0,0.0,0.0,0.0,0.0,0.0,0.0,0.0,0.0,0.0,0.0,0.0,0.0,0.0,0.0,0.0,0.0,0.0,0.0,0.0,0.0,0.0,0.0,0.0,0.0,0.0,0.0,0.0,0.0,0.0,0.0,1,0,0,1,1,85.438,0.085438
176,87424,-0.0024,0.0,0.0012,0.0,1529,0,0.005235987748039996,0.005235987748039996,-0.0017453292493466656,0.005235987748039996,0.003490658498693331,-0.0017453292493466656,-0.11013327636718749,0.15322890625,-9.763554370117188,-0.38307226562499996,-0.5267243652343749,-9.064447485351561,0.0005291005291005291,0.0,0.0,0.0,0.9996308600959763,-0.00824412452319429,-0.005414051925679833,-0.02608588655100283,0.0,0.17453292493466654,0.0,1.0,0.0,0.0,0.0,-0.003490658498693331,0.0,0.0017453292493466656,-0.17453292493466654,-0.17453292493466654,0.0,0.0,0.0,0.0,0.0,0.0,0.0,-0.2,-0.1,0.1,0.0002460932693490833,0.00012304663467454166,0.00012304663467454166,0.0,0.0,0.0,0.0,0.0,0.00012304663467454166,0.00012304663467454166,0.0,0.0,0.0,0.0,0.0,0.0,271.0,272.0,271.0,279.0,0.0,0.0,0.0,0.0,272.0,272.0,272.0,281.0,0.0,0.0,0.0,0.0,0,0,0,-100,0,0,0,0,-37.993,279.554,7233.607,0,0.0,0.0,0.0,0.0,0.0,0.0,0.58,-0.41,21.77,0.0,0.0,0.0,0.0,0.0,0.0,0.0,0.0,2.0,0.0,0.0,0.0,0.0,0.0,0.0,0.0,0.0,0.0,0.0,0.0,0.0,0.0,0.0,0.0,0.0,0.0,0.0,0.0,0.0,0.0,0.0,0.0,0.0,0.0,0.0,0.0,0.0,0.0,0.0,0.0,0.0,0.0,0.0,0.0,0.0,0.0,0.0,0.0,0.0,0.0,0.0,0.0,0.0,0.0,0.0,0.0,0.0,0.0,0.0,0.0,0.0,0.0,0.0,0.0,0.0,0.0,0.0,0.0,0.0,0.0,0.0,0.0,0.0,0.0,0.0,0.0,0.0,0.0,0.0,0.0,0.0,0.0,0.0,0.0,0.0,0.0,0.0,0.0,1,0,0,1,1,87.424,0.087424
180,89411,-0.0024,0.0,0.0012,0.0,1529,0,0.0017453292493466656,0.0017453292493466656,-0.0017453292493466656,-0.003490658498693331,0.003490658498693331,-0.003490658498693331,-0.11013327636718749,0.16280571289062498,-9.763554370117188,-0.12449848632812499,-0.3447650390625,-9.471461767578125,0.0,0.0,0.0,0.0,0.9996308600959763,-0.00824412452319429,-0.005414051925679833,-0.02608588655100283,0.0,0.17453292493466654,0.0,1.0,0.0,0.0,0.0,-0.003490658498693331,0.0,0.0017453292493466656,-0.17453292493466654,0.0,0.0,0.0,0.0,0.0,0.0,0.0,0.0,-0.1,-0.1,0.1,0.00012304663467454166,0.00012304663467454166,0.00012304663467454166,0.0,0.0,0.0,0.0,0.0,0.00012304663467454166,0.00012304663467454166,0.0,0.0,0.0,0.0,0.0,0.0,271.0,272.0,271.0,279.0,0.0,0.0,0.0,0.0,271.0,271.0,272.0,277.0,0.0,0.0,0.0,0.0,0,0,0,0,0,0,0,0,-37.992,279.553,7233.65,0,0.0,0.0,0.0,0.0,0.0,0.0,0.58,-0.41,21.77,0.0,0.0,0.0,0.0,0.0,0.0,0.0,0.0,2.0,0.0,0.0,0.0,0.0,0.0,0.0,0.0,0.0,0.0,0.0,0.0,0.0,0.0,0.0,0.0,0.0,0.0,0.0,0.0,0.0,0.0,0.0,0.0,0.0,0.0,0.0,0.0,0.0,0.0,0.0,0.0,0.0,0.0,0.0,0.0,0.0,0.0,0.0,0.0,0.0,0.0,0.0,0.0,0.0,0.0,0.0,0.0,0.0,0.0,0.0,0.0,0.0,0.0,0.0,0.0,0.0,0.0,0.0,0.0,0.0,0.0,0.0,0.0,0.0,0.0,0.0,0.0,0.0,0.0,0.0,0.0,0.0,0.0,0.0,0.0,0.0,0.0,0.0,0.0,1,0,0,1,1,89.411,0.08941099999999999
184,91398,-0.0024,0.0,0.0012,0.0,1529,0,0.0017453292493466656,0.0,0.0,-0.003490658498693331,-0.006981316997386662,0.003490658498693331,-0.105344873046875,0.1771709228515625,-9.7683427734375,0.1197100830078125,-0.09576806640624999,-9.514557397460937,0.0,0.0,0.0,0.0,0.9996308600959763,-0.00824412452319429,-0.005414051925679833,-0.02608588655100283,0.0,0.17453292493466654,0.0,1.0,0.0,0.0,0.0,-0.003490658498693331,0.0,0.0017453292493466656,-0.17453292493466654,0.0,0.0,0.0,0.0,0.0,0.0,0.0,0.0,-0.1,0.0,0.0,0.00012304663467454166,0.00012304663467454166,0.0,0.0,0.0,0.0,0.0,0.0,0.00012304663467454166,0.00012304663467454166,0.0,0.0,0.0,0.0,0.0,0.0,271.0,272.0,271.0,279.0,0.0,0.0,0.0,0.0,271.0,272.0,271.0,281.0,0.0,0.0,0.0,0.0,0,0,0,0,0,0,0,0,-37.991,279.552,7233.694,0,0.0,0.0,0.0,0.0,0.0,0.0,0.58,-0.41,21.77,0.0,0.0,0.0,0.0,0.0,0.0,0.0,0.0,2.0,0.0,0.0,0.0,0.0,0.0,0.0,0.0,0.0,0.0,0.0,0.0,0.0,0.0,0.0,0.0,0.0,0.0,0.0,0.0,0.0,0.0,0.0,0.0,0.0,0.0,0.0,0.0,0.0,0.0,0.0,0.0,0.0,0.0,0.0,0.0,0.0,0.0,0.0,0.0,0.0,0.0,0.0,0.0,0.0,0.0,0.0,0.0,0.0,0.0,0.0,0.0,0.0,0.0,0.0,0.0,0.0,0.0,0.0,0.0,0.0,0.0,0.0,0.0,0.0,0.0,0.0,0.0,0.0,0.0,0.0,0.0,0.0,0.0,0.0,0.0,0.0,0.0,0.0,0.0,1,0,0,1,1,91.398,0.091398
188,93385,-0.0024,0.0,0.0012,0.0,1529,0,-0.0017453292493466656,-0.003490658498693331,0.0,-0.010471975496079993,-0.006981316997386662,0.003490658498693331,-0.1149216796875,0.1771709228515625,-9.773131176757811,0.8379705810546875,0.5315127685546874,-9.935936889648437,0.0,0.0,0.0,0.0,0.9996308600959763,-0.00824412452319429,-0.005414051925679833,-0.02608588655100283,0.0,0.0,0.0,1.0,0.0,0.0,0.0,-0.003490658498693331,0.0,0.0017453292493466656,0.0,0.0,0.0,0.0,0.0,0.0,0.0,0.0,0.0,0.0,0.1,0.0,0.0,0.00012304663467454166,0.0,0.0,0.0,0.0,0.0,0.0,0.00012304663467454166,0.00012304663467454166,0.0,0.0,0.0,0.0,0.0,0.0,271.0,272.0,271.0,279.0,0.0,0.0,0.0,0.0,271.0,272.0,272.0,278.0,0.0,0.0,0.0,0.0,0,0,0,0,0,0,0,0,-37.99,279.551,7233.738,0,0.0,0.0,0.0,0.0,0.0,0.0,0.58,-0.41,21.77,0.0,0.0,0.0,0.0,0.0,0.0,0.0,0.0,2.0,0.0,0.0,0.0,0.0,0.0,0.0,0.0,0.0,0.0,0.0,0.0,0.0,0.0,0.0,0.0,0.0,0.0,0.0,0.0,0.0,0.0,0.0,0.0,0.0,0.0,0.0,0.0,0.0,0.0,0.0,0.0,0.0,0.0,0.0,0.0,0.0,0.0,0.0,0.0,0.0,0.0,0.0,0.0,0.0,0.0,0.0,0.0,0.0,0.0,0.0,0.0,0.0,0.0,0.0,0.0,0.0,0.0,0.0,0.0,0.0,0.0,0.0,0.0,0.0,0.0,0.0,0.0,0.0,0.0,0.0,0.0,0.0,0.0,0.0,0.0,0.0,0.0,0.0,0.0,1,0,0,1,1,93.385,0.093385
192,95372,-0.0024,0.0,0.0012,0.0,1529,0,0.0,-0.003490658498693331,0.0017453292493466656,-0.005235987748039996,0.0017453292493466656,0.003490658498693331,-0.1197100830078125,0.17238251953125,-9.7683427734375,0.7038952880859375,0.51714755859375,-10.663774194335938,0.0,0.0,0.0,0.0,0.9996308600959763,-0.00824412452319429,-0.005414051925679833,-0.02608588655100283,0.0,0.0,0.0,1.0,0.0,0.0,0.0,-0.003490658498693331,0.0,0.0017453292493466656,0.0,0.0,0.0,0.0,0.0,0.0,0.0,0.0,0.0,-0.1,0.1,0.0,0.0,0.00012304663467454166,0.0,0.00012304663467454166,0.0,0.0,0.0,0.0,0.00012304663467454166,0.00012304663467454166,0.0,0.0,0.0,0.0,0.0,0.0,271.0,272.0,271.0,279.0,0.0,0.0,0.0,0.0,271.0,272.0,269.0,278.0,0.0,0.0,0.0,0.0,0,0,0,0,0,0,0,0,-37.988,279.55,7233.781,0,0.0,0.0,0.0,0.0,0.0,0.0,0.58,-0.41,21.77,0.0,0.0,0.0,0.0,0.0,0.0,0.0,0.0,2.0,0.0,0.0,0.0,0.0,0.0,0.0,0.0,0.0,0.0,0.0,0.0,0.0,0.0,0.0,0.0,0.0,0.0,0.0,0.0,0.0,0.0,0.0,0.0,0.0,0.0,0.0,0.0,0.0,0.0,0.0,0.0,0.0,0.0,0.0,0.0,0.0,0.0,0.0,0.0,0.0,0.0,0.0,0.0,0.0,0.0,0.0,0.0,0.0,0.0,0.0,0.0,0.0,0.0,0.0,0.0,0.0,0.0,0.0,0.0,0.0,0.0,0.0,0.0,0.0,0.0,0.0,0.0,0.0,0.0,0.0,0.0,0.0,0.0,0.0,0.0,0.0,0.0,0.0,0.0,1,0,0,1,1,95.372,0.095372
