loopIteration,timeUs,rcCommand[0],rcCommand[1],rcCommand[2],rcCommand[3],vbatLatest,amperageLatest,gyroADC[0],gyroADC[1],gyroADC[2],gyroADCafterRpm[0],gyroADCafterRpm[1],gyroADCafterRpm[2],accSmooth[0],accSmooth[1],accSmooth[2],accADCafterRpm[0],accADCafterRpm[1],accADCafterRpm[2],motor[0],motor[1],motor[2],motor[3],quat[0],quat[1],quat[2],quat[3],alpha[0],alpha[1],alpha[2],quatSp[0],quatSp[1],quatSp[2],quatSp[3],gyroSp[0],gyroSp[1],gyroSp[2],alphaSp[0],alphaSp[1],alphaSp[2],spfSp[0],spfSp[1],spfSp[2],dv[0],dv[1],dv[2],dv[3],dv[4],dv[5],u[0],u[1],u[2],u[3],u[4],u[5],u[6],u[7],u_state[0],u_state[1],u_state[2],u_state[3],u_state[4],u_state[5],u_state[6],u_state[7],omega[0],omega[1],omega[2],omega[3],omega[4],omega[5],omega[6],omega[7],omegaUnfiltered[0],omegaUnfiltered[1],omegaUnfiltered[2],omegaUnfiltered[3],omegaUnfiltered[4],omegaUnfiltered[5],omegaUnfiltered[6],omegaUnfiltered[7],omega_dot[0],omega_dot[1],omega_dot[2],omega_dot[3],omega_dot[4],omega_dot[5],omega_dot[6],omega_dot[7],pos[0],pos[1],pos[2],extTime,extPos[0],extPos[1],extPos[2],posSp[0],posSp[1],posSp[2],vel[0],vel[1],vel[2],extVel[0],extVel[1],extVel[2],velSp[0],velSp[1],velSp[2],accSp[0],accSp[1],accSp[2],extQuat[0],extQuat[1],extQuat[2],extQuat[3],ekf_pos[0],ekf_pos[1],ekf_pos[2],ekf_vel[0],ekf_vel[1],ekf_vel[2],ekf_quat[0],ekf_quat[1],ekf_quat[2],ekf_quat[3],ekf_acc_b[0],ekf_acc_b[1],ekf_acc_b[2],ekf_gyro_b[0],ekf_gyro_b[1],ekf_gyro_b[2],motor_0_rls_x[0],motor_0_rls_x[1],motor_0_rls_x[2],motor_0_rls_x[3],motor_1_rls_x[0],motor_1_rls_x[1],motor_1_rls_x[2],motor_1_rls_x[3],motor_2_rls_x[0],motor_2_rls_x[1],motor_2_rls_x[2],motor_2_rls_x[3],motor_3_rls_x[0],motor_3_rls_x[1],motor_3_rls_x[2],motor_3_rls_x[3],imu_rls_x[0],imu_rls_x[1],imu_rls_x[2],fx_x_rls_x[0],fx_x_rls_x[1],fx_x_rls_x[2],fx_x_rls_x[3],fx_y_rls_x[0],fx_y_rls_x[1],fx_y_rls_x[2],fx_y_rls_x[3],fx_z_rls_x[0],fx_z_rls_x[1],fx_z_rls_x[2],fx_z_rls_x[3],fx_p_rls_x[0],fx_p_rls_x[1],fx_p_rls_x[2],fx_p_rls_x[3],fx_p_rls_x[4],fx_p_rls_x[5],fx_p_rls_x[6],fx_p_rls_x[7],fx_q_rls_x[0],fx_q_rls_x[1],fx_q_rls_x[2],fx_q_rls_x[3],fx_q_rls_x[4],fx_q_rls_x[5],fx_q_rls_x[6],fx_q_rls_x[7],fx_r_rls_x[0],fx_r_rls_x[1],fx_r_rls_x[2],fx_r_rls_x[3],fx_r_rls_x[4],fx_r_rls_x[5],fx_r_rls_x[6],fx_r_rls_x[7],learnerGains[0],learnerGains[1],learnerGains[2],learnerGains[3],flightModeFlags,stateFlags,failsafePhase,rxSignalReceived,rxFlightChannelsValid,timeMs,timeS
0,0,-0.005,0.0,0.0012,0.0,1605,0,0.0,-0.003490658498693331,0.0,-0.010471975496079993,-0.010471975496079993,0.003490658498693331,-0.507570751953125,0.7613561279296874,-9.720458740234374,-0.239420166015625,0.469263525390625,-9.447519750976562,0.0,0.0,0.0,0.0,0.47409868340100897,0.005906238464377999,-0.04798818752307124,0.8791682047496001,0.0,0.17453292493466654,0.0,1.0,0.0,0.0,0.0,-0.006981316997386662,0.0,0.0017453292493466656,-0.17453292493466654,0.0,0.0,0.0,0.0,0.0,0.0,0.0,0.0,-0.1,0.1,0.1,0.0,0.00012304663467454166,0.0,0.0,0.0,0.0,0.0,0.0,0.00012304663467454166,0.0002460932693490833,0.0,0.0,0.0,0.0,0.0,0.0,283.0,286.0,283.0,291.0,0.0,0.0,0.0,0.0,283.0,286.0,286.0,293.0,0.0,0.0,0.0,0.0,0,0,0,0,0,0,0,0,2910.392,3543.599,7207.226,0,0.0,0.0,0.0,0.0,0.0,0.0,2.38,10.43,22.97,0.0,0.0,0.0,0.0,0.0,0.0,0.0,0.0,2.0,0.0,0.0,0.0,0.0,0.0,0.0,0.0,0.0,0.0,0.0,0.0,0.0,0.0,0.0,0.0,0.0,0.0,0.0,0.0,0.0,0.0,0.0,0.0,0.0,0.0,0.0,0.0,0.0,0.0,0.0,0.0,0.0,0.0,0.0,0.0,0.0,0.0,0.0,0.0,0.0,0.0,0.0,0.0,0.0,0.0,0.0,0.0,0.0,0.0,0.0,0.0,0.0,0.0,0.0,0.0,0.0,0.0,0.0,0.0,0.0,0.0,0.0,0.0,0.0,0.0,0.0,0.0,0.0,0.0,0.0,0.0,0.0,0.0,0.0,0.0,0.0,0.0,0.0,0.0,0,0,0,0,,0.0,0.0
4,1988,-0.005,0.0,0.0012,0.0,1588,0,0.0,-0.003490658498693331,0.0017453292493466656,-0.005235987748039996,0.006981316997386662,0.006981316997386662,-0.507570751953125,0.7661445312499999,-9.730035546875,-0.3447650390625,0.5746083984375,-10.395623608398436,0.0,0.0005291005291005291,0.0,0.0,0.47409868340100897,0.005906238464377999,-0.04798818752307124,0.8791682047496001,0.0,0.0,0.0,1.0,0.0,0.0,0.0,-0.006981316997386662,0.0,0.0017453292493466656,-0.17453292493466654,0.17453292493466654,0.0,0.0,0.0,0.0,0.0,0.0,0.0,-0.2,0.1,0.0,0.0,0.0002460932693490833,0.0,0.0,0.0,0.0,0.0,0.0,0.00012304663467454166,0.0002460932693490833,0.0,0.0,0.0,0.0,0.0,0.0,283.0,286.0,283.0,291.0,0.0,0.0,0.0,0.0,283.0,286.0,283.0,290.0,0.0,0.0,0.0,0.0,0,0,0,0,0,0,0,0,2910.398,3543.62,7207.272,0,0.0,0.0,0.0,0.0,0.0,0.0,2.38,10.43,22.97,0.0,0.0,0.0,0.0,0.0,0.0,0.0,0.0,2.0,0.0,0.0,0.0,0.0,0.0,0.0,0.0,0.0,0.0,0.0,0.0,0.0,0.0,0.0,0.0,0.0,0.0,0.0,0.0,0.0,0.0,0.0,0.0,0.0,0.0,0.0,0.0,0.0,0.0,0.0,0.0,0.0,0.0,0.0,0.0,0.0,0.0,0.0,0.0,0.0,0.0,0.0,0.0,0.0,0.0,0.0,0.0,0.0,0.0,0.0,0.0,0.0,0.0,0.0,0.0,0.0,0.0,0.0,0.0,0.0,0.0,0.0,0.0,0.0,0.0,0.0,0.0,0.0,0.0,0.0,0.0,0.0,0.0,0.0,0.0,0.0,0.0,0.0,0.0,1,0,0,1,1,1.988,0.0019879999999999997
8,3974,-0.005,0.0,0.0012,0.0,1588,0,0.0,-0.008726646246733328,0.003490658498693331,0.0,-0.01570796324411999,0.006981316997386662,-0.5123591552734374,0.7805097412109374,-9.730035546875,0.0909796630859375,0.7422025146484375,-9.974244116210937,0.0,0.0005291005291005291,0.0,0.0005291005291005291,0.47409868340100897,0.005906238464377999,-0.04798818752307124,0.8791682047496001,0.0,0.0,0.0,1.0,0.0,0.0,0.0,-0.006981316997386662,0.0,0.0017453292493466656,-0.17453292493466654,0.17453292493466654,0.0,0.0,0.0,0.0,0.0,0.0,0.0,-0.2,0.2,0.0,0.00012304663467454166,0.00036913990402362494,0.0,0.0002460932693490833,0.0,0.0,0.0,0.0,0.00012304663467454166,0.0002460932693490833,0.0,0.0,0.0,0.0,0.0,0.0,283.0,286.0,283.0,291.0,0.0,0.0,0.0,0.0,283.0,286.0,283.0,292.0,0.0,0.0,0.0,0.0,0,0,0,0,0,0,0,0,2910.402,3543.641,7207.318,0,0.0,0.0,0.0,0.0,0.0,0.0,2.38,10.43,22.97,0.0,0.0,0.0,0.0,0.0,0.0,0.0,0.0,2.0,0.0,0.0,0.0,0.0,0.0,0.0,0.0,0.0,0.0,0.0,0.0,0.0,0.0,0.0,0.0,0.0,0.0,0.0,0.0,0.0,0.0,0.0,0.0,0.0,0.0,0.0,0.0,0.0,0.0,0.0,0.0,0.0,0.0,0.0,0.0,0.0,0.0,0.0,0.0,0.0,0.0,0.0,0.0,0.0,0.0,0.0,0.0,0.0,0.0,0.0,0.0,0.0,0.0,0.0,0.0,0.0,0.0,0.0,0.0,0.0,0.0,0.0,0.0,0.0,0.0,0.0,0.0,0.0,0.0,0.0,0.0,0.0,0.0,0.0,0.0,0.0,0.0,0.0,0.0,1,0,0,1,1,3.974,0.003974
12,5962,-0.005,0.0,0.0012,0.0,1588,228,0.0017453292493466656,-0.008726646246733328,0.005235987748039996,0.0,-0.013962633994773325,0.005235987748039996,-0.51714755859375,0.7805097412109374,-9.730035546875,-0.699106884765625,0.143652099609375,-9.428366137695312,0.0005291005291005291,0.0005291005291005291,0.0,0.0005291005291005291,0.47409868340100897,0.005906238464377999,-0.04798818752307124,0.8791682047496001,0.0,-0.17453292493466654,0.17453292493466654,1.0,0.0,0.0,0.0,-0.006981316997386662,0.0,0.0017453292493466656,-0.17453292493466654,0.17453292493466654,-0.17453292493466654,0.0,0.0,0.0,0.0,0.0,0.0,-0.2,0.2,-0.1,0.00012304663467454166,0.00036913990402362494,0.0,0.0002460932693490833,0.0,0.0,0.0,0.0,0.00012304663467454166,0.0002460932693490833,0.0,0.00012304663467454166,0.0,0.0,0.0,0.0,283.0,286.0,283.0,291.0,0.0,0.0,0.0,0.0,281.0,286.0,284.0,290.0,0.0,0.0,0.0,0.0,0,0,0,0,0,0,0,0,2910.407,3543.662,7207.364,0,0.0,0.0,0.0,0.0,0.0,0.0,2.38,10.43,22.97,0.0,0.0,0.0,0.0,0.0,0.0,0.0,0.0,2.0,0.0,0.0,0.0,0.0,0.0,0.0,0.0,0.0,0.0,0.0,0.0,0.0,0.0,0.0,0.0,0.0,0.0,0.0,0.0,0.0,0.0,0.0,0.0,0.0,0.0,0.0,0.0,0.0,0.0,0.0,0.0,0.0,0.0,0.0,0.0,0.0,0.0,0.0,0.0,0.0,0.0,0.0,0.0,0.0,0.0,0.0,0.0,0.0,0.0,0.0,0.0,0.0,0.0,0.0,0.0,0.0,0.0,0.0,0.0,0.0,0.0,0.0,0.0,0.0,0.0,0.0,0.0,0.0,0.0,0.0,0.0,0.0,0.0,0.0,0.0,0.0,0.0,0.0,0.0,1,0,0,1,1,5.962,0.005961999999999999
16,7949,-0.005,0.0,0.0012,0.0,1588,228,0.0,-0.01221730474542666,0.005235987748039996,-0.008726646246733328,-0.022689280241506654,0.0017453292493466656,-0.5123591552734374,0.7757213378906249,-9.715670336914062,-1.4413093994140624,0.1005564697265625,-9.849745629882811,0.0,0.0005291005291005291,0.0,0.0005291005291005291,0.47409868340100897,0.005906238464377999,-0.04798818752307124,0.8791682047496001,0.0,-0.17453292493466654,0.17453292493466654,1.0,0.0,0.0,0.0,-0.006981316997386662,0.0,0.0017453292493466656,-0.17453292493466654,0.3490658498693331,0.0,0.0,0.0,0.0,0.0,0.0,0.0,-0.1,0.3,-0.1,0.00012304663467454166,0.00036913990402362494,0.0,0.00036913990402362494,0.0,0.0,0.0,0.0,0.00012304663467454166,0.0002460932693490833,0.0,0.00012304663467454166,0.0,0.0,0.0,0.0,283.0,286.0,283.0,291.0,0.0,0.0,0.0,0.0,281.0,286.0,281.0,292.0,0.0,0.0,0.0,0.0,0,0,0,0,0,0,0,0,2910.412,3543.682,7207.41,0,0.0,0.0,0.0,0.0,0.0,0.0,2.38,10.43,22.97,0.0,0.0,0.0,0.0,0.0,0.0,0.0,0.0,2.0,0.0,0.0,0.0,0.0,0.0,0.0,0.0,0.0,0.0,0.0,0.0,0.0,0.0,0.0,0.0,0.0,0.0,0.0,0.0,0.0,0.0,0.0,0.0,0.0,0.0,0.0,0.0,0.0,0.0,0.0,0.0,0.0,0.0,0.0,0.0,0.0,0.0,0.0,0.0,0.0,0.0,0.0,0.0,0.0,0.0,0.0,0.0,0.0,0.0,0.0,0.0,0.0,0.0,0.0,0.0,0.0,0.0,0.0,0.0,0.0,0.0,0.0,0.0,0.0,0.0,0.0,0.0,0.0,0.0,0.0,0.0,0.0,0.0,0.0,0.0,0.0,0.0,0.0,0.0,1,0,0,1,1,7.949,0.007949
20,9936,-0.005,0.0,0.0012,0.0,1588,228,0.0,-0.006981316997386662,0.0017453292493466656,-0.006981316997386662,-0.008726646246733328,0.0,-0.51714755859375,0.7757213378906249,-9.710881933593749,-0.9002198242187499,0.6416460449218749,-10.060435375976562,0.0,0.0005291005291005291,0.0,0.0,0.47409868340100897,0.005906238464377999,-0.04798818752307124,0.8791682047496001,0.0,-0.17453292493466654,0.17453292493466654,1.0,0.0,0.0,0.0,-0.006981316997386662,0.0,0.0017453292493466656,-0.17453292493466654,0.17453292493466654,0.0,0.0,0.0,0.0,0.0,0.0,0.0,-0.1,0.1,0.0,0.00012304663467454166,0.0002460932693490833,0.0,0.00012304663467454166,0.0,0.0,0.0,0.0,0.00012304663467454166,0.0002460932693490833,0.0,0.00012304663467454166,0.0,0.0,0.0,0.0,283.0,286.0,283.0,291.0,0.0,0.0,0.0,0.0,284.0,286.0,284.0,292.0,0.0,0.0,0.0,0.0,0,0,0,0,0,0,0,0,2910.417,3543.703,7207.456,0,0.0,0.0,0.0,0.0,0.0,0.0,2.38,10.43,22.97,0.0,0.0,0.0,0.0,0.0,0.0,0.0,0.0,2.0,0.0,0.0,0.0,0.0,0.0,0.0,0.0,0.0,0.0,0.0,0.0,0.0,0.0,0.0,0.0,0.0,0.0,0.0,0.0,0.0,0.0,0.0,0.0,0.0,0.0,0.0,0.0,0.0,0.0,0.0,0.0,0.0,0.0,0.0,0.0,0.0,0.0,0.0,0.0,0.0,0.0,0.0,0.0,0.0,0.0,0.0,0.0,0.0,0.0,0.0,0.0,0.0,0.0,0.0,0.0,0.0,0.0,0.0,0.0,0.0,0.0,0.0,0.0,0.0,0.0,0.0,0.0,0.0,0.0,0.0,0.0,0.0,0.0,0.0,0.0,0.0,0.0,0.0,0.0,1,0,0,1,1,9.936,0.009936
24,11923,-0.005,0.0,0.0012,0.0,1588,228,0.0017453292493466656,-0.005235987748039996,0.0017453292493466656,0.005235987748039996,-0.005235987748039996,0.003490658498693331,-0.5219359619140624,0.7948749511718749,-9.715670336914062,-0.27293898925781246,0.8714894042968749,-9.868899243164062,0.0,0.0005291005291005291,0.0,0.0,0.47409868340100897,0.005906238464377999,-0.04798818752307124,0.8791682047496001,0.0,-0.17453292493466654,0.17453292493466654,1.0,0.0,0.0,0.0,-0.006981316997386662,0.0,0.0017453292493466656,-0.17453292493466654,0.17453292493466654,0.0,0.0,0.0,0.0,0.0,0.0,0.0,-0.2,0.1,0.0,0.00012304663467454166,0.0002460932693490833,0.0,0.00012304663467454166,0.0,0.0,0.0,0.0,0.00012304663467454166,0.0002460932693490833,0.0,0.00012304663467454166,0.0,0.0,0.0,0.0,283.0,286.0,283.0,291.0,0.0,0.0,0.0,0.0,283.0,284.0,284.0,293.0,0.0,0.0,0.0,0.0,0,0,0,0,0,0,0,0,2910.422,3543.724,7207.502,0,0.0,0.0,0.0,0.0,0.0,0.0,2.38,10.43,22.97,0.0,0.0,0.0,0.0,0.0,0.0,0.0,0.0,2.0,0.0,0.0,0.0,0.0,0.0,0.0,0.0,0.0,0.0,0.0,0.0,0.0,0.0,0.0,0.0,0.0,0.0,0.0,0.0,0.0,0.0,0.0,0.0,0.0,0.0,0.0,0.0,0.0,0.0,0.0,0.0,0.0,0.0,0.0,0.0,0.0,0.0,0.0,0.0,0.0,0.0,0.0,0.0,0.0,0.0,0.0,0.0,0.0,0.0,0.0,0.0,0.0,0.0,0.0,0.0,0.0,0.0,0.0,0.0,0.0,0.0,0.0,0.0,0.0,0.0,0.0,0.0,0.0,0.0,0.0,0.0,0.0,0.0,0.0,0.0,0.0,0.0,0.0,0.0,1,0,0,1,1,11.923,0.011923
28,13910,-0.005,0.0,0.0012,0.0,1588,228,0.003490658498693331,-0.006981316997386662,0.0,0.008726646246733328,-0.006981316997386662,0.0017453292493466656,-0.51714755859375,0.8044517578125,-9.720458740234374,-0.51714755859375,1.1013327636718748,-10.026916552734374,0.0,0.0005291005291005291,0.0,0.0,0.47409868340100897,0.005906238464377999,-0.04798818752307124,0.8791682047496001,0.0,-0.17453292493466654,0.0,1.0,0.0,0.0,0.0,-0.006981316997386662,0.0,0.0017453292493466656,-0.17453292493466654,0.17453292493466654,0.0,0.0,0.0,0.0,0.0,0.0,0.0,-0.2,0.2,0.0,0.00012304663467454166,0.00036913990402362494,0.0,0.00012304663467454166,0.0,0.0,0.0,0.0,0.00012304663467454166,0.0002460932693490833,0.0,0.00012304663467454166,0.0,0.0,0.0,0.0,283.0,286.0,283.0,291.0,0.0,0.0,0.0,0.0,281.0,287.0,281.0,293.0,0.0,0.0,0.0,0.0,0,0,0,0,0,0,0,0,2910.427,3543.745,7207.548,0,0.0,0.0,0.0,0.0,0.0,0.0,2.38,10.43,22.97,0.0,0.0,0.0,0.0,0.0,0.0,0.0,0.0,2.0,0.0,0.0,0.0,0.0,0.0,0.0,0.0,0.0,0.0,0.0,0.0,0.0,0.0,0.0,0.0,0.0,0.0,0.0,0.0,0.0,0.0,0.0,0.0,0.0,0.0,0.0,0.0,0.0,0.0,0.0,0.0,0.0,0.0,0.0,0.0,0.0,0.0,0.0,0.0,0.0,0.0,0.0,0.0,0.0,0.0,0.0,0.0,0.0,0.0,0.0,0.0,0.0,0.0,0.0,0.0,0.0,0.0,0.0,0.0,0.0,0.0,0.0,0.0,0.0,0.0,0.0,0.0,0.0,0.0,0.0,0.0,0.0,0.0,0.0,0.0,0.0,0.0,0.0,0.0,1,0,0,1,1,13.91,0.013909999999999999
32,15897,-0.005,0.0,0.0012,0.0,1588,228,0.0017453292493466656,-0.005235987748039996,-0.003490658498693331,0.005235987748039996,-0.01919862174281332,-0.005235987748039996,-0.51714755859375,0.7948749511718749,-9.720458740234374,-0.6177040283203125,0.8714894042968749,-9.289502441406249,0.0,0.0005291005291005291,0.0,0.0,0.47409868340100897,0.005906238464377999,-0.04798818752307124,0.8791682047496001,0.0,-0.17453292493466654,0.0,1.0,0.0,0.0,0.0,-0.006981316997386662,0.0,0.0017453292493466656,-0.17453292493466654,0.17453292493466654,0.17453292493466654,0.0,0.0,0.0,0.0,0.0,0.0,-0.2,0.1,0.1,0.0,0.00036913990402362494,0.0,0.0,0.0,0.0,0.0,0.0,0.00012304663467454166,0.0002460932693490833,0.0,0.00012304663467454166,0.0,0.0,0.0,0.0,283.0,286.0,283.0,291.0,0.0,0.0,0.0,0.0,286.0,286.0,284.0,293.0,0.0,0.0,0.0,0.0,0,0,0,0,0,0,0,0,2910.432,3543.766,7207.594,0,0.0,0.0,0.0,0.0,0.0,0.0,2.38,10.43,22.97,0.0,0.0,0.0,0.0,0.0,0.0,0.0,0.0,2.0,0.0,0.0,0.0,0.0,0.0,0.0,0.0,0.0,0.0,0.0,0.0,0.0,0.0,0.0,0.0,0.0,0.0,0.0,0.0,0.0,0.0,0.0,0.0,0.0,0.0,0.0,0.0,0.0,0.0,0.0,0.0,0.0,0.0,0.0,0.0,0.0,0.0,0.0,0.0,0.0,0.0,0.0,0.0,0.0,0.0,0.0,0.0,0.0,0.0,0.0,0.0,0.0,0.0,0.0,0.0,0.0,0.0,0.0,0.0,0.0,0.0,0.0,0.0,0.0,0.0,0.0,0.0,0.0,0.0,0.0,0.0,0.0,0.0,0.0,0.0,0.0,0.0,0.0,0.0,1,0,0,1,1,15.897,0.015896999999999998
36,17884,-0.005,0.0,0.0012,0.0,1588,228,0.003490658498693331,-0.006981316997386662,-0.005235987748039996,0.003490658498693331,-0.008726646246733328,-0.01221730474542666,-0.5123591552734374,0.7757213378906249,-9.715670336914062,-0.8475473876953125,0.7613561279296874,-9.658209497070311,0.0,0.0005291005291005291,0.0,0.0,0.47409868340100897,0.005906238464377999,-0.04798818752307124,0.8791682047496001,0.0,-0.17453292493466654,0.0,1.0,0.0,0.0,0.0,-0.006981316997386662,0.0,0.0017453292493466656,-0.17453292493466654,0.17453292493466654,0.17453292493466654,0.0,0.0,0.0,0.0,0.0,0.0,-0.2,0.1,0.1,0.0,0.00036913990402362494,0.0,0.0,0.0,0.0,0.0,0.0,0.00012304663467454166,0.0002460932693490833,0.0,0.00012304663467454166,0.0,0.0,0.0,0.0,283.0,286.0,283.0,292.0,0.0,0.0,0.0,0.0,283.0,287.0,284.0,290.0,0.0,0.0,0.0,0.0,0,0,0,0,0,0,0,0,2910.432,3543.766,7207.594,0,0.0,0.0,0.0,0.0,0.0,0.0,2.38,10.43,22.97,0.0,0.0,0.0,0.0,0.0,0.0,0.0,0.0,2.0,0.0,0.0,0.0,0.0,0.0,0.0,0.0,0.0,0.0,0.0,0.0,0.0,0.0,0.0,0.0,0.0,0.0,0.0,0.0,0.0,0.0,0.0,0.0,0.0,0.0,0.0,0.0,0.0,0.0,0.0,0.0,0.0,0.0,0.0,0.0,0.0,0.0,0.0,0.0,0.0,0.0,0.0,0.0,0.0,0.0,0.0,0.0,0.0,0.0,0.0,0.0,0.0,0.0,0.0,0.0,0.0,0.0,0.0,0.0,0.0,0.0,0.0,0.0,0.0,0.0,0.0,0.0,0.0,0.0,0.0,0.0,0.0,0.0,0.0,0.0,0.0,0.0,0.0,0.0,1,0,0,1,1,17.884,0.017884
40,19872,-0.005,0.0,0.0012,0.0,1588,228,0.0017453292493466656,-0.005235987748039996,-0.005235987748039996,0.006981316997386662,-0.008726646246733328,-0.003490658498693331,-0.507570751953125,0.7709329345703124,-9.706093530273437,-0.7565677246093749,0.8044517578125,-9.658209497070311,0.0,0.0005291005291005291,0.0,0.0,0.47409868340100897,0.005906238464377999,-0.04798818752307124,0.8791682047496001,0.0,0.0,-0.17453292493466654,1.0,0.0,0.0,0.0,-0.006981316997386662,0.0,0.0017453292493466656,-0.17453292493466654,0.17453292493466654,0.17453292493466654,0.0,0.0,0.0,0.0,0.0,0.0,-0.2,0.1,0.1,0.0,0.00036913990402362494,0.0,0.0,0.0,0.0,0.0,0.0,0.00012304663467454166,0.0002460932693490833,0.0,0.00012304663467454166,0.0,0.0,0.0,0.0,283.0,286.0,283.0,292.0,0.0,0.0,0.0,0.0,283.0,284.0,281.0,295.0,0.0,0.0,0.0,0.0,0,0,0,0,0,0,0,0,2910.437,3543.789,7207.644,0,0.0,0.0,0.0,0.0,0.0,0.0,2.38,10.43,22.97,0.0,0.0,0.0,0.0,0.0,0.0,0.0,0.0,2.0,0.0,0.0,0.0,0.0,0.0,0.0,0.0,0.0,0.0,0.0,0.0,0.0,0.0,0.0,0.0,0.0,0.0,0.0,0.0,0.0,0.0,0.0,0.0,0.0,0.0,0.0,0.0,0.0,0.0,0.0,0.0,0.0,0.0,0.0,0.0,0.0,0.0,0.0,0.0,0.0,0.0,0.0,0.0,0.0,0.0,0.0,0.0,0.0,0.0,0.0,0.0,0.0,0.0,0.0,0.0,0.0,0.0,0.0,0.0,0.0,0.0,0.0,0.0,0.0,0.0,0.0,0.0,0.0,0.0,0.0,0.0,0.0,0.0,0.0,0.0,0.0,0.0,0.0,0.0,1,0,0,1,1,19.872,0.019872
44,21859,-0.005,0.0,0.0012,0.0,1599,228,0.003490658498693331,-0.006981316997386662,-0.003490658498693331,0.006981316997386662,-0.017453292493466655,-0.0017453292493466656,-0.507570751953125,0.7852981445312499,-9.725247143554688,-0.7661445312499999,0.70868369140625,-8.595183959960938,0.0,0.0005291005291005291,0.0,0.0,0.47409868340100897,0.005906238464377999,-0.04798818752307124,0.8791682047496001,0.0,0.0,-0.17453292493466654,1.0,0.0,0.0,0.0,-0.006981316997386662,0.0,0.0017453292493466656,-0.17453292493466654,0.17453292493466654,0.17453292493466654,0.0,0.0,0.0,0.0,0.0,0.0,-0.2,0.2,0.1,0.00012304663467454166,0.00036913990402362494,0.0,0.0,0.0,0.0,0.0,0.0,0.00012304663467454166,0.0002460932693490833,0.0,0.00012304663467454166,0.0,0.0,0.0,0.0,283.0,286.0,283.0,292.0,0.0,0.0,0.0,0.0,283.0,284.0,284.0,292.0,0.0,0.0,0.0,0.0,0,0,0,0,0,0,0,0,2910.442,3543.81,7207.69,0,0.0,0.0,0.0,0.0,0.0,0.0,2.38,10.43,22.97,0.0,0.0,0.0,0.0,0.0,0.0,0.0,0.0,2.0,0.0,0.0,0.0,0.0,0.0,0.0,0.0,0.0,0.0,0.0,0.0,0.0,0.0,0.0,0.0,0.0,0.0,0.0,0.0,0.0,0.0,0.0,0.0,0.0,0.0,0.0,0.0,0.0,0.0,0.0,0.0,0.0,0.0,0.0,0.0,0.0,0.0,0.0,0.0,0.0,0.0,0.0,0.0,0.0,0.0,0.0,0.0,0.0,0.0,0.0,0.0,0.0,0.0,0.0,0.0,0.0,0.0,0.0,0.0,0.0,0.0,0.0,0.0,0.0,0.0,0.0,0.0,0.0,0.0,0.0,0.0,0.0,0.0,0.0,0.0,0.0,0.0,0.0,0.0,1,0,0,1,1,21.859,0.021859
48,23846,-0.005,0.0,0.0012,0.0,1599,228,0.0017453292493466656,-0.0017453292493466656,-0.0017453292493466656,0.005235987748039996,0.013962633994773325,-0.0017453292493466656,-0.5027823486328125,0.7996633544921875,-9.744400756835937,-0.5458779785156249,0.70868369140625,-9.141061938476563,0.0,0.0005291005291005291,0.0,0.0,0.47409868340100897,0.005906238464377999,-0.04798818752307124,0.8791682047496001,0.0,0.0,-0.17453292493466654,1.0,0.0,0.0,0.0,-0.006981316997386662,0.0,0.0017453292493466656,-0.17453292493466654,0.0,0.0,0.0,0.0,0.0,0.0,0.0,0.0,-0.2,0.0,0.1,0.00012304663467454166,0.0002460932693490833,0.0,0.0,0.0,0.0,0.0,0.0,0.00012304663467454166,0.0002460932693490833,0.0,0.00012304663467454166,0.0,0.0,0.0,0.0,283.0,286.0,283.0,292.0,0.0,0.0,0.0,0.0,283.0,286.0,281.0,290.0,0.0,0.0,0.0,0.0,0,0,0,0,0,0,0,0,2910.446,3543.83,7207.736,0,0.0,0.0,0.0,0.0,0.0,0.0,2.38,10.43,22.97,0.0,0.0,0.0,0.0,0.0,0.0,0.0,0.0,2.0,0.0,0.0,0.0,0.0,0.0,0.0,0.0,0.0,0.0,0.0,0.0,0.0,0.0,0.0,0.0,0.0,0.0,0.0,0.0,0.0,0.0,0.0,0.0,0.0,0.0,0.0,0.0,0.0,0.0,0.0,0.0,0.0,0.0,0.0,0.0,0.0,0.0,0.0,0.0,0.0,0.0,0.0,0.0,0.0,0.0,0.0,0.0,0.0,0.0,0.0,0.0,0.0,0.0,0.0,0.0,0.0,0.0,0.0,0.0,0.0,0.0,0.0,0.0,0.0,0.0,0.0,0.0,0.0,0.0,0.0,0.0,0.0,0.0,0.0,0.0,0.0,0.0,0.0,0.0,1,0,0,1,1,23.846,0.023846
52,25833,-0.005,0.0,0.0012,0.0,1599,157,0.0,0.0,0.0,0.0,0.006981316997386662,0.005235987748039996,-0.5123591552734374,0.7900865478515624,-9.739612353515625,0.047884033203124995,0.8379705810546875,-9.255983618164063,0.0,0.0,0.0,0.0,0.47409868340100897,0.005906238464377999,-0.04798818752307124,0.8791682047496001,0.0,0.0,-0.17453292493466654,1.0,0.0,0.0,0.0,-0.006981316997386662,0.0,0.0017453292493466656,-0.17453292493466654,0.0,0.0,0.0,0.0,0.0,0.0,0.0,0.0,-0.2,0.0,0.0,0.00012304663467454166,0.00012304663467454166,0.0,0.0,0.0,0.0,0.0,0.0,0.00012304663467454166,0.0002460932693490833,0.0,0.00012304663467454166,0.0,0.0,0.0,0.0,283.0,286.0,283.0,292.0,0.0,0.0,0.0,0.0,283.0,284.0,286.0,292.0,0.0,0.0,0.0,0.0,0,0,0,0,0,0,0,0,2910.452,3543.851,7207.781,0,0.0,0.0,0.0,0.0,0.0,0.0,2.38,10.43,22.97,0.0,0.0,0.0,0.0,0.0,0.0,0.0,0.0,2.0,0.0,0.0,0.0,0.0,0.0,0.0,0.0,0.0,0.0,0.0,0.0,0.0,0.0,0.0,0.0,0.0,0.0,0.0,0.0,0.0,0.0,0.0,0.0,0.0,0.0,0.0,0.0,0.0,0.0,0.0,0.0,0.0,0.0,0.0,0.0,0.0,0.0,0.0,0.0,0.0,0.0,0.0,0.0,0.0,0.0,0.0,0.0,0.0,0.0,0.0,0.0,0.0,0.0,0.0,0.0,0.0,0.0,0.0,0.0,0.0,0.0,0.0,0.0,0.0,0.0,0.0,0.0,0.0,0.0,0.0,0.0,0.0,0.0,0.0,0.0,0.0,0.0,0.0,0.0,1,0,0,1,1,25.833000000000002,0.025833
56,27820,-0.005,0.0,0.0012,0.0,1599,157,0.0,0.0,0.0,-0.003490658498693331,0.005235987748039996,-0.0017453292493466656,-0.5219359619140624,0.7757213378906249,-9.730035546875,-0.19153613281249998,0.833182177734375,-9.543287817382812,0.0,0.0,0.0,0.0,0.47409868340100897,0.005906238464377999,-0.04798818752307124,0.8791682047496001,0.0,0.17453292493466654,0.0,1.0,0.0,0.0,0.0,-0.006981316997386662,0.0,0.0017453292493466656,-0.17453292493466654,0.0,0.0,0.0,0.0,0.0,0.0,0.0,0.0,-0.1,0.0,0.0,0.00012304663467454166,0.00012304663467454166,0.0,0.0,0.0,0.0,0.0,0.0,0.00012304663467454166,0.0002460932693490833,0.0,0.00012304663467454166,0.0,0.0,0.0,0.0,283.0,286.0,283.0,292.0,0.0,0.0,0.0,0.0,283.0,287.0,284.0,295.0,0.0,0.0,0.0,0.0,0,0,0,0,0,0,0,0,2910.456,3543.872,7207.828,0,0.0,0.0,0.0,0.0,0.0,0.0,2.38,10.43,22.97,0.0,0.0,0.0,0.0,0.0,0.0,0.0,0.0,2.0,0.0,0.0,0.0,0.0,0.0,0.0,0.0,0.0,0.0,0.0,0.0,0.0,0.0,0.0,0.0,0.0,0.0,0.0,0.0,0.0,0.0,0.0,0.0,0.0,0.0,0.0,0.0,0.0,0.0,0.0,0.0,0.0,0.0,0.0,0.0,0.0,0.0,0.0,0.0,0.0,0.0,0.0,0.0,0.0,0.0,0.0,0.0,0.0,0.0,0.0,0.0,0.0,0.0,0.0,0.0,0.0,0.0,0.0,0.0,0.0,0.0,0.0,0.0,0.0,0.0,0.0,0.0,0.0,0.0,0.0,0.0,0.0,0.0,0.0,0.0,0.0,0.0,0.0,0.0,1,0,0,1,1,27.82,0.027819999999999998
60,29807,-0.005,0.0,0.0012,0.0,1599,157,0.0017453292493466656,-0.003490658498693331,0.0017453292493466656,0.0017453292493466656,-0.008726646246733328,0.0,-0.5219359619140624,0.7661445312499999,-9.720458740234374,-1.1061211669921875,0.5889736083984375,-10.1131078125,0.0,0.0005291005291005291,0.0,0.0,0.47409868340100897,0.005906238464377999,-0.04798818752307124,0.8791682047496001,0.0,0.17453292493466654,0.0,1.0,0.0,0.0,0.0,-0.006981316997386662,0.0,0.0017453292493466656,-0.17453292493466654,0.0,0.0,0.0,0.0,0.0,0.0,0.0,0.0,-0.2,0.1,0.0,0.00012304663467454166,0.0002460932693490833,0.0,0.00012304663467454166,0.0,0.0,0.0,0.0,0.00012304663467454166,0.0002460932693490833,0.0,0.00012304663467454166,0.0,0.0,0.0,0.0,283.0,286.0,283.0,292.0,0.0,0.0,0.0,0.0,281.0,286.0,281.0,290.0,0.0,0.0,0.0,0.0,0,0,0,0,0,0,0,0,2910.461,3543.894,7207.874,0,0.0,0.0,0.0,0.0,0.0,0.0,2.38,10.43,22.97,0.0,0.0,0.0,0.0,0.0,0.0,0.0,0.0,2.0,0.0,0.0,0.0,0.0,0.0,0.0,0.0,0.0,0.0,0.0,0.0,0.0,0.0,0.0,0.0,0.0,0.0,0.0,0.0,0.0,0.0,0.0,0.0,0.0,0.0,0.0,0.0,0.0,0.0,0.0,0.0,0.0,0.0,0.0,0.0,0.0,0.0,0.0,0.0,0.0,0.0,0.0,0.0,0.0,0.0,0.0,0.0,0.0,0.0,0.0,0.0,0.0,0.0,0.0,0.0,0.0,0.0,0.0,0.0,0.0,0.0,0.0,0.0,0.0,0.0,0.0,0.0,0.0,0.0,0.0,0.0,0.0,0.0,0.0,0.0,0.0,0.0,0.0,0.0,1,0,0,1,1,29.807000000000002,0.029807
64,31795,-0.005,0.0,0.0012,0.0,1599,157,0.0017453292493466656,-0.005235987748039996,0.0017453292493466656,0.005235987748039996,-0.008726646246733328,-0.006981316997386662,-0.5315127685546874,0.7852981445312499,-9.734823950195311,-0.70868369140625,0.4070142822265625,-9.054870678710937,0.0,0.0005291005291005291,0.0,0.0,0.47409868340100897,0.005906238464377999,-0.04798818752307124,0.8791682047496001,0.0,0.17453292493466654,0.0,1.0,0.0,0.0,0.0,-0.006981316997386662,0.0,0.0017453292493466656,-0.17453292493466654,0.17453292493466654,0.0,0.0,0.0,0.0,0.0,0.0,0.0,-0.2,0.1,0.0,0.00012304663467454166,0.0002460932693490833,0.0,0.00012304663467454166,0.0,0.0,0.0,0.0,0.00012304663467454166,0.0002460932693490833,0.0,0.00012304663467454166,0.0,0.0,0.0,0.0,283.0,286.0,283.0,292.0,0.0,0.0,0.0,0.0,283.0,284.0,284.0,292.0,0.0,0.0,0.0,0.0,0,0,0,0,0,0,0,0,2910.466,3543.914,7207.92,0,0.0,0.0,0.0,0.0,0.0,0.0,2.38,10.43,22.97,0.0,0.0,0.0,0.0,0.0,0.0,0.0,0.0,2.0,0.0,0.0,0.0,0.0,0.0,0.0,0.0,0.0,0.0,0.0,0.0,0.0,0.0,0.0,0.0,0.0,0.0,0.0,0.0,0.0,0.0,0.0,0.0,0.0,0.0,0.0,0.0,0.0,0.0,0.0,0.0,0.0,0.0,0.0,0.0,0.0,0.0,0.0,0.0,0.0,0.0,0.0,0.0,0.0,0.0,0.0,0.0,0.0,0.0,0.0,0.0,0.0,0.0,0.0,0.0,0.0,0.0,0.0,0.0,0.0,0.0,0.0,0.0,0.0,0.0,0.0,0.0,0.0,0.0,0.0,0.0,0.0,0.0,0.0,0.0,0.0,0.0,0.0,0.0,1,0,0,1,1,31.795,0.031795
68,33783,-0.005,0.0,0.0012,0.0,1599,157,0.0,-0.006981316997386662,0.0017453292493466656,-0.005235987748039996,-0.01221730474542666,-0.005235987748039996,-0.5315127685546874,0.8044517578125,-9.753977563476562,-0.8188169677734375,0.7038952880859375,-9.270348828125,0.0,0.0005291005291005291,0.0,0.0,0.47409868340100897,0.005906238464377999,-0.04798818752307124,0.8791682047496001,0.0,0.0,0.17453292493466654,1.0,0.0,0.0,0.0,-0.006981316997386662,0.0,0.0017453292493466656,-0.17453292493466654,0.17453292493466654,0.0,0.0,0.0,0.0,0.0,0.0,0.0,-0.2,0.2,0.0,0.00012304663467454166,0.00036913990402362494,0.0,0.00012304663467454166,0.0,0.0,0.0,0.0,0.00012304663467454166,0.0002460932693490833,0.0,0.00012304663467454166,0.0,0.0,0.0,0.0,283.0,286.0,283.0,292.0,0.0,0.0,0.0,0.0,283.0,286.0,284.0,293.0,0.0,0.0,0.0,0.0,0,0,0,0,0,0,0,0,2910.471,3543.936,7207.966,0,0.0,0.0,0.0,0.0,0.0,0.0,2.38,10.43,22.97,0.0,0.0,0.0,0.0,0.0,0.0,0.0,0.0,2.0,0.0,0.0,0.0,0.0,0.0,0.0,0.0,0.0,0.0,0.0,0.0,0.0,0.0,0.0,0.0,0.0,0.0,0.0,0.0,0.0,0.0,0.0,0.0,0.0,0.0,0.0,0.0,0.0,0.0,0.0,0.0,0.0,0.0,0.0,0.0,0.0,0.0,0.0,0.0,0.0,0.0,0.0,0.0,0.0,0.0,0.0,0.0,0.0,0.0,0.0,0.0,0.0,0.0,0.0,0.0,0.0,0.0,0.0,0.0,0.0,0.0,0.0,0.0,0.0,0.0,0.0,0.0,0.0,0.0,0.0,0.0,0.0,0.0,0.0,0.0,0.0,0.0,0.0,0.0,1,0,0,1,1,33.783,0.033783
72,35769,-0.005,0.0,0.0012,0.0,1599,157,0.0017453292493466656,-0.008726646246733328,0.0017453292493466656,-0.0017453292493466656,-0.01221730474542666,0.003490658498693331,-0.5219359619140624,0.7996633544921875,-9.749189160156249,-0.5506663818359374,1.005564697265625,-10.098742602539062,0.0,0.0005291005291005291,0.0,0.0005291005291005291,0.47409868340100897,0.005906238464377999,-0.04798818752307124,0.8791682047496001,0.0,0.0,0.0,1.0,0.0,0.0,0.0,-0.006981316997386662,0.0,0.0017453292493466656,-0.17453292493466654,0.17453292493466654,0.0,0.0,0.0,0.0,0.0,0.0,0.0,-0.2,0.2,0.0,0.00012304663467454166,0.00036913990402362494,0.0,0.0002460932693490833,0.0,0.0,0.0,0.0,0.00012304663467454166,0.0002460932693490833,0.0,0.00012304663467454166,0.0,0.0,0.0,0.0,283.0,286.0,283.0,292.0,0.0,0.0,0.0,0.0,284.0,286.0,281.0,290.0,0.0,0.0,0.0,0.0,0,0,0,0,0,0,0,0,2910.476,3543.956,7208.011,0,0.0,0.0,0.0,0.0,0.0,0.0,2.38,10.43,22.97,0.0,0.0,0.0,0.0,0.0,0.0,0.0,0.0,2.0,0.0,0.0,0.0,0.0,0.0,0.0,0.0,0.0,0.0,0.0,0.0,0.0,0.0,0.0,0.0,0.0,0.0,0.0,0.0,0.0,0.0,0.0,0.0,0.0,0.0,0.0,0.0,0.0,0.0,0.0,0.0,0.0,0.0,0.0,0.0,0.0,0.0,0.0,0.0,0.0,0.0,0.0,0.0,0.0,0.0,0.0,0.0,0.0,0.0,0.0,0.0,0.0,0.0,0.0,0.0,0.0,0.0,0.0,0.0,0.0,0.0,0.0,0.0,0.0,0.0,0.0,0.0,0.0,0.0,0.0,0.0,0.0,0.0,0.0,0.0,0.0,0.0,0.0,0.0,1,0,0,1,1,35.769,0.035768999999999995
76,37756,-0.005,0.0,0.0012,0.0,1599,157,0.0017453292493466656,-0.010471975496079993,0.0,0.005235987748039996,-0.010471975496079993,-0.0017453292493466656,-0.51714755859375,0.7757213378906249,-9.739612353515625,-0.0383072265625,1.16837041015625,-9.567229833984374,0.0,0.0005291005291005291,0.0,0.0,0.47409868340100897,0.005906238464377999,-0.04798818752307124,0.8791682047496001,0.0,-0.17453292493466654,0.0,1.0,0.0,0.0,0.0,-0.006981316997386662,0.0,0.0017453292493466656,-0.17453292493466654,0.17453292493466654,0.0,0.0,0.0,0.0,0.0,0.0,0.0,-0.2,0.2,0.1,0.00012304663467454166,0.00036913990402362494,0.0,0.00012304663467454166,0.0,0.0,0.0,0.0,0.00012304663467454166,0.0002460932693490833,0.0,0.00012304663467454166,0.0,0.0,0.0,0.0,283.0,286.0,283.0,292.0,0.0,0.0,0.0,0.0,281.0,286.0,286.0,293.0,0.0,0.0,0.0,0.0,0,0,0,0,0,0,0,0,2910.481,3543.977,7208.057,0,0.0,0.0,0.0,0.0,0.0,0.0,2.38,10.43,22.97,0.0,0.0,0.0,0.0,0.0,0.0,0.0,0.0,2.0,0.0,0.0,0.0,0.0,0.0,0.0,0.0,0.0,0.0,0.0,0.0,0.0,0.0,0.0,0.0,0.0,0.0,0.0,0.0,0.0,0.0,0.0,0.0,0.0,0.0,0.0,0.0,0.0,0.0,0.0,0.0,0.0,0.0,0.0,0.0,0.0,0.0,0.0,0.0,0.0,0.0,0.0,0.0,0.0,0.0,0.0,0.0,0.0,0.0,0.0,0.0,0.0,0.0,0.0,0.0,0.0,0.0,0.0,0.0,0.0,0.0,0.0,0.0,0.0,0.0,0.0,0.0,0.0,0.0,0.0,0.0,0.0,0.0,0.0,0.0,0.0,0.0,0.0,0.0,1,0,0,1,1,37.756,0.037756
80,39743,-0.005,0.0,0.0012,0.0,1599,157,0.0017453292493466656,-0.008726646246733328,-0.0017453292493466656,0.0017453292493466656,-0.003490658498693331,-0.006981316997386662,-0.5123591552734374,0.7613561279296874,-9.734823950195311,-0.5889736083984375,1.149216796875,-9.744400756835937,0.0,0.0005291005291005291,0.0,0.0,0.47409868340100897,0.006029285099052541,-0.04798818752307124,0.8791682047496001,0.0,-0.17453292493466654,0.0,1.0,0.0,0.0,0.0,-0.006981316997386662,0.0,0.0017453292493466656,-0.17453292493466654,0.17453292493466654,0.0,0.0,0.0,0.0,0.0,0.0,0.0,-0.2,0.2,0.1,0.00012304663467454166,0.00036913990402362494,0.0,0.00012304663467454166,0.0,0.0,0.0,0.0,0.00012304663467454166,0.0002460932693490833,0.0,0.00012304663467454166,0.0,0.0,0.0,0.0,283.0,286.0,283.0,292.0,0.0,0.0,0.0,0.0,283.0,287.0,281.0,289.0,0.0,0.0,0.0,0.0,0,0,0,0,0,0,0,0,2910.486,3543.998,7208.103,0,0.0,0.0,0.0,0.0,0.0,0.0,2.38,10.43,22.97,0.0,0.0,0.0,0.0,0.0,0.0,0.0,0.0,2.0,0.0,0.0,0.0,0.0,0.0,0.0,0.0,0.0,0.0,0.0,0.0,0.0,0.0,0.0,0.0,0.0,0.0,0.0,0.0,0.0,0.0,0.0,0.0,0.0,0.0,0.0,0.0,0.0,0.0,0.0,0.0,0.0,0.0,0.0,0.0,0.0,0.0,0.0,0.0,0.0,0.0,0.0,0.0,0.0,0.0,0.0,0.0,0.0,0.0,0.0,0.0,0.0,0.0,0.0,0.0,0.0,0.0,0.0,0.0,0.0,0.0,0.0,0.0,0.0,0.0,0.0,0.0,0.0,0.0,0.0,0.0,0.0,0.0,0.0,0.0,0.0,0.0,0.0,0.0,1,0,0,1,1,39.743,0.039743
84,41730,-0.005,0.0,0.0012,0.0,1600,157,0.0017453292493466656,-0.01221730474542666,-0.0017453292493466656,0.0017453292493466656,-0.01221730474542666,-0.003490658498693331,-0.5123591552734374,0.7757213378906249,-9.744400756835937,-0.7996633544921875,0.7805097412109374,-9.9215716796875,0.0,0.0005291005291005291,0.0,0.0005291005291005291,0.47409868340100897,0.006029285099052541,-0.04798818752307124,0.8791682047496001,0.0,-0.3490658498693331,0.0,1.0,0.0,0.0,0.0,-0.006981316997386662,0.0,0.0017453292493466656,-0.17453292493466654,0.3490658498693331,0.0,0.0,0.0,0.0,0.0,0.0,0.0,-0.2,0.3,0.1,0.0,0.0004921865386981666,0.0,0.0002460932693490833,0.0,0.0,0.0,0.0,0.00012304663467454166,0.0002460932693490833,0.0,0.00012304663467454166,0.0,0.0,0.0,0.0,283.0,286.0,283.0,292.0,0.0,0.0,0.0,0.0,284.0,284.0,283.0,293.0,0.0,0.0,0.0,0.0,0,0,0,0,0,0,0,0,2910.49,3544.019,7208.15,0,0.0,0.0,0.0,0.0,0.0,0.0,2.38,10.43,22.97,0.0,0.0,0.0,0.0,0.0,0.0,0.0,0.0,2.0,0.0,0.0,0.0,0.0,0.0,0.0,0.0,0.0,0.0,0.0,0.0,0.0,0.0,0.0,0.0,0.0,0.0,0.0,0.0,0.0,0.0,0.0,0.0,0.0,0.0,0.0,0.0,0.0,0.0,0.0,0.0,0.0,0.0,0.0,0.0,0.0,0.0,0.0,0.0,0.0,0.0,0.0,0.0,0.0,0.0,0.0,0.0,0.0,0.0,0.0,0.0,0.0,0.0,0.0,0.0,0.0,0.0,0.0,0.0,0.0,0.0,0.0,0.0,0.0,0.0,0.0,0.0,0.0,0.0,0.0,0.0,0.0,0.0,0.0,0.0,0.0,0.0,0.0,0.0,1,0,0,1,1,41.730000000000004,0.041729999999999996
88,43718,-0.005,0.0,0.0012,0.0,1600,157,0.0017453292493466656,-0.006981316997386662,-0.0017453292493466656,0.008726646246733328,-0.006981316997386662,-0.005235987748039996,-0.5123591552734374,0.7805097412109374,-9.758765966796874,-0.5985504150390625,0.86191259765625,-9.165003955078124,0.0,0.0005291005291005291,0.0,0.0,0.47409868340100897,0.006029285099052541,-0.04798818752307124,0.8791682047496001,0.0,-0.17453292493466654,0.0,1.0,0.0,0.0,0.0,-0.006981316997386662,0.0,0.0017453292493466656,-0.17453292493466654,0.17453292493466654,0.0,0.0,0.0,0.0,0.0,0.0,0.0,-0.2,0.2,0.1,0.00012304663467454166,0.00036913990402362494,0.0,0.00012304663467454166,0.0,0.0,0.0,0.0,0.00012304663467454166,0.0002460932693490833,0.0,0.00012304663467454166,0.0,0.0,0.0,0.0,283.0,286.0,283.0,292.0,0.0,0.0,0.0,0.0,283.0,286.0,284.0,293.0,0.0,0.0,0.0,0.0,0,0,0,0,0,0,0,0,2910.495,3544.04,7208.196,0,0.0,0.0,0.0,0.0,0.0,0.0,2.38,10.43,22.97,0.0,0.0,0.0,0.0,0.0,0.0,0.0,0.0,2.0,0.0,0.0,0.0,0.0,0.0,0.0,0.0,0.0,0.0,0.0,0.0,0.0,0.0,0.0,0.0,0.0,0.0,0.0,0.0,0.0,0.0,0.0,0.0,0.0,0.0,0.0,0.0,0.0,0.0,0.0,0.0,0.0,0.0,0.0,0.0,0.0,0.0,0.0,0.0,0.0,0.0,0.0,0.0,0.0,0.0,0.0,0.0,0.0,0.0,0.0,0.0,0.0,0.0,0.0,0.0,0.0,0.0,0.0,0.0,0.0,0.0,0.0,0.0,0.0,0.0,0.0,0.0,0.0,0.0,0.0,0.0,0.0,0.0,0.0,0.0,0.0,0.0,0.0,0.0,1,0,0,1,1,43.718,0.043718
92,45705,-0.005,0.0,0.0012,0.0,1600,0,0.005235987748039996,-0.008726646246733328,0.0,0.013962633994773325,-0.006981316997386662,0.0017453292493466656,-0.5027823486328125,0.7661445312499999,-9.758765966796874,-0.603338818359375,0.8092401611328125,-8.595183959960938,0.0,0.0005291005291005291,0.0,0.0,0.47409868340100897,0.006029285099052541,-0.04798818752307124,0.8791682047496001,0.0,-0.17453292493466654,0.0,1.0,0.0,0.0,0.0,-0.006981316997386662,0.0,0.0017453292493466656,-0.17453292493466654,0.17453292493466654,0.0,0.0,0.0,0.0,0.0,0.0,0.0,-0.2,0.2,0.0,0.00012304663467454166,0.00036913990402362494,0.0,0.00012304663467454166,0.0,0.0,0.0,0.0,0.00012304663467454166,0.00036913990402362494,0.0,0.00012304663467454166,0.0,0.0,0.0,0.0,283.0,286.0,283.0,292.0,0.0,0.0,0.0,0.0,283.0,284.0,281.0,290.0,0.0,0.0,0.0,0.0,0,0,0,0,0,0,0,0,2910.5,3544.06,7208.241,0,0.0,0.0,0.0,0.0,0.0,0.0,2.38,10.43,22.97,0.0,0.0,0.0,0.0,0.0,0.0,0.0,0.0,2.0,0.0,0.0,0.0,0.0,0.0,0.0,0.0,0.0,0.0,0.0,0.0,0.0,0.0,0.0,0.0,0.0,0.0,0.0,0.0,0.0,0.0,0.0,0.0,0.0,0.0,0.0,0.0,0.0,0.0,0.0,0.0,0.0,0.0,0.0,0.0,0.0,0.0,0.0,0.0,0.0,0.0,0.0,0.0,0.0,0.0,0.0,0.0,0.0,0.0,0.0,0.0,0.0,0.0,0.0,0.0,0.0,0.0,0.0,0.0,0.0,0.0,0.0,0.0,0.0,0.0,0.0,0.0,0.0,0.0,0.0,0.0,0.0,0.0,0.0,0.0,0.0,0.0,0.0,0.0,1,0,0,1,1,45.705,0.045704999999999996
96,47692,-0.005,0.0,0.0012,0.0,1600,0,0.0017453292493466656,-0.0017453292493466656,0.0017453292493466656,-0.003490658498693331,0.005235987748039996,0.008726646246733328,-0.5027823486328125,0.74699091796875,-9.749189160156249,-0.469263525390625,1.0295067138671874,-9.375693701171874,0.0,0.0005291005291005291,0.0,0.0,0.47409868340100897,0.006029285099052541,-0.04798818752307124,0.8791682047496001,0.0,-0.17453292493466654,0.0,1.0,0.0,0.0,0.0,-0.006981316997386662,0.0,0.0017453292493466656,-0.17453292493466654,0.0,0.0,0.0,0.0,0.0,0.0,0.0,0.0,-0.2,0.1,0.0,0.00012304663467454166,0.0002460932693490833,0.0,0.0,0.0,0.0,0.0,0.0,0.00012304663467454166,0.00036913990402362494,0.0,0.00012304663467454166,0.0,0.0,0.0,0.0,283.0,286.0,283.0,292.0,0.0,0.0,0.0,0.0,284.0,286.0,284.0,293.0,0.0,0.0,0.0,0.0,0,0,0,0,0,0,0,0,2910.505,3544.081,7208.287,0,0.0,0.0,0.0,0.0,0.0,0.0,2.38,10.43,22.97,0.0,0.0,0.0,0.0,0.0,0.0,0.0,0.0,2.0,0.0,0.0,0.0,0.0,0.0,0.0,0.0,0.0,0.0,0.0,0.0,0.0,0.0,0.0,0.0,0.0,0.0,0.0,0.0,0.0,0.0,0.0,0.0,0.0,0.0,0.0,0.0,0.0,0.0,0.0,0.0,0.0,0.0,0.0,0.0,0.0,0.0,0.0,0.0,0.0,0.0,0.0,0.0,0.0,0.0,0.0,0.0,0.0,0.0,0.0,0.0,0.0,0.0,0.0,0.0,0.0,0.0,0.0,0.0,0.0,0.0,0.0,0.0,0.0,0.0,0.0,0.0,0.0,0.0,0.0,0.0,0.0,0.0,0.0,0.0,0.0,0.0,0.0,0.0,1,0,0,1,1,47.692,0.047692
100,49679,-0.005,0.0,0.0012,0.0,1600,0,0.0,-0.0017453292493466656,0.003490658498693331,-0.003490658498693331,0.005235987748039996,0.006981316997386662,-0.5123591552734374,0.74699091796875,-9.749189160156249,-0.1149216796875,1.2497732666015624,-10.213664282226562,0.0,0.0,0.0,0.0,0.47409868340100897,0.006029285099052541,-0.04798818752307124,0.8791682047496001,0.0,0.0,0.0,1.0,0.0,0.0,0.0,-0.006981316997386662,0.0,0.0017453292493466656,-0.17453292493466654,0.0,0.0,0.0,0.0,0.0,0.0,0.0,0.0,-0.1,0.0,0.0,0.00012304663467454166,0.00012304663467454166,0.0,0.0,0.0,0.0,0.0,0.0,0.00012304663467454166,0.0002460932693490833,0.0,0.00012304663467454166,0.0,0.0,0.0,0.0,283.0,286.0,283.0,292.0,0.0,0.0,0.0,0.0,281.0,286.0,284.0,293.0,0.0,0.0,0.0,0.0,0,0,0,0,0,0,0,0,2910.51,3544.102,7208.333,0,0.0,0.0,0.0,0.0,0.0,0.0,2.38,10.43,22.97,0.0,0.0,0.0,0.0,0.0,0.0,0.0,0.0,2.0,0.0,0.0,0.0,0.0,0.0,0.0,0.0,0.0,0.0,0.0,0.0,0.0,0.0,0.0,0.0,0.0,0.0,0.0,0.0,0.0,0.0,0.0,0.0,0.0,0.0,0.0,0.0,0.0,0.0,0.0,0.0,0.0,0.0,0.0,0.0,0.0,0.0,0.0,0.0,0.0,0.0,0.0,0.0,0.0,0.0,0.0,0.0,0.0,0.0,0.0,0.0,0.0,0.0,0.0,0.0,0.0,0.0,0.0,0.0,0.0,0.0,0.0,0.0,0.0,0.0,0.0,0.0,0.0,0.0,0.0,0.0,0.0,0.0,0.0,0.0,0.0,0.0,0.0,0.0,1,0,0,1,1,49.679,0.049679
104,51667,-0.005,0.0,0.0012,0.0,1600,0,0.0017453292493466656,0.0,0.003490658498693331,0.005235987748039996,0.003490658498693331,0.003490658498693331,-0.5267243652343749,0.7661445312499999,-9.749189160156249,0.1484405029296875,1.0007762939453124,-10.295067138671874,0.0,0.0,0.0,0.0,0.47409868340100897,0.006029285099052541,-0.04798818752307124,0.8791682047496001,0.0,0.17453292493466654,0.17453292493466654,1.0,0.0,0.0,0.0,-0.006981316997386662,0.0,0.0017453292493466656,-0.17453292493466654,0.0,0.0,0.0,0.0,0.0,0.0,0.0,0.0,-0.2,0.0,0.0,0.00012304663467454166,0.00012304663467454166,0.0,0.0,0.0,0.0,0.0,0.0,0.00012304663467454166,0.0002460932693490833,0.0,0.00012304663467454166,0.0,0.0,0.0,0.0,283.0,286.0,283.0,292.0,0.0,0.0,0.0,0.0,284.0,287.0,281.0,292.0,0.0,0.0,0.0,0.0,0,0,0,0,0,0,0,0,2910.515,3544.123,7208.379,0,0.0,0.0,0.0,0.0,0.0,0.0,2.38,10.43,22.97,0.0,0.0,0.0,0.0,0.0,0.0,0.0,0.0,2.0,0.0,0.0,0.0,0.0,0.0,0.0,0.0,0.0,0.0,0.0,0.0,0.0,0.0,0.0,0.0,0.0,0.0,0.0,0.0,0.0,0.0,0.0,0.0,0.0,0.0,0.0,0.0,0.0,0.0,0.0,0.0,0.0,0.0,0.0,0.0,0.0,0.0,0.0,0.0,0.0,0.0,0.0,0.0,0.0,0.0,0.0,0.0,0.0,0.0,0.0,0.0,0.0,0.0,0.0,0.0,0.0,0.0,0.0,0.0,0.0,0.0,0.0,0.0,0.0,0.0,0.0,0.0,0.0,0.0,0.0,0.0,0.0,0.0,0.0,0.0,0.0,0.0,0.0,0.0,1,0,0,1,1,51.667,0.051667
108,53653,-0.005,0.0,0.0012,0.0,1600,0,0.0017453292493466656,0.0,0.0017453292493466656,0.010471975496079993,-0.003490658498693331,0.0,-0.5363011718749999,0.7709329345703124,-9.753977563476562,-0.316034619140625,0.6512228515624999,-9.643844287109374,0.0,0.0,0.0,0.0,0.47409868340100897,0.006029285099052541,-0.04798818752307124,0.8791682047496001,0.0,0.17453292493466654,0.0,1.0,0.0,0.0,0.0,-0.006981316997386662,0.0,0.0017453292493466656,-0.17453292493466654,0.0,0.0,0.0,0.0,0.0,0.0,0.0,0.0,-0.2,0.0,0.0,0.00012304663467454166,0.00012304663467454166,0.0,0.0,0.0,0.0,0.0,0.0,0.00012304663467454166,0.0002460932693490833,0.0,0.00012304663467454166,0.0,0.0,0.0,0.0,283.0,286.0,283.0,292.0,0.0,0.0,0.0,0.0,283.0,286.0,284.0,293.0,0.0,0.0,0.0,0.0,0,0,0,0,0,0,0,0,2910.52,3544.144,7208.425,0,0.0,0.0,0.0,0.0,0.0,0.0,2.38,10.43,22.97,0.0,0.0,0.0,0.0,0.0,0.0,0.0,0.0,2.0,0.0,0.0,0.0,0.0,0.0,0.0,0.0,0.0,0.0,0.0,0.0,0.0,0.0,0.0,0.0,0.0,0.0,0.0,0.0,0.0,0.0,0.0,0.0,0.0,0.0,0.0,0.0,0.0,0.0,0.0,0.0,0.0,0.0,0.0,0.0,0.0,0.0,0.0,0.0,0.0,0.0,0.0,0.0,0.0,0.0,0.0,0.0,0.0,0.0,0.0,0.0,0.0,0.0,0.0,0.0,0.0,0.0,0.0,0.0,0.0,0.0,0.0,0.0,0.0,0.0,0.0,0.0,0.0,0.0,0.0,0.0,0.0,0.0,0.0,0.0,0.0,0.0,0.0,0.0,1,0,0,1,1,53.653,0.053653
112,55641,-0.005,0.0,0.0012,0.0,1600,0,0.0017453292493466656,-0.0017453292493466656,0.0,0.0017453292493466656,-0.003490658498693331,-0.006981316997386662,-0.5267243652343749,0.7661445312499999,-9.744400756835937,-0.9097966308593749,0.74699091796875,-9.212887988281249,0.0,0.0005291005291005291,0.0,0.0,0.47409868340100897,0.006029285099052541,-0.04798818752307124,0.8791682047496001,0.0,0.17453292493466654,0.0,1.0,0.0,0.0,0.0,-0.006981316997386662,0.0,0.0017453292493466656,-0.17453292493466654,0.0,0.0,0.0,0.0,0.0,0.0,0.0,0.0,-0.2,0.1,0.0,0.00012304663467454166,0.0002460932693490833,0.0,0.0,0.0,0.0,0.0,0.0,0.00012304663467454166,0.0002460932693490833,0.0,0.00012304663467454166,0.0,0.0,0.0,0.0,283.0,286.0,283.0,292.0,0.0,0.0,0.0,0.0,281.0,284.0,283.0,293.0,0.0,0.0,0.0,0.0,0,0,0,0,0,0,0,0,2910.525,3544.164,7208.47,0,0.0,0.0,0.0,0.0,0.0,0.0,2.38,10.43,22.97,0.0,0.0,0.0,0.0,0.0,0.0,0.0,0.0,2.0,0.0,0.0,0.0,0.0,0.0,0.0,0.0,0.0,0.0,0.0,0.0,0.0,0.0,0.0,0.0,0.0,0.0,0.0,0.0,0.0,0.0,0.0,0.0,0.0,0.0,0.0,0.0,0.0,0.0,0.0,0.0,0.0,0.0,0.0,0.0,0.0,0.0,0.0,0.0,0.0,0.0,0.0,0.0,0.0,0.0,0.0,0.0,0.0,0.0,0.0,0.0,0.0,0.0,0.0,0.0,0.0,0.0,0.0,0.0,0.0,0.0,0.0,0.0,0.0,0.0,0.0,0.0,0.0,0.0,0.0,0.0,0.0,0.0,0.0,0.0,0.0,0.0,0.0,0.0,1,0,0,1,1,55.641,0.055640999999999996
116,57628,-0.005,0.0,0.0012,0.0,1600,0,0.0,-0.006981316997386662,0.0,-0.003490658498693331,-0.003490658498693331,-0.003490658498693331,-0.5219359619140624,0.7565677246093749,-9.730035546875,-0.5410895751953124,0.7852981445312499,-10.13226142578125,0.0,0.0005291005291005291,0.0,0.0,0.47409868340100897,0.006029285099052541,-0.04798818752307124,0.8791682047496001,0.0,0.17453292493466654,0.0,1.0,0.0,0.0,0.0,-0.006981316997386662,0.0,0.0017453292493466656,-0.17453292493466654,0.17453292493466654,0.0,0.0,0.0,0.0,0.0,0.0,0.0,-0.1,0.1,0.1,0.00012304663467454166,0.0002460932693490833,0.0,0.00012304663467454166,0.0,0.0,0.0,0.0,0.00012304663467454166,0.0002460932693490833,0.0,0.00012304663467454166,0.0,0.0,0.0,0.0,283.0,286.0,283.0,292.0,0.0,0.0,0.0,0.0,283.0,286.0,284.0,290.0,0.0,0.0,0.0,0.0,0,0,0,0,0,0,0,0,2910.53,3544.186,7208.519,0,0.0,0.0,0.0,0.0,0.0,0.0,2.38,10.43,22.97,0.0,0.0,0.0,0.0,0.0,0.0,0.0,0.0,2.0,0.0,0.0,0.0,0.0,0.0,0.0,0.0,0.0,0.0,0.0,0.0,0.0,0.0,0.0,0.0,0.0,0.0,0.0,0.0,0.0,0.0,0.0,0.0,0.0,0.0,0.0,0.0,0.0,0.0,0.0,0.0,0.0,0.0,0.0,0.0,0.0,0.0,0.0,0.0,0.0,0.0,0.0,0.0,0.0,0.0,0.0,0.0,0.0,0.0,0.0,0.0,0.0,0.0,0.0,0.0,0.0,0.0,0.0,0.0,0.0,0.0,0.0,0.0,0.0,0.0,0.0,0.0,0.0,0.0,0.0,0.0,0.0,0.0,0.0,0.0,0.0,0.0,0.0,0.0,1,0,0,1,1,57.628,0.057628
120,59615,-0.005,0.0,0.0012,0.0,1600,0,0.0,-0.003490658498693331,0.0,0.0017453292493466656,0.003490658498693331,0.005235987748039996,-0.5315127685546874,0.7613561279296874,-9.730035546875,0.08140285644531249,1.2976572998046874,-9.624690673828125,0.0,0.0005291005291005291,0.0,0.0,0.47409868340100897,0.006029285099052541,-0.04798818752307124,0.8791682047496001,0.0,0.17453292493466654,0.0,1.0,0.0,0.0,0.0,-0.006981316997386662,0.0,0.0017453292493466656,-0.17453292493466654,0.0,0.0,0.0,0.0,0.0,0.0,0.0,0.0,-0.1,0.1,0.0,0.00012304663467454166,0.0002460932693490833,0.0,0.0,0.0,0.0,0.0,0.0,0.00012304663467454166,0.0002460932693490833,0.0,0.00012304663467454166,0.0,0.0,0.0,0.0,283.0,286.0,283.0,292.0,0.0,0.0,0.0,0.0,281.0,287.0,283.0,293.0,0.0,0.0,0.0,0.0,0,0,0,0,0,0,0,0,2910.534,3544.208,7208.565,0,0.0,0.0,0.0,0.0,0.0,0.0,2.38,10.43,22.97,0.0,0.0,0.0,0.0,0.0,0.0,0.0,0.0,2.0,0.0,0.0,0.0,0.0,0.0,0.0,0.0,0.0,0.0,0.0,0.0,0.0,0.0,0.0,0.0,0.0,0.0,0.0,0.0,0.0,0.0,0.0,0.0,0.0,0.0,0.0,0.0,0.0,0.0,0.0,0.0,0.0,0.0,0.0,0.0,0.0,0.0,0.0,0.0,0.0,0.0,0.0,0.0,0.0,0.0,0.0,0.0,0.0,0.0,0.0,0.0,0.0,0.0,0.0,0.0,0.0,0.0,0.0,0.0,0.0,0.0,0.0,0.0,0.0,0.0,0.0,0.0,0.0,0.0,0.0,0.0,0.0,0.0,0.0,0.0,0.0,0.0,0.0,0.0,1,0,0,1,1,59.615,0.059614999999999994
124,61602,-0.005,0.0,0.0012,0.0,1604,0,0.0,-0.006981316997386662,-0.0017453292493466656,0.0017453292493466656,0.0,0.0017453292493466656,-0.5267243652343749,0.7709329345703124,-9.739612353515625,-0.27293898925781246,1.0917559570312498,-9.662997900390625,0.0,0.0005291005291005291,0.0,0.0,0.47409868340100897,0.006029285099052541,-0.04798818752307124,0.8791682047496001,0.0,0.0,0.0,1.0,0.0,0.0,0.0,-0.006981316997386662,0.0,0.0017453292493466656,-0.17453292493466654,0.17453292493466654,0.0,0.0,0.0,0.0,0.0,0.0,0.0,-0.2,0.1,0.1,0.00012304663467454166,0.0002460932693490833,0.0,0.00012304663467454166,0.0,0.0,0.0,0.0,0.00012304663467454166,0.0002460932693490833,0.0,0.00012304663467454166,0.0,0.0,0.0,0.0,283.0,286.0,283.0,292.0,0.0,0.0,0.0,0.0,283.0,287.0,283.0,293.0,0.0,0.0,0.0,0.0,0,0,0,0,0,0,0,0,2910.539,3544.228,7208.611,0,0.0,0.0,0.0,0.0,0.0,0.0,2.38,10.43,22.97,0.0,0.0,0.0,0.0,0.0,0.0,0.0,0.0,2.0,0.0,0.0,0.0,0.0,0.0,0.0,0.0,0.0,0.0,0.0,0.0,0.0,0.0,0.0,0.0,0.0,0.0,0.0,0.0,0.0,0.0,0.0,0.0,0.0,0.0,0.0,0.0,0.0,0.0,0.0,0.0,0.0,0.0,0.0,0.0,0.0,0.0,0.0,0.0,0.0,0.0,0.0,0.0,0.0,0.0,0.0,0.0,0.0,0.0,0.0,0.0,0.0,0.0,0.0,0.0,0.0,0.0,0.0,0.0,0.0,0.0,0.0,0.0,0.0,0.0,0.0,0.0,0.0,0.0,0.0,0.0,0.0,0.0,0.0,0.0,0.0,0.0,0.0,0.0,1,0,0,1,1,61.602000000000004,0.061602
128,63589,-0.005,0.0,0.0012,0.0,1604,0,0.0,-0.003490658498693331,-0.0017453292493466656,-0.005235987748039996,0.0,0.0,-0.5267243652343749,0.7757213378906249,-9.744400756835937,-0.22026655273437498,0.7565677246093749,-9.955090502929687,0.0,0.0005291005291005291,0.0,0.0,0.47409868340100897,0.006029285099052541,-0.04798818752307124,0.8791682047496001,0.0,0.17453292493466654,0.0,1.0,0.0,0.0,0.0,-0.006981316997386662,0.0,0.0017453292493466656,-0.17453292493466654,0.0,0.0,0.0,0.0,0.0,0.0,0.0,0.0,-0.1,0.1,0.1,0.0,0.0002460932693490833,0.0,0.0,0.0,0.0,0.0,0.0,0.00012304663467454166,0.0002460932693490833,0.0,0.00012304663467454166,0.0,0.0,0.0,0.0,283.0,286.0,283.0,292.0,0.0,0.0,0.0,0.0,284.0,284.0,284.0,289.0,0.0,0.0,0.0,0.0,0,0,0,0,0,0,0,0,2910.544,3544.25,7208.656,0,0.0,0.0,0.0,0.0,0.0,0.0,2.38,10.43,22.97,0.0,0.0,0.0,0.0,0.0,0.0,0.0,0.0,2.0,0.0,0.0,0.0,0.0,0.0,0.0,0.0,0.0,0.0,0.0,0.0,0.0,0.0,0.0,0.0,0.0,0.0,0.0,0.0,0.0,0.0,0.0,0.0,0.0,0.0,0.0,0.0,0.0,0.0,0.0,0.0,0.0,0.0,0.0,0.0,0.0,0.0,0.0,0.0,0.0,0.0,0.0,0.0,0.0,0.0,0.0,0.0,0.0,0.0,0.0,0.0,0.0,0.0,0.0,0.0,0.0,0.0,0.0,0.0,0.0,0.0,0.0,0.0,0.0,0.0,0.0,0.0,0.0,0.0,0.0,0.0,0.0,0.0,0.0,0.0,0.0,0.0,0.0,0.0,1,0,0,1,1,63.589,0.06358899999999999
132,65576,-0.005,0.0,0.0012,0.0,1604,10,0.0017453292493466656,-0.006981316997386662,-0.0017453292493466656,0.003490658498693331,-0.006981316997386662,-0.005235987748039996,-0.5219359619140624,0.7613561279296874,-9.734823950195311,-0.45489831542968745,1.0295067138671874,-9.763554370117188,0.0,0.0005291005291005291,0.0,0.0,0.47409868340100897,0.006029285099052541,-0.04798818752307124,0.8791682047496001,0.0,0.0,0.0,1.0,0.0,0.0,0.0,-0.006981316997386662,0.0,0.0017453292493466656,-0.17453292493466654,0.17453292493466654,0.0,0.0,0.0,0.0,0.0,0.0,0.0,-0.2,0.1,0.1,0.00012304663467454166,0.00036913990402362494,0.0,0.00012304663467454166,0.0,0.0,0.0,0.0,0.00012304663467454166,0.0002460932693490833,0.0,0.00012304663467454166,0.0,0.0,0.0,0.0,283.0,286.0,283.0,292.0,0.0,0.0,0.0,0.0,281.0,286.0,283.0,293.0,0.0,0.0,0.0,0.0,0,0,0,0,0,0,0,0,2910.549,3544.27,7208.702,0,0.0,0.0,0.0,0.0,0.0,0.0,2.38,10.43,22.97,0.0,0.0,0.0,0.0,0.0,0.0,0.0,0.0,2.0,0.0,0.0,0.0,0.0,0.0,0.0,0.0,0.0,0.0,0.0,0.0,0.0,0.0,0.0,0.0,0.0,0.0,0.0,0.0,0.0,0.0,0.0,0.0,0.0,0.0,0.0,0.0,0.0,0.0,0.0,0.0,0.0,0.0,0.0,0.0,0.0,0.0,0.0,0.0,0.0,0.0,0.0,0.0,0.0,0.0,0.0,0.0,0.0,0.0,0.0,0.0,0.0,0.0,0.0,0.0,0.0,0.0,0.0,0.0,0.0,0.0,0.0,0.0,0.0,0.0,0.0,0.0,0.0,0.0,0.0,0.0,0.0,0.0,0.0,0.0,0.0,0.0,0.0,0.0,1,0,0,1,1,65.57600000000001,0.065576
136,67564,-0.005,0.0,0.0012,0.0,1604,10,0.0,-0.006981316997386662,-0.0017453292493466656,0.0,-0.010471975496079993,-0.003490658498693331,-0.51714755859375,0.74699091796875,-9.725247143554688,-0.9864110839843749,0.70868369140625,-9.773131176757811,0.0,0.0005291005291005291,0.0,0.0,0.47409868340100897,0.006029285099052541,-0.04798818752307124,0.8791682047496001,0.0,0.0,0.0,1.0,0.0,0.0,0.0,-0.006981316997386662,0.0,0.0017453292493466656,-0.17453292493466654,0.17453292493466654,0.0,0.0,0.0,0.0,0.0,0.0,0.0,-0.2,0.2,0.1,0.00012304663467454166,0.0002460932693490833,0.0,0.00012304663467454166,0.0,0.0,0.0,0.0,0.00012304663467454166,0.0002460932693490833,0.0,0.00012304663467454166,0.0,0.0,0.0,0.0,283.0,286.0,283.0,292.0,0.0,0.0,0.0,0.0,281.0,287.0,281.0,292.0,0.0,0.0,0.0,0.0,0,0,0,0,0,0,0,0,2910.554,3544.291,7208.748,0,0.0,0.0,0.0,0.0,0.0,0.0,2.38,10.43,22.97,0.0,0.0,0.0,0.0,0.0,0.0,0.0,0.0,2.0,0.0,0.0,0.0,0.0,0.0,0.0,0.0,0.0,0.0,0.0,0.0,0.0,0.0,0.0,0.0,0.0,0.0,0.0,0.0,0.0,0.0,0.0,0.0,0.0,0.0,0.0,0.0,0.0,0.0,0.0,0.0,0.0,0.0,0.0,0.0,0.0,0.0,0.0,0.0,0.0,0.0,0.0,0.0,0.0,0.0,0.0,0.0,0.0,0.0,0.0,0.0,0.0,0.0,0.0,0.0,0.0,0.0,0.0,0.0,0.0,0.0,0.0,0.0,0.0,0.0,0.0,0.0,0.0,0.0,0.0,0.0,0.0,0.0,0.0,0.0,0.0,0.0,0.0,0.0,1,0,0,1,1,67.56400000000001,0.067564
140,69551,-0.005,0.0,0.0012,0.0,1604,10,0.0017453292493466656,-0.003490658498693331,0.0017453292493466656,-0.0017453292493466656,-0.003490658498693331,0.005235987748039996,-0.51714755859375,0.7517793212890624,-9.725247143554688,-1.16837041015625,0.5602431884765625,-9.524134204101562,0.0,0.0005291005291005291,0.0,0.0,0.47409868340100897,0.006029285099052541,-0.04798818752307124,0.8791682047496001,0.0,0.0,0.0,1.0,0.0,0.0,0.0,-0.006981316997386662,0.0,0.0017453292493466656,-0.17453292493466654,0.17453292493466654,0.0,0.0,0.0,0.0,0.0,0.0,0.0,-0.2,0.1,0.0,0.00012304663467454166,0.0002460932693490833,0.0,0.00012304663467454166,0.0,0.0,0.0,0.0,0.00012304663467454166,0.0002460932693490833,0.0,0.00012304663467454166,0.0,0.0,0.0,0.0,283.0,286.0,283.0,292.0,0.0,0.0,0.0,0.0,283.0,286.0,284.0,293.0,0.0,0.0,0.0,0.0,0,0,0,0,0,0,0,0,2910.559,3544.312,7208.794,0,0.0,0.0,0.0,0.0,0.0,0.0,2.38,10.43,22.97,0.0,0.0,0.0,0.0,0.0,0.0,0.0,0.0,2.0,0.0,0.0,0.0,0.0,0.0,0.0,0.0,0.0,0.0,0.0,0.0,0.0,0.0,0.0,0.0,0.0,0.0,0.0,0.0,0.0,0.0,0.0,0.0,0.0,0.0,0.0,0.0,0.0,0.0,0.0,0.0,0.0,0.0,0.0,0.0,0.0,0.0,0.0,0.0,0.0,0.0,0.0,0.0,0.0,0.0,0.0,0.0,0.0,0.0,0.0,0.0,0.0,0.0,0.0,0.0,0.0,0.0,0.0,0.0,0.0,0.0,0.0,0.0,0.0,0.0,0.0,0.0,0.0,0.0,0.0,0.0,0.0,0.0,0.0,0.0,0.0,0.0,0.0,0.0,1,0,0,1,1,69.551,0.069551
144,71538,-0.005,0.0,0.0012,0.0,1604,10,0.0017453292493466656,-0.006981316997386662,0.003490658498693331,-0.003490658498693331,0.0,0.006981316997386662,-0.51714755859375,0.7709329345703124,-9.734823950195311,-0.19153613281249998,0.6464344482421874,-9.868899243164062,0.0,0.0005291005291005291,0.0,0.0,0.47409868340100897,0.006029285099052541,-0.04798818752307124,0.8791682047496001,0.0,0.0,0.0,1.0,0.0,0.0,0.0,-0.006981316997386662,0.0,0.0017453292493466656,-0.17453292493466654,0.17453292493466654,0.0,0.0,0.0,0.0,0.0,0.0,0.0,-0.2,0.2,0.0,0.00012304663467454166,0.00036913990402362494,0.0,0.00012304663467454166,0.0,0.0,0.0,0.0,0.00012304663467454166,0.0002460932693490833,0.0,0.00012304663467454166,0.0,0.0,0.0,0.0,283.0,286.0,283.0,292.0,0.0,0.0,0.0,0.0,281.0,286.0,283.0,292.0,0.0,0.0,0.0,0.0,0,0,0,0,0,0,0,0,2910.564,3544.333,7208.84,0,0.0,0.0,0.0,0.0,0.0,0.0,2.38,10.43,22.97,0.0,0.0,0.0,0.0,0.0,0.0,0.0,0.0,2.0,0.0,0.0,0.0,0.0,0.0,0.0,0.0,0.0,0.0,0.0,0.0,0.0,0.0,0.0,0.0,0.0,0.0,0.0,0.0,0.0,0.0,0.0,0.0,0.0,0.0,0.0,0.0,0.0,0.0,0.0,0.0,0.0,0.0,0.0,0.0,0.0,0.0,0.0,0.0,0.0,0.0,0.0,0.0,0.0,0.0,0.0,0.0,0.0,0.0,0.0,0.0,0.0,0.0,0.0,0.0,0.0,0.0,0.0,0.0,0.0,0.0,0.0,0.0,0.0,0.0,0.0,0.0,0.0,0.0,0.0,0.0,0.0,0.0,0.0,0.0,0.0,0.0,0.0,0.0,1,0,0,1,1,71.538,0.07153799999999999
148,73525,-0.005,0.0,0.0012,0.0,1604,10,0.0017453292493466656,-0.008726646246733328,0.005235987748039996,-0.003490658498693331,-0.008726646246733328,0.013962633994773325,-0.5219359619140624,0.7805097412109374,-9.734823950195311,0.239420166015625,0.7900865478515624,-10.448296044921875,0.0,0.0005291005291005291,0.0,0.0005291005291005291,0.47409868340100897,0.006029285099052541,-0.04798818752307124,0.8791682047496001,0.0,0.0,0.0,1.0,0.0,0.0,0.0,-0.006981316997386662,0.0,0.0017453292493466656,-0.17453292493466654,0.17453292493466654,0.0,0.0,0.0,0.0,0.0,0.0,0.0,-0.2,0.2,-0.1,0.00012304663467454166,0.00036913990402362494,0.0,0.0002460932693490833,0.0,0.0,0.0,0.0,0.00012304663467454166,0.0002460932693490833,0.0,0.00012304663467454166,0.0,0.0,0.0,0.0,283.0,286.0,283.0,292.0,0.0,0.0,0.0,0.0,284.0,286.0,284.0,290.0,0.0,0.0,0.0,0.0,0,0,0,0,0,0,0,0,2910.568,3544.354,7208.886,0,0.0,0.0,0.0,0.0,0.0,0.0,2.38,10.43,22.97,0.0,0.0,0.0,0.0,0.0,0.0,0.0,0.0,2.0,0.0,0.0,0.0,0.0,0.0,0.0,0.0,0.0,0.0,0.0,0.0,0.0,0.0,0.0,0.0,0.0,0.0,0.0,0.0,0.0,0.0,0.0,0.0,0.0,0.0,0.0,0.0,0.0,0.0,0.0,0.0,0.0,0.0,0.0,0.0,0.0,0.0,0.0,0.0,0.0,0.0,0.0,0.0,0.0,0.0,0.0,0.0,0.0,0.0,0.0,0.0,0.0,0.0,0.0,0.0,0.0,0.0,0.0,0.0,0.0,0.0,0.0,0.0,0.0,0.0,0.0,0.0,0.0,0.0,0.0,0.0,0.0,0.0,0.0,0.0,0.0,0.0,0.0,0.0,1,0,0,1,1,73.525,0.073525
152,75512,-0.005,0.0,0.0012,0.0,1604,10,0.0017453292493466656,-0.008726646246733328,0.005235987748039996,0.003490658498693331,-0.008726646246733328,0.010471975496079993,-0.5315127685546874,0.7805097412109374,-9.715670336914062,0.16759411621093748,0.5506663818359374,-10.256759912109374,0.0005291005291005291,0.0005291005291005291,0.0,0.0005291005291005291,0.47409868340100897,0.006029285099052541,-0.04798818752307124,0.8791682047496001,0.0,-0.17453292493466654,0.17453292493466654,1.0,0.0,0.0,0.0,-0.006981316997386662,0.0,0.0017453292493466656,-0.17453292493466654,0.17453292493466654,-0.17453292493466654,0.0,0.0,0.0,0.0,0.0,0.0,-0.2,0.2,-0.1,0.00012304663467454166,0.00036913990402362494,0.0,0.0002460932693490833,0.0,0.0,0.0,0.0,0.00012304663467454166,0.0002460932693490833,0.0,0.00012304663467454166,0.0,0.0,0.0,0.0,283.0,286.0,283.0,292.0,0.0,0.0,0.0,0.0,284.0,284.0,281.0,293.0,0.0,0.0,0.0,0.0,0,0,0,0,0,0,0,0,2910.574,3544.374,7208.932,0,0.0,0.0,0.0,0.0,0.0,0.0,2.38,10.43,22.97,0.0,0.0,0.0,0.0,0.0,0.0,0.0,0.0,2.0,0.0,0.0,0.0,0.0,0.0,0.0,0.0,0.0,0.0,0.0,0.0,0.0,0.0,0.0,0.0,0.0,0.0,0.0,0.0,0.0,0.0,0.0,0.0,0.0,0.0,0.0,0.0,0.0,0.0,0.0,0.0,0.0,0.0,0.0,0.0,0.0,0.0,0.0,0.0,0.0,0.0,0.0,0.0,0.0,0.0,0.0,0.0,0.0,0.0,0.0,0.0,0.0,0.0,0.0,0.0,0.0,0.0,0.0,0.0,0.0,0.0,0.0,0.0,0.0,0.0,0.0,0.0,0.0,0.0,0.0,0.0,0.0,0.0,0.0,0.0,0.0,0.0,0.0,0.0,1,0,0,1,1,75.512,0.075512
156,77499,-0.005,0.0,0.0012,0.0,1604,10,0.0017453292493466656,-0.01221730474542666,0.0017453292493466656,0.003490658498693331,-0.017453292493466655,-0.003490658498693331,-0.5363011718749999,0.7661445312499999,-9.696516723632811,-0.699106884765625,0.6512228515624999,-10.1131078125,0.0,0.0005291005291005291,0.0,0.0005291005291005291,0.47409868340100897,0.006029285099052541,-0.04798818752307124,0.8791682047496001,0.0,-0.17453292493466654,0.17453292493466654,1.0,0.0,0.0,0.0,-0.006981316997386662,0.0,0.0017453292493466656,-0.17453292493466654,0.3490658498693331,0.0,0.0,0.0,0.0,0.0,0.0,0.0,-0.2,0.3,0.0,0.00012304663467454166,0.0004921865386981666,0.0,0.0002460932693490833,0.0,0.0,0.0,0.0,0.00012304663467454166,0.0002460932693490833,0.0,0.00012304663467454166,0.0,0.0,0.0,0.0,283.0,286.0,283.0,292.0,0.0,0.0,0.0,0.0,283.0,287.0,283.0,293.0,0.0,0.0,0.0,0.0,0,0,0,0,0,0,0,0,2910.578,3544.395,7208.978,0,0.0,0.0,0.0,0.0,0.0,0.0,2.38,10.43,22.97,0.0,0.0,0.0,0.0,0.0,0.0,0.0,0.0,2.0,0.0,0.0,0.0,0.0,0.0,0.0,0.0,0.0,0.0,0.0,0.0,0.0,0.0,0.0,0.0,0.0,0.0,0.0,0.0,0.0,0.0,0.0,0.0,0.0,0.0,0.0,0.0,0.0,0.0,0.0,0.0,0.0,0.0,0.0,0.0,0.0,0.0,0.0,0.0,0.0,0.0,0.0,0.0,0.0,0.0,0.0,0.0,0.0,0.0,0.0,0.0,0.0,0.0,0.0,0.0,0.0,0.0,0.0,0.0,0.0,0.0,0.0,0.0,0.0,0.0,0.0,0.0,0.0,0.0,0.0,0.0,0.0,0.0,0.0,0.0,0.0,0.0,0.0,0.0,1,0,0,1,1,77.499,0.077499
160,79486,-0.005,0.0,0.0012,0.0,1604,10,0.0017453292493466656,-0.005235987748039996,0.0,0.006981316997386662,-0.003490658498693331,-0.005235987748039996,-0.5363011718749999,0.7709329345703124,-9.6917283203125,-0.584185205078125,0.689530078125,-9.524134204101562,0.0,0.0005291005291005291,0.0,0.0,0.47409868340100897,0.006029285099052541,-0.04798818752307124,0.8791682047496001,0.0,-0.17453292493466654,0.0,1.0,0.0,0.0,0.0,-0.006981316997386662,0.0,0.0017453292493466656,-0.17453292493466654,0.17453292493466654,0.0,0.0,0.0,0.0,0.0,0.0,0.0,-0.2,0.1,0.1,0.00012304663467454166,0.00036913990402362494,0.0,0.00012304663467454166,0.0,0.0,0.0,0.0,0.00012304663467454166,0.0002460932693490833,0.0,0.00012304663467454166,0.0,0.0,0.0,0.0,283.0,286.0,283.0,292.0,0.0,0.0,0.0,0.0,283.0,286.0,286.0,290.0,0.0,0.0,0.0,0.0,0,0,0,0,0,0,0,0,2910.583,3544.416,7209.024,0,0.0,0.0,0.0,0.0,0.0,0.0,2.38,10.43,22.97,0.0,0.0,0.0,0.0,0.0,0.0,0.0,0.0,2.0,0.0,0.0,0.0,0.0,0.0,0.0,0.0,0.0,0.0,0.0,0.0,0.0,0.0,0.0,0.0,0.0,0.0,0.0,0.0,0.0,0.0,0.0,0.0,0.0,0.0,0.0,0.0,0.0,0.0,0.0,0.0,0.0,0.0,0.0,0.0,0.0,0.0,0.0,0.0,0.0,0.0,0.0,0.0,0.0,0.0,0.0,0.0,0.0,0.0,0.0,0.0,0.0,0.0,0.0,0.0,0.0,0.0,0.0,0.0,0.0,0.0,0.0,0.0,0.0,0.0,0.0,0.0,0.0,0.0,0.0,0.0,0.0,0.0,0.0,0.0,0.0,0.0,0.0,0.0,1,0,0,1,1,79.486,0.079486
164,81474,-0.005,0.0,0.0012,0.0,1596,10,0.0017453292493466656,-0.005235987748039996,-0.0017453292493466656,0.003490658498693331,-0.003490658498693331,-0.003490658498693331,-0.5315127685546874,0.7900865478515624,-9.710881933593749,-0.5602431884765625,0.8571241943359375,-9.792284790039062,0.0,0.0005291005291005291,0.0,0.0,0.47409868340100897,0.006029285099052541,-0.04798818752307124,0.8791682047496001,0.0,-0.17453292493466654,0.0,1.0,0.0,0.0,0.0,-0.006981316997386662,0.0,0.0017453292493466656,-0.17453292493466654,0.17453292493466654,0.17453292493466654,0.0,0.0,0.0,0.0,0.0,0.0,-0.2,0.1,0.1,0.00012304663467454166,0.00036913990402362494,0.0,0.0,0.0,0.0,0.0,0.0,0.00012304663467454166,0.0002460932693490833,0.0,0.00012304663467454166,0.0,0.0,0.0,0.0,283.0,286.0,283.0,292.0,0.0,0.0,0.0,0.0,283.0,287.0,283.0,295.0,0.0,0.0,0.0,0.0,0,0,0,0,0,0,0,0,2910.588,3544.437,7209.07,0,0.0,0.0,0.0,0.0,0.0,0.0,2.38,10.43,22.97,0.0,0.0,0.0,0.0,0.0,0.0,0.0,0.0,2.0,0.0,0.0,0.0,0.0,0.0,0.0,0.0,0.0,0.0,0.0,0.0,0.0,0.0,0.0,0.0,0.0,0.0,0.0,0.0,0.0,0.0,0.0,0.0,0.0,0.0,0.0,0.0,0.0,0.0,0.0,0.0,0.0,0.0,0.0,0.0,0.0,0.0,0.0,0.0,0.0,0.0,0.0,0.0,0.0,0.0,0.0,0.0,0.0,0.0,0.0,0.0,0.0,0.0,0.0,0.0,0.0,0.0,0.0,0.0,0.0,0.0,0.0,0.0,0.0,0.0,0.0,0.0,0.0,0.0,0.0,0.0,0.0,0.0,0.0,0.0,0.0,0.0,0.0,0.0,1,0,0,1,1,81.474,0.08147399999999999
168,83461,-0.005,0.0,0.0012,0.0,1596,10,0.0017453292493466656,-0.003490658498693331,-0.0017453292493466656,0.0017453292493466656,-0.005235987748039996,0.0017453292493466656,-0.5267243652343749,0.7996633544921875,-9.720458740234374,-0.09576806640624999,0.93852705078125,-9.90241806640625,0.0,0.0005291005291005291,0.0,0.0,0.47409868340100897,0.006029285099052541,-0.04798818752307124,0.8791682047496001,0.0,0.0,-0.17453292493466654,1.0,0.0,0.0,0.0,-0.006981316997386662,0.0,0.0017453292493466656,-0.17453292493466654,0.17453292493466654,0.17453292493466654,0.0,0.0,0.0,0.0,0.0,0.0,-0.2,0.1,0.1,0.0,0.0002460932693490833,0.0,0.0,0.0,0.0,0.0,0.0,0.00012304663467454166,0.0002460932693490833,0.0,0.00012304663467454166,0.0,0.0,0.0,0.0,283.0,286.0,283.0,292.0,0.0,0.0,0.0,0.0,283.0,287.0,281.0,292.0,0.0,0.0,0.0,0.0,0,0,0,0,0,0,0,0,2910.593,3544.458,7209.116,0,0.0,0.0,0.0,0.0,0.0,0.0,2.38,10.43,22.97,0.0,0.0,0.0,0.0,0.0,0.0,0.0,0.0,2.0,0.0,0.0,0.0,0.0,0.0,0.0,0.0,0.0,0.0,0.0,0.0,0.0,0.0,0.0,0.0,0.0,0.0,0.0,0.0,0.0,0.0,0.0,0.0,0.0,0.0,0.0,0.0,0.0,0.0,0.0,0.0,0.0,0.0,0.0,0.0,0.0,0.0,0.0,0.0,0.0,0.0,0.0,0.0,0.0,0.0,0.0,0.0,0.0,0.0,0.0,0.0,0.0,0.0,0.0,0.0,0.0,0.0,0.0,0.0,0.0,0.0,0.0,0.0,0.0,0.0,0.0,0.0,0.0,0.0,0.0,0.0,0.0,0.0,0.0,0.0,0.0,0.0,0.0,0.0,1,0,0,1,1,83.461,0.083461
172,85448,-0.005,0.0,0.0012,0.0,1596,0,0.0017453292493466656,-0.003490658498693331,-0.0017453292493466656,0.0017453292493466656,0.0,0.0,-0.5267243652343749,0.7852981445312499,-9.720458740234374,-0.09576806640624999,1.005564697265625,-9.404424121093749,0.0,0.0005291005291005291,0.0,0.0,0.47409868340100897,0.006029285099052541,-0.04798818752307124,0.8791682047496001,0.0,0.0,-0.17453292493466654,1.0,0.0,0.0,0.0,-0.006981316997386662,0.0,0.0017453292493466656,-0.17453292493466654,0.0,0.0,0.0,0.0,0.0,0.0,0.0,0.0,-0.2,0.1,0.1,0.00012304663467454166,0.0002460932693490833,0.0,0.0,0.0,0.0,0.0,0.0,0.00012304663467454166,0.0002460932693490833,0.0,0.00012304663467454166,0.0,0.0,0.0,0.0,283.0,286.0,283.0,292.0,0.0,0.0,0.0,0.0,284.0,284.0,284.0,290.0,0.0,0.0,0.0,0.0,0,0,0,0,0,0,0,0,2910.598,3544.479,7209.162,0,0.0,0.0,0.0,0.0,0.0,0.0,2.38,10.43,22.97,0.0,0.0,0.0,0.0,0.0,0.0,0.0,0.0,2.0,0.0,0.0,0.0,0.0,0.0,0.0,0.0,0.0,0.0,0.0,0.0,0.0,0.0,0.0,0.0,0.0,0.0,0.0,0.0,0.0,0.0,0.0,0.0,0.0,0.0,0.0,0.0,0.0,0.0,0.0,0.0,0.0,0.0,0.0,0.0,0.0,0.0,0.0,0.0,0.0,0.0,0.0,0.0,0.0,0.0,0.0,0.0,0.0,0.0,0.0,0.0,0.0,0.0,0.0,0.0,0.0,0.0,0.0,0.0,0.0,0.0,0.0,0.0,0.0,0.0,0.0,0.0,0.0,0.0,0.0,0.0,0.0,0.0,0.0,0.0,0.0,0.0,0.0,0.0,1,0,0,1,1,85.44800000000001,0.085448
176,87435,-0.005,0.0,0.0012,0.0,1596,0,0.0,-0.0017453292493466656,0.0,-0.005235987748039996,-0.005235987748039996,0.003490658498693331,-0.51714755859375,0.7661445312499999,-9.710881933593749,-0.622492431640625,0.8188169677734375,-10.189722265624999,0.0,0.0,0.0,0.0,0.47409868340100897,0.006029285099052541,-0.04798818752307124,0.8791682047496001,0.0,0.17453292493466654,-0.17453292493466654,1.0,0.0,0.0,0.0,-0.006981316997386662,0.0,0.0017453292493466656,-0.17453292493466654,0.0,0.0,0.0,0.0,0.0,0.0,0.0,0.0,-0.2,0.0,0.1,0.00012304663467454166,0.00012304663467454166,0.0,0.0,0.0,0.0,0.0,0.0,0.00012304663467454166,0.0002460932693490833,0.0,0.00012304663467454166,0.0,0.0,0.0,0.0,283.0,286.0,283.0,292.0,0.0,0.0,0.0,0.0,283.0,287.0,284.0,292.0,0.0,0.0,0.0,0.0,0,0,0,0,0,0,0,0,2910.603,3544.5,7209.208,0,0.0,0.0,0.0,0.0,0.0,0.0,2.38,10.43,22.97,0.0,0.0,0.0,0.0,0.0,0.0,0.0,0.0,2.0,0.0,0.0,0.0,0.0,0.0,0.0,0.0,0.0,0.0,0.0,0.0,0.0,0.0,0.0,0.0,0.0,0.0,0.0,0.0,0.0,0.0,0.0,0.0,0.0,0.0,0.0,0.0,0.0,0.0,0.0,0.0,0.0,0.0,0.0,0.0,0.0,0.0,0.0,0.0,0.0,0.0,0.0,0.0,0.0,0.0,0.0,0.0,0.0,0.0,0.0,0.0,0.0,0.0,0.0,0.0,0.0,0.0,0.0,0.0,0.0,0.0,0.0,0.0,0.0,0.0,0.0,0.0,0.0,0.0,0.0,0.0,0.0,0.0,0.0,0.0,0.0,0.0,0.0,0.0,1,0,0,1,1,87.435,0.087435
