"Product","Blackbox flight data recorder by Nicholas Sherlock"
"firmwareType",5
"firmware","5.0"
"firmwarePatch",0
"firmwareVersion","5.0.0"
"Firmware revision","Indiflight 5.0.0 (d308aba3b) STM32H743"
"Firmware date","Oct 24 2024 15:07:35"
"Board information","MTKS MATEKH743"
"Log start datetime","0000-01-01T00:00:00.000+00:00"
"Craft name",""
"frameIntervalI",64
"frameIntervalPNum",1
"frameIntervalPDenom",4
"minthrottle",1070
"maxthrottle",2000
"gyroScale",1.7453292519943295e-8
"motorOutput","158,2047"
"acc_1G",2048
"vbatscale",110
"vbatmincellvoltage",330
"vbatwarningcellvoltage",350
"vbatmaxcellvoltage",430
"vbatref",1585
"currentMeterOffset",0
"currentMeterScale",280
"looptime",125
"gyro_sync_denom",1
"pid_process_denom",4
"thrMid",50
"thrExpo",0
"tpa_mode",1
"tpa_rate",65
"tpa_breakpoint",1350
"rc_rates","7,7,7"
"rc_expo","0,0,0"
"rates","67,67,67"
"rate_limits","1998,1998,1998"
"rollPID","45,80,40,30,120"
"pitchPID","47,84,46,34,125"
"yawPID","45,80,0,0,120"
"levelPID","50,50,75"
"magPID","40,,"
"d_min_gain",37
"d_min_advance",20
"dterm_filter_type",0
"dterm_lpf_hz",0
"dterm_lpf_dyn_hz","75,150"
"dterm_filter2_type",0
"dterm_lpf2_hz",0
"yaw_lpf_hz",0
"dterm_notch_hz",0
"dterm_notch_cutoff",0
"itermWindupPointPercent",85
"iterm_relax",1
"iterm_relax_type",1
"iterm_relax_cutoff",15
"pidAtMinThrottle",1
"anti_gravity_gain",80
"abs_control_gain",0
"use_integrated_yaw",0
"ff_transition",0
"ff_averaging",0
"ff_smooth_factor",25
"ff_jitter_factor",7
"ff_boost",15
"ff_max_rate_limit",90
"yawRateAccelLimit",0
"rateAccelLimit",0
"pidSumLimit",500
"pidSumLimitYaw",400
"deadband",0
"yaw_deadband",0
"gyro_lpf",0
"gyro_soft_type",0
"gyro_lowpass_hz",100
"gyro_lowpass_dyn_hz","0,250"
"gyro_soft2_type",0
"gyro_lowpass2_hz",0
"gyro_notch_hz","0,0"
"gyro_notch_cutoff","0,0"
"gyro_to_use",0
"dyn_notch_max_hz",600
"dyn_notch_count",0
"dyn_notch_q",500
"dyn_notch_min_hz",100
"dshot_bidir",1
"motor_poles",14
"gyro_rpm_notch_harmonics",3
"gyro_rpm_notch_q",500
"gyro_rpm_notch_min",60
"rpm_filter_fade_range_hz",50
"rpm_notch_lpf",150
"acc_lpf_hz",2500
"acc_hardware",0
"gyro_cal_on_first_arm",0
"airmode_activate_throttle",25
"serialrx_provider",2
"unsynced_fast_pwm",0
"fast_pwm_protocol",7
"motor_pwm_rate",480
"digitalIdleOffset",550
"debug_mode",0
"features",272892936
"rc_smoothing_mode",1
"rc_smoothing_auto_factor_setpoint",30
"rc_smoothing_auto_factor_throttle",30
"rc_smoothing_feedforward_hz",0
"rc_smoothing_setpoint_hz",0
"rc_smoothing_throttle_hz",0
"rc_smoothing_debug_axis",0
"rc_smoothing_active_cutoffs_ff_sp_thr","42,42,42"
"rc_smoothing_rx_average",9011
"rates_type",3
"fields_disabled_mask",581
"blackbox_high_resolution",1
"vbat_sag_compensation",0
"dynamic_idle_min_rpm",0
"dyn_idle_p_gain",50
"dyn_idle_i_gain",50
"dyn_idle_d_gain",50
"dyn_idle_max_increase",150
"simplified_pids_mode",2
"simplified_master_multiplier",100
"simplified_i_gain",100
"simplified_d_gain",100
"simplified_pi_gain",100
"simplified_dmax_gain",100
"simplified_feedforward_gain",100
"simplified_pitch_d_gain",100
"simplified_pitch_pi_gain",100
"simplified_dterm_filter",0
"simplified_dterm_filter_multiplier",100
"simplified_gyro_filter",1
"simplified_gyro_filter_multiplier",40
"motor_output_limit",100
"throttle_limit_type",0
"throttle_limit_percent",100
"throttle_boost",5
"throttle_boost_cutoff",15
"loopIteration","time","rcCommand[0]","rcCommand[1]","rcCommand[2]","rcCommand[3]","vbatLatest","amperageLatest","gyroADC[0]","gyroADC[1]","gyroADC[2]","gyroADCafterRpm[0]","gyroADCafterRpm[1]","gyroADCafterRpm[2]","accSmooth[0]","accSmooth[1]","accSmooth[2]","accADCafterRpm[0]","accADCafterRpm[1]","accADCafterRpm[2]","motor[0]","motor[1]","motor[2]","motor[3]","quat[0]","quat[1]","quat[2]","quat[3]","alpha[0]","alpha[1]","alpha[2]","quatSp[0]","quatSp[1]","quatSp[2]","quatSp[3]","gyroSp[0]","gyroSp[1]","gyroSp[2]","alphaSp[0]","alphaSp[1]","alphaSp[2]","spfSp[0]","spfSp[1]","spfSp[2]","dv[0]","dv[1]","dv[2]","dv[3]","dv[4]","dv[5]","u[0]","u[1]","u[2]","u[3]","u[4]","u[5]","u[6]","u[7]","u_state[0]","u_state[1]","u_state[2]","u_state[3]","u_state[4]","u_state[5]","u_state[6]","u_state[7]","omega[0]","omega[1]","omega[2]","omega[3]","omega[4]","omega[5]","omega[6]","omega[7]","omegaUnfiltered[0]","omegaUnfiltered[1]","omegaUnfiltered[2]","omegaUnfiltered[3]","omegaUnfiltered[4]","omegaUnfiltered[5]","omegaUnfiltered[6]","omegaUnfiltered[7]","omega_dot[0]","omega_dot[1]","omega_dot[2]","omega_dot[3]","omega_dot[4]","omega_dot[5]","omega_dot[6]","omega_dot[7]","pos[0]","pos[1]","pos[2]","extTime","extPos[0]","extPos[1]","extPos[2]","posSp[0]","posSp[1]","posSp[2]","vel[0]","vel[1]","vel[2]","extVel[0]","extVel[1]","extVel[2]","velSp[0]","velSp[1]","velSp[2]","accSp[0]","accSp[1]","accSp[2]","extQuat[0]","extQuat[1]","extQuat[2]","extQuat[3]","ekf_pos[0]","ekf_pos[1]","ekf_pos[2]","ekf_vel[0]","ekf_vel[1]","ekf_vel[2]","ekf_quat[0]","ekf_quat[1]","ekf_quat[2]","ekf_quat[3]","ekf_acc_b[0]","ekf_acc_b[1]","ekf_acc_b[2]","ekf_gyro_b[0]","ekf_gyro_b[1]","ekf_gyro_b[2]","acc_modeled[0]","acc_modeled[1]","acc_modeled[2]","nn_active","flightModeFlags","stateFlags","failsafePhase","rxSignalReceived","rxFlightChannelsValid","heading[0]","heading[1]","heading[2]"
0,140431373,-12,0,0,10000,1581,371,7,0,-3,18,-8,-3,-48,-10,-2043,-154,130,-1897,159,159,158,158,5582,55,-112,5905,1,1,1,8127,0,0,0,-2,0,0,-2,0,1,0,0,0,0,0,0,-3,0,1,2,3,0,0,0,0,0,0,2,1,1,0,0,0,0,0,273,267,276,280,0,0,0,0,272,266,278,278,0,0,0,0,0,0,0,0,0,0,0,0,1595,-3062,-93,140385808,1595,-3062,-96,1500,-3000,0,0,0,1,1,1,-1,-10,6,12,-29,19,41,5592,158,-143,5894,1595,-3062,-93,0,0,1,5582,55,-112,5905,1,0,30,-16,-14,1,-3845,0,0,0,"","","","","",-0.010734703191097553,0.028769628344614783,1.6271006884979196,0,0,0,"","","",NaN,NaN,NaN,NaN
4,140433388,-12,0,0,10000,1581,371,7,-3,-4,12,-7,-1,-46,14,-2046,-177,67,-1799,158,159,158,158,5583,55,-112,5905,1,0,-1,8127,0,0,0,-2,0,0,-2,1,1,0,0,0,0,0,0,-3,1,1,1,3,0,0,0,0,0,0,2,1,1,0,0,0,0,0,273,267,276,280,0,0,0,0,272,269,277,281,0,0,0,0,0,0,0,0,0,0,0,0,1595,-3062,-93,140385808,1595,-3062,-96,1500,-3000,0,0,0,1,1,1,-1,-10,6,12,-29,19,41,5592,158,-143,5894,1595,-3062,-93,0,0,1,5583,55,-112,5905,1,0,30,-16,-14,1,-3845,0,0,0,1,7,0,1,1,-0.010733037392806472,0.02877302162579531,1.627090626023989,0,0,0,"","","",NaN,NaN,NaN,NaN
8,140435403,-12,0,0,10000,1581,371,5,-3,-7,-3,1,-6,-48,31,-2048,-141,261,-1710,158,159,158,158,5583,55,-112,5905,1,-1,-2,8127,0,0,0,-2,0,0,-2,1,2,0,0,0,0,0,0,-3,1,3,1,3,0,0,0,0,0,0,2,2,1,0,0,0,0,0,273,268,276,280,0,0,0,0,274,268,277,280,0,0,0,0,0,0,0,0,0,0,0,0,1595,-3062,-93,140385808,1595,-3062,-96,1500,-3000,0,0,0,1,1,1,-1,-10,6,12,-29,19,41,5592,158,-143,5894,1595,-3062,-93,0,0,1,5583,55,-112,5905,1,0,30,-16,-14,1,-3845,0,0,0,1,7,0,1,1,-0.010733037392806472,0.02877302162579531,1.627090626023989,0,0,0,"","","",NaN,NaN,NaN,NaN
12,140437418,-12,0,0,10000,1583,371,1,-4,-6,-6,-1,-13,-54,55,-2036,-90,-26,-2035,158,159,158,158,5583,56,-112,5905,0,-2,-2,8127,0,0,0,-2,0,0,-1,1,1,0,0,0,0,0,0,-1,1,2,0,2,0,0,0,0,0,0,2,2,1,0,0,0,0,0,273,268,276,280,0,0,0,0,274,268,275,277,0,0,0,0,0,0,0,0,0,0,0,0,1595,-3062,-93,140385808,1595,-3062,-96,1500,-3000,0,0,0,1,1,1,-1,-10,6,12,-29,19,41,5592,158,-143,5894,1595,-3062,-93,0,0,1,5583,56,-112,5905,1,0,30,-16,-14,1,-3845,0,0,0,1,7,0,1,1,-0.010563952840063362,0.02895190447569545,1.6270908138865494,0,0,0,"","","",NaN,NaN,NaN,NaN
16,140439433,-12,0,0,10000,1583,371,6,1,-2,7,3,3,-67,60,-2030,-63,-33,-2280,159,159,158,158,5583,56,-112,5905,0,-2,-2,8127,0,0,0,-2,0,0,-2,0,1,0,0,0,0,0,0,-3,-1,1,2,2,1,0,0,0,0,0,2,2,1,0,0,0,0,0,273,268,276,280,0,0,0,0,274,269,277,281,0,0,0,0,0,0,0,0,0,0,0,0,1595,-3062,-93,140437184,1595,-3063,-96,1500,-3000,0,0,0,1,-2,-7,5,-10,6,12,-29,19,41,5584,197,-180,5899,1595,-3062,-93,0,0,1,5583,56,-112,5905,1,0,30,-16,-14,1,-3845,0,0,0,1,7,0,1,1,-0.010563952840063362,0.02895190447569545,1.6270908138865494,0,0,0,"","","",NaN,NaN,NaN,NaN
20,140441448,-12,0,0,10000,1583,371,2,0,-1,-4,1,-4,-68,57,-2036,-195,21,-1930,158,158,158,158,5583,55,-110,5905,0,-2,-1,8127,0,0,0,-2,0,0,-1,0,0,0,0,0,0,0,0,-1,0,0,1,1,0,0,0,0,0,0,2,2,1,0,0,0,0,0,273,268,277,280,0,0,0,0,274,266,280,278,0,0,0,0,0,0,0,0,0,0,0,0,1595,-3063,-94,140437184,1595,-3063,-96,1500,-3000,0,0,0,1,-2,-7,5,-10,6,12,-29,19,41,5584,197,-180,5899,1595,-3063,-94,0,0,1,5583,55,-110,5905,1,0,31,-24,-34,1,-3845,0,0,0,1,7,0,1,1,-0.010375150190935234,0.028434764732288623,1.6270770107287655,0,0,0,"","","",NaN,NaN,NaN,NaN
24,140443463,-12,0,0,10000,1583,371,9,5,4,23,7,10,-80,43,-2036,245,-86,-2100,160,158,158,158,5583,55,-110,5905,0,-1,-1,8127,0,0,0,-2,0,0,-3,-1,-1,0,0,0,0,0,0,-4,-2,-2,5,1,0,0,0,0,0,0,2,2,1,0,0,0,0,0,273,268,277,280,0,0,0,0,272,268,277,281,0,0,0,0,0,0,0,0,0,0,0,0,1595,-3063,-94,140437184,1595,-3063,-96,1500,-3000,0,0,0,1,-2,-7,5,-10,6,12,-28,19,42,5584,197,-180,5899,1595,-3063,-94,0,0,1,5583,55,-110,5905,1,0,31,-24,-34,1,-3845,0,0,0,1,7,0,1,1,-0.010375150190935234,0.028434764732288623,1.6270770107287655,0,0,0,"","","",NaN,NaN,NaN,NaN
28,140445477,-12,0,0,10000,1583,371,6,6,4,5,11,2,-72,22,-2046,-72,-87,-1813,160,158,158,158,5583,55,-110,5905,0,0,1,8127,0,0,0,-2,0,0,-2,-1,-1,0,0,0,0,0,0,-3,-2,-2,4,1,1,0,0,0,0,0,2,2,1,0,0,0,0,0,273,268,277,280,0,0,0,0,275,268,278,277,0,0,0,0,0,0,0,0,0,0,0,0,1595,-3063,-94,140437184,1595,-3063,-96,1500,-3000,0,0,0,1,-2,-7,5,-10,6,12,-28,19,42,5584,197,-180,5899,1595,-3063,-94,0,0,1,5583,55,-110,5905,1,0,31,-24,-34,1,-3845,0,0,0,1,7,0,1,1,-0.010375150190935234,0.028434764732288623,1.6270770107287655,0,0,0,"","","",NaN,NaN,NaN,NaN
32,140447492,-12,0,0,10000,1583,371,5,9,6,-7,16,8,-73,-2,-2049,164,47,-1929,160,158,158,158,5583,55,-110,5905,0,1,2,8127,0,0,0,-2,0,0,-1,-2,-1,0,0,0,0,0,0,-3,-3,-3,5,0,1,0,0,0,0,0,2,2,1,0,0,0,0,0,273,268,277,280,0,0,0,0,274,268,277,280,0,0,0,0,0,0,0,0,0,0,0,0,1595,-3063,-94,140437184,1595,-3063,-96,1500,-3000,0,0,0,1,-2,-7,5,-10,6,12,-28,19,42,5584,197,-180,5899,1595,-3063,-94,0,0,1,5583,55,-110,5905,1,0,31,-24,-34,1,-3845,0,0,0,1,7,0,1,1,-0.010375150190935234,0.028434764732288623,1.6270770107287655,0,0,0,"","","",NaN,NaN,NaN,NaN
36,140449507,-12,0,0,10000,1583,450,2,9,2,-9,11,-1,-59,-18,-2042,-27,-48,-2467,160,158,159,158,5583,55,-110,5905,0,2,2,8127,0,0,0,-2,0,0,-1,-2,0,0,0,0,0,0,0,-1,-4,-1,4,0,3,0,0,0,0,0,2,1,1,0,0,0,0,0,273,268,277,280,0,0,0,0,274,269,278,281,0,0,0,0,0,0,0,0,0,0,0,0,1595,-3063,-94,140437184,1595,-3063,-96,1500,-3000,0,0,0,1,-2,-7,5,-10,6,12,-28,19,42,5584,197,-180,5899,1595,-3063,-94,0,0,1,5583,55,-110,5905,1,0,31,-24,-34,1,-3845,0,0,0,1,7,0,1,1,-0.010375150190935234,0.028434764732288623,1.6270770107287655,0,0,0,"","","",NaN,NaN,NaN,NaN
40,140451522,-12,0,0,10000,1583,450,3,7,1,-3,10,1,-57,-23,-2038,315,-111,-2465,159,158,159,158,5582,55,-110,5905,0,2,1,8127,0,0,0,-2,0,0,-1,-2,0,0,0,0,0,0,0,-2,-3,0,4,1,2,0,0,0,0,0,2,1,1,0,0,0,0,0,273,268,277,280,0,0,0,0,274,266,278,280,0,0,0,0,0,0,0,0,0,0,0,0,1595,-3063,-94,140437184,1595,-3063,-96,1500,-3000,0,0,0,1,-2,-7,5,-10,6,12,-28,19,42,5584,197,-180,5899,1595,-3063,-94,0,0,1,5582,55,-110,5905,1,0,31,-24,-34,1,-3845,0,0,0,1,7,0,1,1,-0.010376815979362007,0.028431432976088186,1.6270870741006924,0,0,0,"","","",NaN,NaN,NaN,NaN
44,140453537,-12,0,0,10000,1583,450,3,3,-4,6,4,-9,-46,-18,-2041,-28,74,-1896,159,159,159,158,5582,55,-110,5905,-1,1,0,8127,0,0,0,-2,0,0,-1,-1,1,0,0,0,0,0,0,-2,-1,2,2,2,2,0,0,0,0,0,2,1,1,0,0,0,0,0,273,268,277,280,0,0,0,0,272,269,277,281,0,0,0,0,0,0,0,0,0,0,0,0,1595,-3063,-94,140437184,1595,-3063,-96,1500,-3000,0,0,0,1,-2,-7,5,-10,6,12,-29,19,42,5584,197,-180,5899,1595,-3063,-94,0,0,1,5582,55,-110,5905,1,0,31,-24,-34,1,-3845,0,0,0,1,7,0,1,1,-0.010376815979362007,0.028431432976088186,1.6270870741006924,0,0,0,"","","",NaN,NaN,NaN,NaN
48,140455552,-12,0,0,10000,1583,450,3,-1,-4,-4,-4,1,-51,0,-2037,-7,112,-2070,158,159,158,158,5583,55,-110,5905,-1,1,-1,8127,0,0,0,-2,0,0,-1,0,1,0,0,0,0,0,0,-2,1,1,1,2,0,0,0,0,0,0,2,1,1,0,0,0,0,0,274,268,277,280,0,0,0,0,272,268,275,280,0,0,0,0,0,0,0,0,0,0,0,0,1595,-3063,-94,140437184,1595,-3063,-96,1500,-3000,0,0,0,1,-2,-7,5,-10,6,12,-29,19,42,5584,197,-180,5899,1595,-3063,-94,0,0,1,5583,55,-110,5905,1,0,31,-24,-34,1,-3845,0,0,0,1,7,0,1,1,-0.010375150190935234,0.028434764732288623,1.6270770107287655,0,0,0,"","","",NaN,NaN,NaN,NaN
52,140457566,-12,0,0,10000,1582,450,3,0,-7,-8,13,-8,-52,23,-2028,-188,-52,-2254,158,159,158,158,5583,55,-110,5905,-1,-1,-2,8127,0,0,0,-2,0,0,-1,0,2,0,0,0,0,0,0,-2,0,3,1,3,1,0,0,0,0,0,2,2,1,0,0,0,0,0,274,268,277,280,0,0,0,0,274,268,277,280,0,0,0,0,0,0,0,0,0,0,0,0,1595,-3063,-94,140437184,1595,-3063,-96,1500,-3000,0,0,0,1,-2,-7,5,-10,6,12,-29,19,42,5584,197,-180,5899,1595,-3063,-94,0,0,1,5583,55,-110,5905,1,0,31,-24,-34,1,-3845,0,0,0,1,7,0,1,1,-0.010375150190935234,0.028434764732288623,1.6270770107287655,0,0,0,"","","",NaN,NaN,NaN,NaN
56,140459581,-12,0,0,10000,1582,450,0,-5,-4,-16,16,-7,-60,44,-2034,74,76,-1665,158,159,158,158,5583,55,-110,5905,-1,-2,-2,8127,0,0,0,-2,0,0,0,1,1,0,0,0,0,0,0,-1,2,2,0,2,0,0,0,0,0,0,2,2,1,0,0,0,0,0,274,268,277,280,0,0,0,0,274,269,277,280,0,0,0,0,0,0,0,0,0,0,0,0,1595,-3063,-93,140437184,1595,-3063,-96,1500,-3000,0,0,0,1,-2,-7,5,-10,6,12,-29,19,42,5584,197,-180,5899,1595,-3063,-93,0,0,1,5583,55,-110,5905,1,0,31,-24,-34,1,-3845,0,0,0,1,7,0,1,1,-0.010375150190935234,0.028434764732288623,1.6270770107287655,0,0,0,"","","",NaN,NaN,NaN,NaN
60,140461596,-12,0,0,10000,1582,450,-1,-3,-4,-14,5,-5,-64,58,-2021,-264,83,-2119,158,159,158,158,5583,55,-110,5905,-2,-2,-2,8127,0,0,0,-2,0,0,0,1,1,0,0,0,0,0,0,0,1,1,0,2,1,1,0,0,0,0,2,2,1,0,0,0,0,0,274,268,277,280,0,0,0,0,272,268,280,281,0,0,0,0,0,0,0,0,0,0,0,0,1595,-3063,-93,140437184,1595,-3063,-96,1500,-3000,0,0,0,1,-2,-7,5,-10,6,12,-29,19,42,5584,197,-180,5899,1595,-3063,-93,0,0,1,5583,55,-110,5905,1,0,31,-24,-34,1,-3845,0,0,0,1,7,0,1,1,-0.010375150190935234,0.028434764732288623,1.6270770107287655,0,0,0,"","","",NaN,NaN,NaN,NaN
64,140463611,-12,0,0,10000,1582,450,5,-2,3,6,-2,7,-75,61,-2020,191,-171,-2085,158,159,158,158,5583,55,-110,5905,-1,-2,-1,8127,0,0,0,-2,0,0,-2,0,-1,0,0,0,0,0,0,-3,1,-1,0,3,0,0,0,0,0,0,2,2,1,0,0,0,0,0,274,268,277,280,0,0,0,0,277,269,275,280,0,0,0,0,0,0,0,0,0,0,0,0,1595,-3063,-93,140437184,1595,-3063,-96,1500,-3000,0,0,0,1,-2,-7,5,-10,6,12,-29,19,42,5584,197,-180,5899,1595,-3063,-93,0,0,1,5583,55,-110,5905,1,0,31,-24,-34,1,-3845,0,0,0,1,7,0,1,1,-0.010375150190935234,0.028434764732288623,1.6270770107287655,0,0,0,"","","",NaN,NaN,NaN,NaN
68,140465626,-12,0,0,10000,1582,450,3,3,1,5,13,2,-74,48,-2023,-199,-79,-2076,159,158,158,158,5583,56,-110,5905,-1,-2,0,8127,0,0,0,-2,0,0,-1,-1,0,0,0,0,0,0,0,-2,-1,0,3,1,0,0,0,0,0,0,2,2,1,0,0,0,0,0,274,268,277,280,0,0,0,0,272,269,277,281,0,0,0,0,0,0,0,0,0,0,0,0,1595,-3063,-93,140437184,1595,-3063,-96,1500,-3000,0,0,0,1,-2,-7,5,-10,6,12,-28,19,42,5584,197,-180,5899,1595,-3063,-93,0,0,1,5583,56,-110,5905,1,0,31,-24,-34,1,-3845,0,0,0,1,7,0,1,1,-0.010206066386315818,0.02861364770893749,1.6270771985454535,0,0,0,"","","",NaN,NaN,NaN,NaN
72,140467640,-12,0,0,10000,1582,450,2,1,8,0,0,4,-73,28,-2039,122,-16,-1817,159,158,158,158,5583,55,-110,5905,-1,-1,2,8127,0,0,0,-2,0,0,-1,0,-2,0,0,0,0,0,0,-1,0,-3,2,0,0,1,0,0,0,0,2,2,1,0,0,0,0,0,274,268,277,280,0,0,0,0,274,269,277,280,0,0,0,0,0,0,0,0,0,0,0,0,1595,-3063,-93,140437184,1595,-3063,-96,1500,-3000,0,0,0,1,-2,-7,5,-10,6,12,-28,19,42,5584,197,-180,5899,1595,-3063,-93,0,0,1,5583,55,-110,5905,1,0,31,-24,-34,1,-3845,0,0,0,1,7,0,1,1,-0.010375150190935234,0.028434764732288623,1.6270770107287655,0,0,0,"","","",NaN,NaN,NaN,NaN
76,140469655,-12,0,0,10000,1582,332,5,7,6,8,12,14,-67,7,-2041,-242,-18,-2171,160,158,158,158,5583,55,-110,5905,-1,0,2,8127,0,0,0,-2,0,0,-2,-2,-1,0,0,0,0,0,0,-3,-3,-3,4,0,1,0,0,0,0,0,2,1,1,0,0,0,0,0,274,268,277,280,0,0,0,0,274,271,278,280,0,0,0,0,0,0,0,0,0,0,0,0,1595,-3063,-93,140437184,1595,-3063,-96,1500,-3000,0,0,0,1,-2,-7,5,-10,6,12,-28,19,42,5584,197,-180,5899,1595,-3063,-93,0,0,1,5583,55,-110,5905,1,0,31,-24,-34,1,-3845,0,0,0,1,7,0,1,1,-0.010375150190935234,0.028434764732288623,1.6270770107287655,0,0,0,"","","",NaN,NaN,NaN,NaN
80,140471670,-12,0,0,10000,1582,332,1,10,7,-4,18,1,-59,-11,-2046,0,-89,-1826,160,158,159,158,5582,55,-110,5905,-1,2,3,8127,0,0,0,-2,0,0,-1,-2,-2,0,0,0,0,0,0,-1,-4,-3,5,0,3,1,0,0,0,0,2,1,1,0,0,0,0,0,274,268,277,280,0,0,0,0,274,268,280,277,0,0,0,0,0,0,0,0,0,0,0,0,1595,-3063,-93,140437184,1595,-3063,-96,1500,-3000,0,0,0,1,-2,-7,5,-10,6,12,-28,19,42,5584,197,-180,5899,1595,-3063,-93,0,0,1,5582,55,-110,5905,1,0,31,-24,-34,1,-3845,0,0,0,1,7,0,1,1,-0.010376815979362007,0.028431432976088186,1.6270870741006924,0,0,0,"","","",NaN,NaN,NaN,NaN
84,140473685,-12,0,0,10000,1582,332,2,5,1,0,4,2,-54,-19,-2050,-10,82,-1779,159,158,158,158,5582,55,-110,5905,-1,2,2,8127,0,0,0,-2,0,0,-1,-1,0,0,0,0,0,0,0,-2,-2,0,3,0,1,0,0,0,0,0,2,1,1,0,0,0,0,0,274,268,277,280,0,0,0,0,274,271,277,281,0,0,0,0,0,0,0,0,0,0,0,0,1595,-3063,-93,140437184,1595,-3063,-96,1500,-3000,0,0,0,1,-2,-7,5,-10,6,12,-28,19,42,5584,197,-180,5899,1595,-3063,-93,0,0,1,5582,55,-110,5905,1,0,31,-24,-34,1,-3845,0,0,0,1,7,0,1,1,-0.010376815979362007,0.028431432976088186,1.6270870741006924,0,0,0,"","","",NaN,NaN,NaN,NaN
88,140475700,-12,0,0,10000,1582,332,0,2,-1,6,-14,-5,-47,-18,-2050,139,161,-2077,158,158,158,158,5582,55,-109,5905,-1,2,2,8127,0,0,0,-2,0,0,0,0,0,0,0,0,0,0,0,-1,-1,0,1,1,1,0,0,0,0,0,2,1,1,0,0,0,0,0,274,268,277,280,0,0,0,0,272,268,277,281,0,0,0,0,0,0,0,0,0,0,0,0,1595,-3063,-93,140437184,1595,-3063,-96,1500,-3000,0,0,0,1,-2,-7,5,-10,6,12,-29,19,42,5584,197,-180,5899,1595,-3063,-93,0,0,1,5582,55,-109,5905,1,0,31,-24,-34,1,-3845,0,0,0,1,7,0,1,1,-0.010197877136082254,0.02826233744571368,1.6270803526987418,0,0,0,"","","",NaN,NaN,NaN,NaN
92,140477714,-12,0,0,10000,1583,332,2,-4,-4,12,-27,-1,-45,-3,-2056,-74,138,-2207,158,159,158,158,5582,55,-109,5905,-1,1,0,8127,0,0,0,-2,0,0,-1,1,1,0,0,0,0,0,0,-2,2,1,0,2,0,0,0,0,0,0,2,1,1,0,0,0,0,0,274,268,277,280,0,0,0,0,274,268,280,280,0,0,0,0,0,0,0,0,0,0,0,0,1595,-3063,-93,140437184,1595,-3063,-96,1500,-3000,0,0,0,1,-2,-7,5,-10,6,12,-29,19,42,5584,197,-180,5899,1595,-3063,-93,0,0,1,5582,55,-109,5905,1,0,31,-24,-34,1,-3845,0,0,0,1,7,0,1,1,-0.010197877136082254,0.02826233744571368,1.6270803526987418,0,0,0,"","","",NaN,NaN,NaN,NaN
96,140479729,-12,0,0,10000,1583,332,-5,-4,-6,-3,-7,-7,-42,18,-2051,-157,55,-2118,158,159,159,159,5582,55,-109,5905,-2,0,-1,8127,0,0,0,-2,0,0,1,1,1,0,0,0,0,0,0,1,2,2,0,2,2,2,0,0,0,0,2,1,1,0,0,0,0,0,274,268,278,280,0,0,0,0,275,269,278,277,0,0,0,0,0,0,0,0,0,0,0,0,1595,-3063,-93,140437184,1595,-3063,-96,1500,-3000,0,0,0,1,-2,-7,5,-10,6,12,-29,19,42,5584,197,-180,5899,1595,-3063,-93,0,0,1,5582,55,-109,5905,1,0,31,-24,-34,1,-3845,0,0,0,1,7,0,1,1,-0.010197877136082254,0.02826233744571368,1.6270803526987418,0,0,0,"","","",NaN,NaN,NaN,NaN
100,140481744,-12,0,0,10000,1583,332,0,-6,-4,-5,-9,2,-52,41,-2045,-103,10,-2078,158,159,158,159,5583,55,-109,5905,-1,-1,-2,8127,0,0,0,-2,0,0,0,1,1,0,0,0,0,0,0,-1,2,2,0,3,0,2,0,0,0,0,2,1,1,0,0,0,0,0,274,268,278,280,0,0,0,0,274,268,277,281,0,0,0,0,0,0,0,0,0,0,0,0,1595,-3063,-93,140437184,1595,-3063,-96,1500,-3000,0,0,0,1,-2,-7,5,-10,6,12,-29,19,42,5584,197,-180,5899,1595,-3063,-93,0,0,1,5583,55,-109,5905,1,0,31,-24,-34,1,-3845,0,0,0,1,7,0,1,1,-0.010196211352549028,0.028265639371707132,1.6270702905401788,0,0,0,"","","",NaN,NaN,NaN,NaN
104,140483759,-12,0,0,10000,1583,332,-2,-2,-6,-3,9,-9,-56,56,-2032,-243,-16,-2137,158,159,158,158,5583,55,-110,5905,-2,-3,-2,8127,0,0,0,-2,0,0,0,0,1,0,0,0,0,0,0,0,1,2,0,2,1,1,0,0,0,0,2,2,1,0,0,0,0,0,274,268,278,280,0,0,0,0,272,269,280,281,0,0,0,0,0,0,0,0,0,0,0,0,1595,-3063,-93,140437184,1595,-3063,-96,1500,-3000,0,0,0,1,-2,-7,5,-10,6,12,-29,19,42,5584,197,-180,5899,1595,-3063,-93,0,0,1,5583,55,-110,5905,1,0,31,-24,-34,1,-3845,0,0,0,1,7,0,1,1,-0.010375150190935234,0.028434764732288623,1.6270770107287655,0,0,0,"","","",NaN,NaN,NaN,NaN
108,140485774,-12,0,0,10000,1583,332,-2,-8,0,-7,-17,-2,-67,62,-2036,55,-76,-1842,158,159,158,159,5583,55,-110,5905,-2,-3,-2,8127,0,0,0,-2,0,0,0,2,0,0,0,0,0,0,0,0,3,0,0,3,0,3,0,0,0,0,2,2,1,0,0,0,0,0,274,268,278,280,0,0,0,0,274,269,278,280,0,0,0,0,0,0,0,0,0,0,0,0,1595,-3063,-93,140437184,1595,-3063,-96,1500,-3000,0,0,0,1,-2,-7,5,-10,6,12,-29,19,42,5584,197,-180,5899,1595,-3063,-93,0,0,1,5583,55,-110,5905,1,0,31,-24,-34,1,-3845,0,0,0,1,7,0,1,1,-0.010375150190935234,0.028434764732288623,1.6270770107287655,0,0,0,"","","",NaN,NaN,NaN,NaN
112,140487789,-12,0,0,10000,1583,332,-1,1,1,5,10,-2,-69,58,-2029,-242,-58,-2092,158,158,158,158,5583,56,-110,5904,-2,-3,-1,8127,0,0,0,-2,0,0,0,0,0,0,0,0,0,0,0,0,0,0,0,0,0,0,0,0,0,0,2,2,1,1,0,0,0,0,274,268,278,280,0,0,0,0,275,268,277,281,0,0,0,0,0,0,0,0,0,0,0,0,1595,-3063,-94,140484544,1595,-3063,-97,1500,-3000,0,0,0,1,-1,-1,-9,-10,6,12,-29,19,42,5594,162,-190,5890,1595,-3063,-94,0,0,1,5583,56,-110,5904,1,0,33,-28,-29,2,-3845,0,0,0,1,7,0,1,1,-0.010202733854916305,0.028611950144362457,1.6267295082444355,0,0,0,"","","",NaN,NaN,NaN,NaN
116,140489803,-12,0,0,10000,1583,264,5,2,5,10,2,7,-74,42,-2034,76,-187,-2103,159,158,158,158,5583,56,-110,5904,0,-2,0,8127,0,0,0,-2,0,0,-2,0,-1,0,0,0,0,0,0,-3,-1,-2,3,1,0,0,0,0,0,0,2,2,1,1,0,0,0,0,274,268,278,280,0,0,0,0,274,268,277,277,0,0,0,0,0,0,0,0,0,0,0,0,1595,-3063,-94,140484544,1595,-3063,-97,1500,-3000,0,0,0,1,-1,-1,-9,-10,6,12,-28,19,43,5594,162,-190,5890,1595,-3063,-94,0,0,1,5583,56,-110,5904,1,0,33,-28,-29,2,-3845,0,0,0,1,7,0,1,1,-0.010202733854916305,0.028611950144362457,1.6267295082444355,0,0,0,"","","",NaN,NaN,NaN,NaN
120,140491819,-12,0,0,10000,1583,264,4,4,5,10,12,2,-66,17,-2043,-184,-68,-1897,159,158,158,158,5583,56,-110,5905,0,-1,1,8127,0,0,0,-2,0,0,-1,-1,-1,0,0,0,0,0,0,-2,-2,-2,2,0,0,0,0,0,0,0,2,1,1,1,0,0,0,0,274,268,278,280,0,0,0,0,272,268,275,280,0,0,0,0,0,0,0,0,0,0,0,0,1595,-3063,-94,140484544,1595,-3063,-97,1500,-3000,0,0,0,1,-1,-1,-9,-10,6,12,-28,19,43,5594,162,-190,5890,1595,-3063,-94,0,0,1,5583,56,-110,5905,1,0,33,-28,-29,2,-3845,0,0,0,1,7,0,1,1,-0.010206066386315818,0.02861364770893749,1.6270771985454535,0,0,0,"","","",NaN,NaN,NaN,NaN
124,140493833,-12,0,0,10000,1583,264,2,3,6,2,3,7,-60,-2,-2049,0,114,-1787,159,158,158,158,5583,56,-110,5905,0,0,2,8127,0,0,0,-2,0,0,-1,-1,-1,0,0,0,0,0,0,-2,-1,-2,2,0,0,0,0,0,0,0,2,1,1,1,0,0,0,0,274,268,278,280,0,0,0,0,272,269,278,281,0,0,0,0,0,0,0,0,0,0,0,0,1595,-3063,-94,140484544,1595,-3063,-97,1500,-3000,0,0,0,1,-1,-1,-9,-10,6,12,-28,19,43,5594,162,-190,5890,1595,-3063,-94,0,0,1,5583,56,-110,5905,1,0,33,-28,-29,2,-3845,0,0,0,1,7,0,1,1,-0.010206066386315818,0.02861364770893749,1.6270771985454535,0,0,0,"","","",NaN,NaN,NaN,NaN
128,140495848,-12,0,0,10000,1583,264,2,4,2,-2,6,-2,-49,-14,-2044,-18,80,-2075,159,158,158,158,5583,56,-109,5905,0,1,2,8127,0,0,0,-2,0,0,-1,-1,-1,0,0,0,0,0,0,-2,-2,-1,2,0,0,0,0,0,0,0,2,1,1,0,0,0,0,0,274,268,278,280,0,0,0,0,274,268,278,278,0,0,0,0,0,0,0,0,0,0,0,0,1595,-3063,-94,140484544,1595,-3063,-97,1500,-3000,0,0,0,1,-1,-1,-9,-10,6,12,-28,19,43,5594,162,-190,5890,1595,-3063,-94,0,0,1,5583,56,-109,5905,1,0,33,-28,-29,2,-3845,0,0,0,1,7,0,1,1,-0.010027126520614299,0.02844451962432195,1.6270704749807454,0,0,0,"","","",NaN,NaN,NaN,NaN
132,140497863,-25,0,0,10000,1581,264,-5,7,2,-17,22,-5,-40,-16,-2036,-151,-156,-2435,159,158,159,158,5583,56,-109,5905,0,1,2,8127,0,0,0,-2,0,0,1,-2,0,0,0,0,0,0,0,1,-3,-1,3,0,3,1,0,0,0,0,2,1,1,0,0,0,0,0,274,268,278,280,0,0,0,0,274,266,277,280,0,0,0,0,0,0,0,0,0,0,0,0,1595,-3063,-94,140484544,1595,-3063,-97,1500,-3000,0,0,0,1,-1,-1,-9,-10,6,12,-28,19,43,5594,162,-190,5890,1595,-3063,-94,0,0,1,5583,56,-109,5905,1,0,33,-28,-29,2,-3845,0,0,0,1,7,0,1,1,-0.010027126520614299,0.02844451962432195,1.6270704749807454,0,0,0,"","","",NaN,NaN,NaN,NaN
136,140499878,-25,0,0,10000,1581,264,-3,-3,-2,-8,2,-2,-36,-7,-2051,-56,91,-1721,158,159,158,158,5583,56,-109,5905,-1,0,0,8127,0,0,0,-2,0,0,0,1,1,0,0,0,0,0,0,0,1,1,0,2,0,1,0,0,0,0,2,1,1,1,0,0,0,0,274,268,278,280,0,0,0,0,274,269,278,280,0,0,0,0,0,0,0,0,0,0,0,0,1595,-3063,-94,140484544,1595,-3063,-97,1500,-3000,0,0,0,1,-1,-1,-9,-10,6,12,-29,19,43,5594,162,-190,5890,1595,-3063,-94,0,0,1,5583,56,-109,5905,1,0,33,-28,-29,2,-3845,0,0,0,1,7,0,1,1,-0.010027126520614299,0.02844451962432195,1.6270704749807454,0,0,0,"","","",NaN,NaN,NaN,NaN
140,140501892,-25,0,0,10000,1581,264,-2,-11,-4,13,-27,-9,-39,11,-2048,46,205,-1628,158,160,158,159,5583,56,-110,5905,-2,-1,0,8127,0,0,0,-3,0,0,0,3,1,0,0,0,0,0,0,0,5,2,0,5,0,4,0,0,0,0,2,1,1,1,0,0,0,0,274,268,278,280,0,0,0,0,272,268,278,280,0,0,0,0,0,0,0,0,0,0,0,0,1595,-3063,-94,140484544,1595,-3063,-97,1500,-3000,0,0,0,1,-1,-1,-9,-10,6,12,-29,19,43,5594,162,-190,5890,1595,-3063,-94,0,0,1,5583,56,-110,5905,1,0,33,-28,-29,2,-3845,0,0,0,1,7,0,1,1,-0.010206066386315818,0.02861364770893749,1.6270771985454535,0,0,0,"","","",NaN,NaN,NaN,NaN
144,140503907,-25,0,0,10000,1581,264,8,-13,-5,36,-24,-1,-49,35,-2048,55,44,-1944,158,161,158,159,5583,56,-110,5905,-1,-2,-1,8127,0,0,0,-3,0,0,-3,3,1,0,0,0,0,0,0,-4,5,2,0,8,0,4,0,0,0,0,1,1,1,1,0,0,0,0,274,268,278,280,0,0,0,0,274,269,277,281,0,0,0,0,0,0,0,0,0,0,0,0,1595,-3063,-94,140484544,1595,-3063,-97,1500,-3000,0,0,0,1,-1,-1,-9,-10,6,12,-29,19,43,5594,162,-190,5890,1595,-3063,-94,0,0,1,5583,56,-110,5905,1,0,33,-28,-29,2,-3845,0,0,0,1,7,0,1,1,-0.010206066386315818,0.02861364770893749,1.6270771985454535,0,0,0,"","","",NaN,NaN,NaN,NaN
148,140505922,-12,0,0,10000,1581,264,-2,-13,-3,4,-8,-6,-55,50,-2054,-269,-247,-1531,158,160,158,160,5583,56,-110,5905,-2,-4,-1,8127,0,0,0,-3,0,0,0,3,1,0,0,0,0,0,0,0,5,1,0,5,0,4,0,0,0,0,1,2,1,1,0,0,0,0,274,268,278,280,0,0,0,0,272,268,277,280,0,0,0,0,0,0,0,0,0,0,0,0,1595,-3063,-94,140484544,1595,-3063,-97,1500,-3000,0,0,0,1,-1,-1,-9,-10,6,12,-29,19,43,5594,162,-190,5890,1595,-3063,-94,0,0,1,5583,56,-110,5905,1,0,33,-28,-29,2,-3845,0,0,0,1,7,0,1,1,-0.010206066386315818,0.02861364770893749,1.6270771985454535,0,0,0,"","","",NaN,NaN,NaN,NaN
152,140507937,-12,0,0,10000,1581,264,0,-12,-1,5,-11,-3,-73,58,-2053,-52,77,-1811,158,160,158,159,5583,56,-110,5905,-2,-4,-1,8127,0,0,0,-3,0,0,-1,3,0,0,0,0,0,0,0,-1,5,0,0,5,0,3,0,0,0,0,1,2,1,1,0,0,0,0,274,268,278,280,0,0,0,0,274,268,277,280,0,0,0,0,0,0,0,0,0,0,0,0,1595,-3063,-94,140484544,1595,-3063,-97,1500,-3000,0,0,0,1,-1,-1,-9,-10,6,12,-29,19,43,5594,162,-190,5890,1595,-3063,-94,0,0,1,5583,56,-110,5905,1,0,33,-28,-29,2,-3845,0,0,0,1,7,0,1,1,-0.010206066386315818,0.02861364770893749,1.6270771985454535,0,0,0,"","","",NaN,NaN,NaN,NaN
156,140509952,-12,0,0,10000,1581,457,4,-5,3,5,-4,7,-78,55,-2044,-73,-91,-1998,159,159,158,159,5583,56,-110,5905,0,-3,-1,8127,0,0,0,-3,0,0,-1,1,-1,0,0,0,0,0,0,-3,2,-1,2,4,0,2,0,0,0,0,1,2,1,1,0,0,0,0,274,268,278,280,0,0,0,0,274,269,280,281,0,0,0,0,0,0,0,0,0,0,0,0,1595,-3063,-94,140484544,1595,-3063,-97,1500,-3000,0,0,0,1,-1,-1,-9,-10,6,12,-29,19,43,5594,162,-190,5890,1595,-3063,-94,0,0,1,5583,56,-110,5905,1,0,33,-28,-29,2,-3845,0,0,0,1,7,0,1,1,-0.010206066386315818,0.02861364770893749,1.6270771985454535,0,0,0,"","","",NaN,NaN,NaN,NaN
160,140511967,-12,0,0,10000,1581,457,2,-5,4,15,-14,6,-81,39,-2043,117,22,-2073,159,159,158,159,5583,56,-110,5905,0,-2,0,8127,0,0,0,-2,0,0,-1,1,-1,0,0,0,0,0,0,-2,2,-2,2,3,0,2,0,0,0,0,1,2,1,1,0,0,0,0,274,268,278,280,0,0,0,0,272,269,278,280,0,0,0,0,0,0,0,0,0,0,0,0,1595,-3063,-94,140484544,1595,-3063,-97,1500,-3000,0,0,0,1,-1,-1,-9,-10,6,12,-28,19,43,5594,162,-190,5890,1595,-3063,-94,0,0,1,5583,56,-110,5905,1,0,33,-28,-29,2,-3845,0,0,0,1,7,0,1,1,-0.010206066386315818,0.02861364770893749,1.6270771985454535,0,0,0,"","","",NaN,NaN,NaN,NaN
164,140513981,-12,0,0,10000,1581,457,2,-3,5,10,-12,9,-70,20,-2055,-177,54,-1886,159,159,158,159,5583,56,-110,5905,0,-1,1,8127,0,0,0,-2,0,0,-1,1,-1,0,0,0,0,0,0,-2,1,-2,2,2,0,2,0,0,0,0,1,2,0,1,0,0,0,0,274,268,278,280,0,0,0,0,272,269,277,281,0,0,0,0,0,0,0,0,0,0,0,0,1595,-3063,-94,140484544,1595,-3063,-97,1500,-3000,0,0,0,1,-1,-1,-9,-10,6,12,-28,19,43,5594,162,-190,5890,1595,-3063,-94,0,0,1,5583,56,-110,5905,1,0,33,-28,-29,2,-3845,0,0,0,1,7,0,1,1,-0.010206066386315818,0.02861364770893749,1.6270771985454535,0,0,0,"","","",NaN,NaN,NaN,NaN
168,140515996,-12,0,0,10000,1581,457,6,4,5,13,-5,4,-67,0,-2052,71,63,-2335,159,158,158,158,5583,56,-110,5905,1,1,2,8127,0,0,0,-2,0,0,-2,-1,-1,0,0,0,0,0,0,-3,-2,-2,4,0,0,0,0,0,0,0,1,2,0,1,0,0,0,0,274,268,278,280,0,0,0,0,274,268,278,280,0,0,0,0,0,0,0,0,0,0,0,0,1595,-3063,-94,140484544,1595,-3063,-97,1500,-3000,0,0,0,1,-1,-1,-9,-10,6,12,-28,19,43,5594,162,-190,5890,1595,-3063,-94,0,0,1,5583,56,-110,5905,1,0,33,-28,-29,2,-3845,0,0,0,1,7,0,1,1,-0.010206066386315818,0.02861364770893749,1.6270771985454535,0,0,0,"","","",NaN,NaN,NaN,NaN
172,140518011,-12,0,0,10000,1580,457,1,4,4,-6,2,2,-55,-14,-2047,-24,-197,-2281,159,158,158,158,5583,56,-110,5905,2,2,2,8127,0,0,0,-2,0,0,-1,-1,-1,0,0,0,0,0,0,-1,-2,-1,2,0,1,0,0,0,0,0,2,2,0,1,0,0,0,0,274,268,278,280,0,0,0,0,275,269,278,280,0,0,0,0,0,0,0,0,0,0,0,0,1595,-3063,-94,140484544,1595,-3063,-97,1500,-3000,0,0,0,1,-1,-1,-9,-10,6,12,-28,19,43,5594,162,-190,5890,1595,-3063,-94,0,0,1,5583,56,-110,5905,1,0,33,-28,-29,2,-3845,0,0,0,1,7,0,1,1,-0.010206066386315818,0.02861364770893749,1.6270771985454535,0,0,0,"","","",NaN,NaN,NaN,NaN
176,140520026,-12,0,0,10000,1580,457,-3,1,0,-8,12,0,-52,-18,-2049,64,112,-1913,158,158,158,158,5583,56,-110,5905,1,1,1,8127,0,0,0,-2,0,0,0,0,0,0,0,0,0,0,0,0,0,0,0,0,0,0,0,0,0,0,1,1,0,1,0,0,0,0,274,268,278,280,0,0,0,0,275,271,277,281,0,0,0,0,0,0,0,0,0,0,0,0,1595,-3063,-94,140484544,1595,-3063,-97,1500,-3000,0,0,0,1,-1,-1,-9,-10,6,12,-28,19,43,5594,162,-190,5890,1595,-3063,-94,0,0,1,5583,56,-110,5905,1,0,33,-28,-29,2,-3845,0,0,0,1,7,0,1,1,-0.010206066386315818,0.02861364770893749,1.6270771985454535,0,0,0,"","","",NaN,NaN,NaN,NaN
180,140522041,-12,0,0,10000,1580,457,0,-3,-4,-6,-12,-9,-45,-11,-2048,74,249,-2095,158,158,158,158,5583,56,-110,5905,1,2,0,8127,0,0,0,-2,0,0,-1,1,1,0,0,0,0,0,0,-1,1,1,0,1,0,0,0,0,0,0,1,1,0,1,0,0,0,0,274,268,278,280,0,0,0,0,272,268,278,281,0,0,0,0,0,0,0,0,0,0,0,0,1595,-3063,-94,140484544,1595,-3063,-97,1500,-3000,0,0,0,1,-1,-1,-9,-10,6,12,-29,19,43,5594,162,-190,5890,1595,-3063,-94,0,0,1,5583,56,-110,5905,1,0,33,-28,-29,2,-3845,0,0,0,1,7,0,1,1,-0.010206066386315818,0.02861364770893749,1.6270771985454535,0,0,0,"","","",NaN,NaN,NaN,NaN
184,140524056,-25,0,0,10000,1580,457,-3,-5,-5,3,-16,-8,-48,6,-2041,-34,58,-2375,158,159,158,159,5583,56,-110,5905,0,1,-1,8127,0,0,0,-2,0,0,0,1,1,0,0,0,0,0,0,1,2,2,0,3,1,2,0,0,0,0,1,1,0,1,0,0,0,0,274,268,278,280,0,0,0,0,272,268,277,281,0,0,0,0,0,0,0,0,0,0,0,0,1595,-3063,-94,140484544,1595,-3063,-97,1500,-3000,0,0,0,1,-1,-1,-9,-10,6,12,-29,19,43,5594,162,-190,5890,1595,-3063,-94,0,0,1,5583,56,-110,5905,1,0,33,-28,-29,2,-3845,0,0,0,1,7,0,1,1,-0.010206066386315818,0.02861364770893749,1.6270771985454535,0,0,0,"","","",NaN,NaN,NaN,NaN
188,140526070,-25,0,0,10000,1580,457,-5,-12,-4,1,-33,-2,-51,24,-2045,-257,91,-1935,158,160,158,160,5583,56,-110,5905,-1,-1,-2,8127,0,0,0,-2,0,0,1,3,1,0,0,0,0,0,0,1,5,2,0,5,1,5,0,0,0,0,1,2,0,1,0,0,0,0,274,268,278,280,0,0,0,0,274,269,280,281,0,0,0,0,0,0,0,0,0,0,0,0,1595,-3063,-94,140484544,1595,-3063,-97,1500,-3000,0,0,0,1,-1,-1,-9,-10,6,12,-29,19,43,5594,162,-190,5890,1595,-3063,-94,0,0,1,5583,56,-110,5905,1,0,33,-28,-29,2,-3845,0,0,0,1,7,0,1,1,-0.010206066386315818,0.02861364770893749,1.6270771985454535,0,0,0,"","","",NaN,NaN,NaN,NaN
192,140528085,-25,0,0,10000,1580,457,-2,-12,-3,14,-31,6,-58,42,-2045,-93,283,-1794,158,160,158,160,5583,56,-110,5905,-1,-1,-2,8127,0,0,0,-3,0,0,0,3,1,0,0,0,0,0,0,0,5,1,0,5,0,4,0,0,0,0,1,2,1,1,0,0,0,0,274,268,278,280,0,0,0,0,272,266,277,281,0,0,0,0,0,0,0,0,0,0,0,0,1595,-3063,-94,140484544,1595,-3063,-97,1500,-3000,0,0,0,1,-1,-1,-9,-10,6,12,-29,19,43,5594,162,-190,5890,1595,-3063,-94,0,0,1,5583,56,-110,5905,1,0,33,-28,-29,2,-3845,0,0,0,1,7,0,1,1,-0.010206066386315818,0.02861364770893749,1.6270771985454535,0,0,0,"","","",NaN,NaN,NaN,NaN
196,140530100,-25,0,0,10000,1580,425,0,-10,-3,11,-19,-1,-66,57,-2039,-182,-71,-2118,158,159,158,159,5583,56,-110,5905,-1,-2,-2,8127,0,0,0,-3,0,0,-1,2,1,0,0,0,0,0,0,-1,4,1,0,4,0,3,0,0,0,0,1,2,0,1,0,0,0,0,274,268,278,280,0,0,0,0,275,271,278,281,0,0,0,0,0,0,0,0,0,0,0,0,1595,-3063,-94,140484544,1595,-3063,-97,1500,-3000,0,0,0,1,-1,-1,-9,-10,6,12,-29,19,43,5594,162,-190,5890,1595,-3063,-94,0,0,1,5583,56,-110,5905,1,0,33,-28,-29,2,-3845,0,0,0,1,7,0,1,1,-0.010206066386315818,0.02861364770893749,1.6270771985454535,0,0,0,"","","",NaN,NaN,NaN,NaN
200,140532115,-25,0,0,10000,1580,425,1,-9,2,15,-18,6,-74,55,-2040,-138,-48,-1944,158,160,158,159,5583,56,-110,5905,-1,-2,-1,8127,0,0,0,-3,0,0,-1,2,0,0,0,0,0,0,0,-2,4,-1,1,4,0,3,0,0,0,0,1,2,0,1,0,0,0,0,274,268,278,280,0,0,0,0,274,269,280,281,0,0,0,0,0,0,0,0,0,0,0,0,1595,-3063,-94,140484544,1595,-3063,-97,1500,-3000,0,0,0,1,-1,-1,-9,-10,6,12,-29,19,43,5594,162,-190,5890,1595,-3063,-94,0,0,1,5583,56,-110,5905,1,0,33,-28,-29,2,-3845,0,0,0,1,7,0,1,1,-0.010206066386315818,0.02861364770893749,1.6270771985454535,0,0,0,"","","",NaN,NaN,NaN,NaN
204,140534130,-25,0,0,10000,1580,425,0,-5,1,9,-19,2,-80,44,-2046,43,-45,-1830,158,159,158,159,5583,56,-110,5905,0,-1,-1,8127,0,0,0,-3,0,0,-1,1,0,0,0,0,0,0,0,-1,2,-1,1,2,0,2,0,0,0,0,1,2,0,1,0,0,0,0,274,268,278,280,0,0,0,0,274,268,278,278,0,0,0,0,0,0,0,0,0,0,0,0,1595,-3063,-94,140484544,1595,-3063,-97,1500,-3000,0,0,0,1,-1,-1,-9,-10,6,12,-28,19,43,5594,162,-190,5890,1595,-3063,-94,0,0,1,5583,56,-110,5905,1,0,33,-28,-29,2,-3845,0,0,0,1,7,0,1,1,-0.010206066386315818,0.02861364770893749,1.6270771985454535,0,0,0,"","","",NaN,NaN,NaN,NaN
208,140536145,-25,0,0,10000,1580,425,8,6,5,10,2,10,-78,26,-2041,26,-104,-2496,160,158,158,158,5583,56,-110,5905,1,1,0,8127,0,0,0,-4,0,0,-3,-1,-1,0,0,0,0,0,0,-5,-2,-2,5,1,0,0,0,0,0,0,1,2,0,1,0,0,0,0,274,268,278,280,0,0,0,0,274,269,278,281,0,0,0,0,0,0,0,0,0,0,0,0,1595,-3063,-94,140484544,1595,-3063,-97,1500,-3000,0,0,0,1,-1,-1,-9,-10,6,12,-28,19,43,5594,162,-190,5890,1595,-3063,-94,0,0,1,5583,56,-110,5905,1,0,33,-28,-29,2,-3845,0,0,0,1,7,0,1,1,-0.010206066386315818,0.02861364770893749,1.6270771985454535,0,0,0,"","","",NaN,NaN,NaN,NaN
212,140538159,-25,0,0,10000,1576,425,3,6,4,-1,16,8,-75,9,-2046,-17,-183,-2275,160,158,158,158,5583,56,-110,5905,2,2,1,8127,0,0,0,-4,0,0,-2,-1,-1,0,0,0,0,0,0,-3,-3,-2,4,1,1,0,0,0,0,0,1,2,0,1,0,0,0,0,274,268,278,281,0,0,0,0,274,268,277,280,0,0,0,0,0,0,0,0,0,0,0,0,1595,-3063,-94,140534432,1595,-3063,-96,1500,-3000,0,0,0,1,-3,-15,65,-10,6,12,-28,19,43,5581,186,-177,5902,1595,-3063,-94,0,0,1,5583,56,-110,5905,1,0,35,-28,-30,2,-3845,0,0,0,1,7,0,1,1,-0.010206066386315818,0.02861364770893749,1.6270771985454535,0,0,0,"","","",NaN,NaN,NaN,NaN
216,140540175,-25,0,0,10000,1576,425,2,6,5,-7,9,4,-63,-7,-2052,-80,50,-1960,159,158,158,158,5583,56,-110,5905,2,3,2,8127,0,0,0,-4,0,0,-1,-1,-1,0,0,0,0,0,0,-2,-2,-2,3,0,1,0,0,0,0,0,2,2,0,1,0,0,0,0,274,268,278,281,0,0,0,0,274,269,277,280,0,0,0,0,0,0,0,0,0,0,0,0,1595,-3063,-94,140534432,1595,-3063,-96,1500,-3000,0,0,0,1,-3,-15,65,-10,6,12,-28,19,44,5581,186,-177,5902,1595,-3063,-94,0,0,1,5583,56,-110,5905,1,0,35,-28,-30,2,-3845,0,0,0,1,7,0,1,1,-0.010206066386315818,0.02861364770893749,1.6270771985454535,0,0,0,"","","",NaN,NaN,NaN,NaN
220,140542189,-12,0,0,10000,1576,425,2,3,3,-4,1,3,-57,-15,-2058,119,230,-1940,159,158,158,158,5583,56,-110,5905,2,4,1,8127,0,0,0,-4,0,0,-1,-1,-1,0,0,0,0,0,0,-2,-1,-1,3,1,0,0,0,0,0,0,2,2,0,1,0,0,0,0,274,268,278,281,0,0,0,0,274,268,278,280,0,0,0,0,0,0,0,0,0,0,0,0,1595,-3063,-94,140534432,1595,-3063,-96,1500,-3000,0,0,0,1,-3,-15,65,-10,6,12,-28,19,44,5581,186,-177,5902,1595,-3063,-94,0,0,1,5583,56,-110,5905,1,0,35,-28,-30,2,-3845,0,0,0,1,7,0,1,1,-0.010206066386315818,0.02861364770893749,1.6270771985454535,0,0,0,"","","",NaN,NaN,NaN,NaN
224,140544204,-12,0,0,10000,1576,425,-1,9,1,-17,13,1,-47,-11,-2043,-242,-12,-2700,159,158,159,158,5583,56,-110,5905,1,4,1,8127,0,0,0,-3,0,0,0,-2,0,0,0,0,0,0,0,-1,-4,0,4,0,3,0,0,0,0,0,2,2,1,1,0,0,0,0,274,269,278,281,0,0,0,0,274,266,278,278,0,0,0,0,0,0,0,0,0,0,0,0,1595,-3063,-94,140534432,1595,-3063,-96,1500,-3000,0,0,0,1,-3,-15,65,-10,6,12,-29,19,44,5581,186,-177,5902,1595,-3063,-94,0,0,1,5583,56,-110,5905,1,0,35,-28,-30,2,-3845,0,0,0,1,7,0,1,1,-0.010206066386315818,0.02861364770893749,1.6270771985454535,0,0,0,"","","",NaN,NaN,NaN,NaN
228,140546219,-12,0,0,10000,1576,425,-6,-2,-1,-23,0,1,-45,2,-2046,121,38,-2224,158,158,158,159,5583,56,-110,5905,1,2,0,8127,0,0,0,-3,0,0,1,0,0,0,0,0,0,0,0,1,1,0,0,1,0,2,0,0,0,0,2,2,1,1,0,0,0,0,274,269,278,280,0,0,0,0,274,269,277,281,0,0,0,0,0,0,0,0,0,0,0,0,1595,-3063,-94,140534432,1595,-3063,-96,1500,-3000,0,0,0,1,-3,-15,65,-10,6,12,-29,19,44,5581,186,-177,5902,1595,-3063,-94,0,0,1,5583,56,-110,5905,1,0,35,-28,-30,2,-3845,0,0,0,1,7,0,1,1,-0.010206066386315818,0.02861364770893749,1.6270771985454535,0,0,0,"","","",NaN,NaN,NaN,NaN
232,140548234,-12,0,0,10000,1576,425,-5,-7,-5,0,-22,-9,-44,20,-2041,-60,265,-1970,158,159,159,159,5583,56,-110,5905,-1,1,-1,8127,0,0,0,-2,0,0,1,2,1,0,0,0,0,0,0,1,3,2,0,3,2,3,0,0,0,0,2,2,1,1,0,0,0,0,274,269,278,280,0,0,0,0,274,268,278,281,0,0,0,0,0,0,0,0,0,0,0,0,1595,-3063,-94,140534432,1595,-3063,-96,1500,-3000,0,0,0,1,-3,-15,65,-10,6,12,-29,19,44,5581,186,-177,5902,1595,-3063,-94,0,0,1,5583,56,-110,5905,1,0,35,-28,-30,2,-3845,0,0,0,1,7,0,1,1,-0.010206066386315818,0.02861364770893749,1.6270771985454535,0,0,0,"","","",NaN,NaN,NaN,NaN
236,140550249,-12,0,0,10000,1576,314,1,-8,-3,16,-30,-2,-58,40,-2035,53,60,-2208,158,159,158,159,5583,56,-110,5905,-1,0,-1,8127,0,0,0,-2,0,0,-1,2,1,0,0,0,0,0,0,-1,3,1,0,3,0,2,0,0,0,0,2,2,1,1,0,0,0,0,274,269,278,281,0,0,0,0,274,269,277,280,0,0,0,0,0,0,0,0,0,0,0,0,1595,-3063,-94,140534432,1595,-3063,-96,1500,-3000,0,0,0,1,-3,-15,65,-10,6,12,-29,19,44,5581,186,-177,5902,1595,-3063,-94,0,0,1,5583,56,-110,5905,1,0,35,-28,-30,2,-3845,0,0,0,1,7,0,1,1,-0.010206066386315818,0.02861364770893749,1.6270771985454535,0,0,0,"","","",NaN,NaN,NaN,NaN
240,140552263,-12,0,0,10000,1576,314,-3,-5,-4,-5,0,-3,-64,53,-2033,-236,-99,-2116,158,159,158,159,5583,56,-110,5905,-1,-1,-1,8127,0,0,0,-2,0,0,0,1,1,0,0,0,0,0,0,0,2,1,0,2,1,2,0,0,0,0,1,2,1,1,0,0,0,0,274,269,278,281,0,0,0,0,274,269,277,278,0,0,0,0,0,0,0,0,0,0,0,0,1595,-3063,-94,140534432,1595,-3063,-96,1500,-3000,0,0,0,1,-3,-15,65,-10,6,12,-29,19,44,5581,186,-177,5902,1595,-3063,-94,0,0,1,5583,56,-110,5905,1,0,35,-28,-30,2,-3845,0,0,0,1,7,0,1,1,-0.010206066386315818,0.02861364770893749,1.6270771985454535,0,0,0,"","","",NaN,NaN,NaN,NaN
244,140554278,-12,0,0,10000,1576,314,-3,-3,1,-16,6,5,-76,55,-2028,-11,100,-2049,158,158,158,158,5583,56,-110,5905,-1,-1,-1,8127,0,0,0,-2,0,0,0,1,0,0,0,0,0,0,0,0,1,0,0,1,0,1,0,0,0,0,1,2,1,1,0,0,0,0,274,269,278,281,0,0,0,0,275,266,277,283,0,0,0,0,0,0,0,0,0,0,0,0,1595,-3063,-94,140534432,1595,-3063,-96,1500,-3000,0,0,0,1,-3,-15,65,-10,6,12,-29,19,44,5581,186,-177,5902,1595,-3063,-94,0,0,1,5583,56,-110,5905,1,0,35,-28,-30,2,-3845,0,0,0,1,7,0,1,1,-0.010206066386315818,0.02861364770893749,1.6270771985454535,0,0,0,"","","",NaN,NaN,NaN,NaN
248,140556293,-12,0,0,10000,1576,314,3,2,0,-2,5,6,-78,51,-2021,-224,-119,-2471,158,158,158,158,5583,56,-110,5905,0,-1,-1,8127,0,0,0,-2,0,0,-1,0,0,0,0,0,0,0,0,-2,-1,0,0,1,0,0,0,0,0,0,1,2,1,1,0,0,0,0,274,269,278,281,0,0,0,0,272,269,277,280,0,0,0,0,0,0,0,0,0,0,0,0,1595,-3063,-94,140534432,1595,-3063,-96,1500,-3000,0,0,0,1,-3,-15,65,-10,6,12,-29,19,44,5581,186,-177,5902,1595,-3063,-94,0,0,1,5583,56,-110,5905,1,0,35,-28,-30,2,-3845,0,0,0,1,7,0,1,1,-0.010206066386315818,0.02861364770893749,1.6270771985454535,0,0,0,"","","",NaN,NaN,NaN,NaN
252,140558308,-12,0,0,10000,1575,314,6,6,4,6,12,4,-75,36,-2024,-43,-138,-2049,160,158,158,158,5583,56,-110,5905,1,0,0,8127,0,0,0,-2,0,0,-2,-1,-1,0,0,0,0,0,0,-3,-2,-2,4,1,0,0,0,0,0,0,1,2,0,1,0,0,0,0,274,269,278,281,0,0,0,0,274,268,277,281,0,0,0,0,0,0,0,0,0,0,0,0,1595,-3063,-94,140534432,1595,-3063,-96,1500,-3000,0,0,0,1,-3,-15,65,-10,6,12,-28,19,44,5581,186,-177,5902,1595,-3063,-94,0,0,1,5583,56,-110,5905,1,0,35,-28,-30,2,-3845,0,0,0,1,7,0,1,1,-0.010206066386315818,0.02861364770893749,1.6270771985454535,0,0,0,"","","",NaN,NaN,NaN,NaN
256,140560323,-12,0,0,10000,1575,314,3,6,1,4,3,-1,-70,17,-2032,-55,-7,-1943,159,158,159,158,5583,56,-110,5905,1,2,0,8127,0,0,0,-2,0,0,-1,-1,0,0,0,0,0,0,0,-2,-3,-1,4,1,2,0,0,0,0,0,2,2,0,1,0,0,0,0,274,269,278,281,0,0,0,0,274,268,278,280,0,0,0,0,0,0,0,0,0,0,0,0,1595,-3063,-94,140534432,1595,-3063,-96,1500,-3000,0,0,0,1,-3,-15,65,-10,6,12,-28,20,44,5581,186,-177,5902,1595,-3063,-94,0,0,1,5583,56,-110,5905,1,0,35,-28,-30,2,-3845,0,0,0,1,7,0,1,1,-0.010206066386315818,0.02861364770893749,1.6270771985454535,0,0,0,"","","",NaN,NaN,NaN,NaN
260,140562338,-12,0,0,10000,1575,314,9,12,5,9,12,3,-62,-2,-2036,57,-59,-2237,161,158,159,158,5583,56,-110,5905,3,4,1,8127,0,0,0,-2,0,0,-3,-3,-1,0,0,0,0,0,0,-4,-5,-2,7,1,3,0,0,0,0,0,2,2,1,1,0,0,0,0,274,269,278,281,0,0,0,0,272,268,277,281,0,0,0,0,0,0,0,0,0,0,0,0,1595,-3063,-94,140534432,1595,-3063,-96,1500,-3000,0,0,0,1,-3,-15,65,-10,6,12,-28,20,44,5581,186,-177,5902,1595,-3063,-94,0,0,1,5583,56,-110,5905,1,0,35,-28,-30,2,-3845,0,0,0,1,7,0,1,1,-0.010206066386315818,0.02861364770893749,1.6270771985454535,0,0,0,"","","",NaN,NaN,NaN,NaN
264,140564352,-12,0,0,10000,1575,314,5,7,3,6,-3,10,-53,-10,-2036,-128,16,-2399,160,158,158,158,5583,56,-109,5905,2,4,1,8127,0,0,0,-2,0,0,-2,-2,-1,0,0,0,0,0,0,-3,-3,-1,4,1,1,0,0,0,0,0,2,2,1,1,0,0,0,0,274,269,278,281,0,0,0,0,274,268,280,280,0,0,0,0,0,0,0,0,0,0,0,0,1595,-3063,-94,140534432,1595,-3063,-96,1500,-3000,0,0,0,1,-3,-15,65,-10,6,12,-28,20,44,5581,186,-177,5902,1595,-3063,-94,0,0,1,5583,56,-109,5905,1,0,35,-28,-30,2,-3845,0,0,0,1,7,0,1,1,-0.010027126520614299,0.02844451962432195,1.6270704749807454,0,0,0,"","","",NaN,NaN,NaN,NaN
268,140566367,-12,0,0,10000,1575,314,2,5,0,6,3,-4,-40,-10,-2042,-162,145,-1986,159,158,159,158,5583,56,-109,5905,2,3,1,8127,0,0,0,-2,0,0,-1,-1,0,0,0,0,0,0,0,-2,-2,0,3,1,1,0,0,0,0,0,2,2,1,1,0,0,0,0,274,268,278,281,0,0,0,0,274,271,277,278,0,0,0,0,0,0,0,0,0,0,0,0,1595,-3063,-94,140534432,1595,-3063,-96,1500,-3000,0,0,0,1,-3,-15,65,-10,6,12,-29,20,44,5581,186,-177,5902,1595,-3063,-94,0,0,1,5583,56,-109,5905,1,0,35,-28,-30,2,-3845,0,0,0,1,7,0,1,1,-0.010027126520614299,0.02844451962432195,1.6270704749807454,0,0,0,"","","",NaN,NaN,NaN,NaN
272,140568382,-12,0,0,10000,1575,314,-3,3,0,-12,-1,-3,-40,-1,-2042,-70,155,-2271,158,158,158,158,5583,56,-109,5905,1,3,0,8127,0,0,0,-2,0,0,0,-1,0,0,0,0,0,0,0,0,-1,0,1,0,1,0,0,0,0,0,2,1,1,1,0,0,0,0,274,268,278,281,0,0,0,0,272,268,277,281,0,0,0,0,0,0,0,0,0,0,0,0,1595,-3063,-94,140534432,1595,-3063,-96,1500,-3000,0,0,0,1,-3,-15,65,-10,6,12,-29,20,44,5581,186,-177,5902,1595,-3063,-94,0,0,1,5583,56,-109,5905,1,0,35,-28,-30,2,-3845,0,0,0,1,7,0,1,1,-0.010027126520614299,0.02844451962432195,1.6270704749807454,0,0,0,"","","",NaN,NaN,NaN,NaN
276,140570397,-12,0,0,10000,1575,292,-3,1,-2,-10,-2,-4,-38,16,-2041,-233,89,-2269,158,158,158,158,5583,56,-109,5905,0,1,0,8127,0,0,0,-2,0,0,0,0,1,0,0,0,0,0,0,1,0,1,0,0,1,0,0,0,0,0,2,1,1,1,0,0,0,0,274,268,278,281,0,0,0,0,275,269,278,278,0,0,0,0,0,0,0,0,0,0,0,0,1595,-3063,-94,140534432,1595,-3063,-96,1500,-3000,0,0,0,1,-3,-15,65,-10,6,12,-29,19,44,5581,186,-177,5902,1595,-3063,-94,0,0,1,5583,56,-109,5905,1,0,35,-28,-30,2,-3845,0,0,0,1,7,0,1,1,-0.010027126520614299,0.02844451962432195,1.6270704749807454,0,0,0,"","","",NaN,NaN,NaN,NaN
280,140572412,-12,0,0,10000,1575,292,-4,-4,-2,-6,-11,2,-48,33,-2040,-58,208,-1944,158,159,158,159,5583,56,-109,5905,-1,0,-1,8127,0,0,0,-2,0,0,1,1,1,0,0,0,0,0,0,1,2,1,0,2,1,2,0,0,0,0,2,1,1,1,0,0,0,0,274,268,278,281,0,0,0,0,274,269,278,281,0,0,0,0,0,0,0,0,0,0,0,0,1595,-3063,-94,140534432,1595,-3063,-96,1500,-3000,0,0,0,1,-3,-15,65,-10,6,12,-29,19,44,5581,186,-177,5902,1595,-3063,-94,0,0,1,5583,56,-109,5905,1,0,35,-28,-30,2,-3845,0,0,0,1,7,0,1,1,-0.010027126520614299,0.02844451962432195,1.6270704749807454,0,0,0,"","","",NaN,NaN,NaN,NaN
284,140574427,-12,0,0,10000,1575,292,-2,-10,-3,4,-19,-4,-53,50,-2036,-255,76,-2069,158,159,158,159,5583,56,-110,5905,-1,-2,-1,8127,0,0,0,-2,0,0,0,2,1,0,0,0,0,0,0,0,4,1,0,4,0,4,0,0,0,0,2,2,1,1,0,0,0,0,274,268,278,281,0,0,0,0,272,269,280,281,0,0,0,0,0,0,0,0,0,0,0,0,1595,-3063,-94,140534432,1595,-3063,-96,1500,-3000,0,0,0,1,-3,-15,65,-10,6,12,-29,19,44,5581,186,-177,5902,1595,-3063,-94,0,0,1,5583,56,-110,5905,1,0,35,-28,-30,2,-3845,0,0,0,1,7,0,1,1,-0.010206066386315818,0.02861364770893749,1.6270771985454535,0,0,0,"","","",NaN,NaN,NaN,NaN
288,140576441,-12,0,0,10000,1575,292,3,-2,1,14,-3,10,-69,54,-2037,144,58,-2139,158,159,158,158,5583,56,-110,5905,-1,-2,-1,8127,0,0,0,-2,0,0,-1,1,0,0,0,0,0,0,0,-2,1,0,0,2,0,1,0,0,0,0,2,2,1,1,0,0,0,0,274,268,278,281,0,0,0,0,275,269,277,281,0,0,0,0,0,0,0,0,0,0,0,0,1595,-3063,-94,140534432,1595,-3063,-96,1500,-3000,0,0,0,1,-3,-15,65,-10,6,12,-29,19,44,5581,186,-177,5902,1595,-3063,-94,0,0,1,5583,56,-110,5905,1,0,35,-28,-30,2,-3845,0,0,0,1,7,0,1,1,-0.010206066386315818,0.02861364770893749,1.6270771985454535,0,0,0,"","","",NaN,NaN,NaN,NaN
292,140578456,-12,0,0,10000,1584,292,5,-1,-2,15,-4,2,-72,50,-2039,-208,64,-1879,159,159,158,158,5583,56,-110,5905,0,-2,-1,8127,0,0,0,-2,0,0,-2,0,0,0,0,0,0,0,0,-3,0,1,2,2,0,0,0,0,0,0,2,2,1,1,0,0,0,0,274,268,278,281,0,0,0,0,275,268,277,280,0,0,0,0,0,0,0,0,0,0,0,0,1595,-3063,-94,140534432,1595,-3063,-96,1500,-3000,0,0,0,1,-3,-15,65,-10,6,12,-29,19,44,5581,186,-177,5902,1595,-3063,-94,0,0,1,5583,56,-110,5905,1,0,35,-28,-30,2,-3845,0,0,0,1,7,0,1,1,-0.010206066386315818,0.02861364770893749,1.6270771985454535,0,0,0,"","","",NaN,NaN,NaN,NaN
296,140580471,-12,0,0,10000,1584,292,8,2,3,22,-2,3,-74,40,-2036,18,-146,-1972,159,159,158,158,5583,56,-109,5905,0,-1,0,8127,0,0,0,-2,0,0,-2,-1,-1,0,0,0,0,0,0,-4,-1,-1,4,2,0,0,0,0,0,0,2,2,1,1,0,0,0,0,274,268,278,281,0,0,0,0,274,269,277,278,0,0,0,0,0,0,0,0,0,0,0,0,1595,-3063,-94,140534432,1595,-3063,-96,1500,-3000,0,0,0,1,-3,-15,65,-10,6,12,-28,19,44,5581,186,-177,5902,1595,-3063,-94,0,0,1,5583,56,-109,5905,1,0,35,-28,-30,2,-3845,0,0,0,1,7,0,1,1,-0.010027126520614299,0.02844451962432195,1.6270704749807454,0,0,0,"","","",NaN,NaN,NaN,NaN
300,140582486,-12,0,0,10000,1584,292,8,4,2,12,-4,4,-67,24,-2038,-167,-87,-1938,160,159,158,158,5583,56,-109,5905,2,0,0,8127,0,0,0,-2,0,0,-2,-1,0,0,0,0,0,0,0,-4,-2,-1,4,2,1,0,0,0,0,0,2,2,1,1,0,0,0,0,274,268,278,281,0,0,0,0,275,269,278,280,0,0,0,0,0,0,0,0,0,0,0,0,1595,-3063,-94,140534432,1595,-3063,-96,1500,-3000,0,0,0,1,-3,-15,65,-10,6,12,-28,20,44,5581,186,-177,5902,1595,-3063,-94,0,0,1,5583,56,-109,5905,1,0,35,-28,-30,2,-3845,0,0,0,1,7,0,1,1,-0.010027126520614299,0.02844451962432195,1.6270704749807454,0,0,0,"","","",NaN,NaN,NaN,NaN
304,140584501,-12,0,0,10000,1584,292,9,7,4,23,-5,0,-63,5,-2047,59,-53,-1859,160,158,158,158,5583,56,-109,5905,2,2,1,8127,0,0,0,-2,0,0,-2,-2,-1,0,0,0,0,0,0,-4,-3,-2,5,1,1,0,0,0,0,0,2,2,1,1,0,0,0,0,274,268,278,281,0,0,0,0,272,268,278,281,0,0,0,0,0,0,0,0,0,0,0,0,1595,-3063,-94,140534432,1595,-3063,-96,1500,-3000,0,0,0,1,-3,-15,65,-10,6,12,-28,20,44,5581,186,-177,5902,1595,-3063,-94,0,0,1,5583,56,-109,5905,1,0,35,-28,-30,2,-3845,0,0,0,1,7,0,1,1,-0.010027126520614299,0.02844451962432195,1.6270704749807454,0,0,0,"","","",NaN,NaN,NaN,NaN
308,140586516,-12,0,0,10000,1584,292,9,6,3,22,-10,5,-50,-7,-2055,-129,173,-1698,160,159,158,158,5583,56,-109,5905,2,3,1,8127,0,0,0,-2,0,0,-2,-1,-1,0,0,0,0,0,0,-4,-2,-1,5,2,1,0,0,0,0,0,2,2,1,1,0,0,0,0,274,268,278,281,0,0,0,0,277,269,277,280,0,0,0,0,0,0,0,0,0,0,0,0,1595,-3063,-94,140534432,1595,-3063,-96,1500,-3000,0,0,0,1,-3,-15,65,-10,6,12,-28,20,44,5581,186,-177,5902,1595,-3063,-94,0,0,1,5583,56,-109,5905,1,0,35,-28,-30,2,-3845,0,0,0,1,7,0,1,1,-0.010027126520614299,0.02844451962432195,1.6270704749807454,0,0,0,"","","",NaN,NaN,NaN,NaN
312,140588560,-12,0,0,10000,1584,292,6,5,2,15,0,1,-42,-9,-2053,-94,79,-1980,159,158,158,158,5583,57,-109,5905,1,3,1,8127,0,0,0,-2,0,0,-2,-1,0,0,0,0,0,0,0,-3,-2,-1,4,1,1,0,0,0,0,0,2,2,1,1,0,0,0,0,274,268,278,281,0,0,0,0,274,268,277,277,0,0,0,0,0,0,0,0,0,0,0,0,1595,-3063,-94,140585792,1595,-3063,-96,1500,-3000,0,0,0,1,1,2,3,-10,6,12,-28,20,44,5578,178,-139,5906,1595,-3063,-94,0,0,1,5583,57,-109,5905,1,0,36,-27,-22,2,-3845,0,0,0,1,7,0,1,1,-0.009858041505502773,0.028623402650767262,1.62707065942252,0,0,0,"","","",NaN,NaN,NaN,NaN
316,140590545,-12,0,0,10000,1584,246,4,2,1,-15,8,1,-34,-6,-2062,-254,61,-2091,159,158,158,158,5583,57,-109,5905,2,2,1,8127,0,0,0,-2,0,0,-1,-1,0,0,0,0,0,0,0,-2,-1,0,2,1,0,0,0,0,0,0,3,2,1,1,0,0,0,0,274,268,278,280,0,0,0,0,274,269,278,281,0,0,0,0,0,0,0,0,0,0,0,0,1595,-3063,-94,140585792,1595,-3063,-96,1500,-3000,0,0,0,1,1,2,3,-10,6,12,-29,19,45,5578,178,-139,5906,1595,-3063,-94,0,0,1,5583,57,-109,5905,1,0,36,-27,-22,2,-3845,0,0,0,1,7,0,1,1,-0.009858041505502773,0.028623402650767262,1.62707065942252,0,0,0,"","","",NaN,NaN,NaN,NaN
320,140592560,-12,0,0,10000,1584,246,-7,0,-3,-29,18,-9,-31,9,-2056,-12,78,-2206,158,158,158,159,5583,57,-109,5905,0,0,0,8127,0,0,0,-2,0,0,1,0,1,0,0,0,0,0,0,2,0,1,0,1,0,1,0,0,0,0,2,2,1,1,0,0,0,0,274,268,278,280,0,0,0,0,274,268,278,281,0,0,0,0,0,0,0,0,0,0,0,0,1595,-3063,-94,140585792,1595,-3063,-96,1500,-3000,0,0,0,1,1,2,3,-10,6,12,-29,19,45,5578,178,-139,5906,1595,-3063,-94,0,0,1,5583,57,-109,5905,1,0,36,-27,-22,2,-3845,0,0,0,1,7,0,1,1,-0.009858041505502773,0.028623402650767262,1.62707065942252,0,0,0,"","","",NaN,NaN,NaN,NaN
324,140594575,-12,0,0,10000,1584,246,1,-7,-3,-7,-1,-1,-39,28,-2055,49,-16,-1933,158,159,158,159,5583,57,-109,5905,0,-2,-1,8127,0,0,0,-2,0,0,-1,2,1,0,0,0,0,0,0,-1,3,1,0,3,0,2,0,0,0,0,2,2,1,1,0,0,0,0,274,268,278,280,0,0,0,0,272,268,277,280,0,0,0,0,0,0,0,0,0,0,0,0,1595,-3063,-94,140585792,1595,-3063,-96,1500,-3000,0,0,0,1,1,2,3,-10,6,12,-29,19,45,5578,178,-139,5906,1595,-3063,-94,0,0,1,5583,57,-109,5905,1,0,36,-27,-22,2,-3845,0,0,0,1,7,0,1,1,-0.009858041505502773,0.028623402650767262,1.62707065942252,0,0,0,"","","",NaN,NaN,NaN,NaN
328,140596590,-25,0,0,10000,1584,246,-4,-7,-4,-8,-3,-6,-52,44,-2036,-54,83,-2033,158,159,158,159,5583,57,-109,5905,-2,-3,-1,8127,0,0,0,-2,0,0,0,2,1,0,0,0,0,0,0,1,3,2,0,2,0,3,0,0,0,0,2,2,1,1,0,0,0,0,274,268,278,280,0,0,0,0,275,269,278,280,0,0,0,0,0,0,0,0,0,0,0,0,1595,-3063,-94,140585792,1595,-3063,-96,1500,-3000,0,0,0,1,1,2,3,-10,6,12,-29,19,45,5578,178,-139,5906,1595,-3063,-94,0,0,1,5583,57,-109,5905,1,0,36,-27,-22,2,-3845,0,0,0,1,7,0,1,1,-0.009858041505502773,0.028623402650767262,1.62707065942252,0,0,0,"","","",NaN,NaN,NaN,NaN
332,140598605,-25,0,0,10000,1584,246,3,-14,-1,8,-25,3,-68,50,-2037,85,44,-2109,158,161,158,159,5583,57,-110,5905,-1,-4,-1,8127,0,0,0,-2,0,0,-1,3,0,0,0,0,0,0,0,-2,6,1,0,7,0,3,0,0,0,0,2,2,1,1,0,0,0,0,274,268,278,280,0,0,0,0,274,268,278,280,0,0,0,0,0,0,0,0,0,0,0,0,1595,-3063,-94,140585792,1595,-3063,-96,1500,-3000,0,0,0,1,1,2,3,-10,6,12,-29,19,45,5578,178,-139,5906,1595,-3063,-94,0,0,1,5583,57,-110,5905,1,0,36,-27,-22,2,-3845,0,0,0,1,7,0,1,1,-0.010036982065795471,0.028792529738035064,1.6270773830094911,0,0,0,"","","",NaN,NaN,NaN,NaN
336,140600619,-25,0,0,10000,1584,246,-2,-1,-2,-11,-3,3,-73,45,-2028,-156,78,-2450,158,158,158,158,5583,57,-110,5905,-1,-3,-1,8127,0,0,0,-3,0,0,0,0,0,0,0,0,0,0,0,0,0,1,0,1,0,0,0,0,0,0,2,2,1,1,0,0,0,0,274,268,278,280,0,0,0,0,272,268,275,281,0,0,0,0,0,0,0,0,0,0,0,0,1595,-3063,-94,140585792,1595,-3063,-96,1500,-3000,0,0,0,1,1,2,3,-10,6,12,-28,19,45,5578,178,-139,5906,1595,-3063,-94,0,0,1,5583,57,-110,5905,1,0,36,-27,-22,2,-3845,0,0,0,1,7,0,1,1,-0.010036982065795471,0.028792529738035064,1.6270773830094911,0,0,0,"","","",NaN,NaN,NaN,NaN
340,140602634,-25,0,0,10000,1584,246,5,0,-1,3,5,2,-78,41,-2028,-98,-222,-2310,159,159,158,158,5583,57,-110,5905,-1,-3,-1,8127,0,0,0,-3,0,0,-2,0,0,0,0,0,0,0,0,-3,0,0,2,2,0,0,0,0,0,0,2,2,1,1,0,0,0,0,274,268,278,280,0,0,0,0,275,271,278,281,0,0,0,0,0,0,0,0,0,0,0,0,1595,-3063,-94,140585792,1595,-3063,-96,1500,-3000,0,0,0,1,1,2,3,-10,6,12,-28,19,45,5578,178,-139,5906,1595,-3063,-94,0,0,1,5583,57,-110,5905,1,0,36,-27,-22,2,-3845,0,0,0,1,7,0,1,1,-0.010036982065795471,0.028792529738035064,1.6270773830094911,0,0,0,"","","",NaN,NaN,NaN,NaN
344,140604649,-25,0,0,10000,1584,246,4,8,2,-5,9,-4,-73,20,-2027,5,11,-2038,160,158,158,158,5583,57,-110,5905,0,-1,0,8127,0,0,0,-3,0,0,-2,-2,0,0,0,0,0,0,0,-3,-3,-1,6,0,0,0,0,0,0,0,2,2,1,1,0,0,0,0,274,268,278,280,0,0,0,0,274,269,277,280,0,0,0,0,0,0,0,0,0,0,0,0,1595,-3063,-94,140585792,1595,-3063,-96,1500,-3000,0,0,0,1,1,2,3,-10,6,12,-28,19,45,5578,178,-139,5906,1595,-3063,-94,0,0,1,5583,57,-110,5905,1,0,36,-27,-22,2,-3845,0,0,0,1,7,0,1,1,-0.010036982065795471,0.028792529738035064,1.6270773830094911,0,0,0,"","","",NaN,NaN,NaN,NaN
348,140606664,-25,0,0,10000,1584,246,8,8,3,11,10,7,-67,7,-2034,106,-206,-2027,160,159,159,158,5583,57,-109,5905,1,1,0,8127,0,0,0,-4,0,0,-3,-2,-1,0,0,0,0,0,0,-5,-3,-1,6,2,2,0,0,0,0,0,2,2,1,1,0,0,0,0,274,269,278,280,0,0,0,0,274,269,280,280,0,0,0,0,0,0,0,0,0,0,0,0,1595,-3063,-94,140585792,1595,-3063,-96,1500,-3000,0,0,0,1,1,2,3,-10,6,12,-28,19,45,5578,178,-139,5906,1595,-3063,-94,0,0,1,5583,57,-109,5905,1,0,36,-27,-22,2,-3845,0,0,0,1,7,0,1,1,-0.009858041505502773,0.028623402650767262,1.62707065942252,0,0,0,"","","",NaN,NaN,NaN,NaN
352,140608679,-25,0,0,10000,1584,246,6,7,4,-4,2,5,-53,-8,-2039,30,46,-2078,160,158,158,158,5583,57,-109,5905,2,2,1,8127,0,0,0,-4,0,0,-2,-2,-1,0,0,0,0,0,0,-4,-3,-2,5,1,1,0,0,0,0,0,2,2,1,1,0,0,0,0,274,269,278,280,0,0,0,0,275,268,277,281,0,0,0,0,0,0,0,0,0,0,0,0,1595,-3063,-94,140585792,1595,-3063,-96,1500,-3000,0,0,0,1,1,2,3,-10,6,12,-28,19,44,5578,178,-139,5906,1595,-3063,-94,0,0,1,5583,57,-109,5905,1,0,36,-27,-22,2,-3845,0,0,0,1,7,0,1,1,-0.009858041505502773,0.028623402650767262,1.62707065942252,0,0,0,"","","",NaN,NaN,NaN,NaN
356,140610694,-25,0,0,10000,1584,414,6,4,3,11,1,8,-47,-8,-2037,83,117,-2204,159,159,158,158,5583,57,-109,5905,1,2,1,8127,0,0,0,-4,0,0,-2,-1,-1,0,0,0,0,0,0,-4,-1,-1,4,2,0,0,0,0,0,0,3,2,1,1,0,0,0,0,274,269,278,280,0,0,0,0,272,268,277,280,0,0,0,0,0,0,0,0,0,0,0,0,1595,-3063,-94,140585792,1595,-3063,-96,1500,-3000,0,0,0,1,1,2,3,-10,6,12,-28,19,44,5578,178,-139,5906,1595,-3063,-94,0,0,1,5583,57,-109,5905,1,0,36,-27,-22,2,-3845,0,0,0,1,7,0,1,1,-0.009858041505502773,0.028623402650767262,1.62707065942252,0,0,0,"","","",NaN,NaN,NaN,NaN
360,140612708,-25,0,0,10000,1584,414,0,3,2,-11,-7,4,-37,-9,-2043,-197,29,-2447,159,158,158,158,5583,57,-109,5905,1,2,1,8127,0,0,0,-4,0,0,-1,-1,0,0,0,0,0,0,0,-1,-1,-1,2,0,0,0,0,0,0,0,3,2,1,1,0,0,0,0,274,269,278,280,0,0,0,0,274,268,280,281,0,0,0,0,0,0,0,0,0,0,0,0,1595,-3063,-94,140585792,1595,-3063,-96,1500,-3000,0,0,0,1,1,2,3,-10,6,12,-29,19,44,5578,178,-139,5906,1595,-3063,-94,0,0,1,5583,57,-109,5905,1,0,36,-27,-22,2,-3845,0,0,0,1,7,0,1,1,-0.009858041505502773,0.028623402650767262,1.62707065942252,0,0,0,"","","",NaN,NaN,NaN,NaN
364,140614723,-12,0,0,10000,1584,414,-7,-2,1,-15,-6,-3,-34,3,-2044,-113,95,-2319,158,158,158,158,5583,57,-109,5905,-1,1,1,8127,0,0,0,-3,0,0,1,0,0,0,0,0,0,0,0,1,1,0,0,0,0,1,0,0,0,0,2,2,1,1,0,0,0,0,274,269,278,280,0,0,0,0,274,268,280,280,0,0,0,0,0,0,0,0,0,0,0,0,1595,-3063,-94,140585792,1595,-3063,-96,1500,-3000,0,0,0,1,1,2,3,-10,6,12,-29,19,44,5578,178,-139,5906,1595,-3063,-94,0,0,1,5583,57,-109,5905,1,0,36,-27,-22,2,-3845,0,0,0,1,7,0,1,1,-0.009858041505502773,0.028623402650767262,1.62707065942252,0,0,0,"","","",NaN,NaN,NaN,NaN
368,140616738,-12,0,0,10000,1584,414,-7,-7,-2,-8,-16,-2,-41,18,-2040,-29,147,-2187,158,158,158,159,5583,57,-109,5905,-2,-1,0,8127,0,0,0,-3,0,0,1,2,0,0,0,0,0,0,0,2,3,1,0,1,0,3,0,0,0,0,2,2,1,1,0,0,0,0,274,269,278,280,0,0,0,0,274,271,277,278,0,0,0,0,0,0,0,0,0,0,0,0,1595,-3063,-94,140585792,1595,-3063,-96,1500,-3000,0,0,0,1,1,2,3,-10,6,12,-29,19,44,5578,178,-139,5906,1595,-3063,-94,0,0,1,5583,57,-109,5905,1,0,36,-27,-22,2,-3845,0,0,0,1,7,0,1,1,-0.009858041505502773,0.028623402650767262,1.62707065942252,0,0,0,"","","",NaN,NaN,NaN,NaN
372,140618753,-12,0,0,10000,1585,414,-8,-4,-2,-25,-3,-6,-48,33,-2029,-147,-2,-2431,158,159,158,159,5583,57,-109,5905,-2,-2,0,8127,0,0,0,-3,0,0,1,1,0,0,0,0,0,0,0,2,2,1,0,2,0,3,0,0,0,0,2,2,1,1,0,0,0,0,274,269,278,280,0,0,0,0,274,268,277,281,0,0,0,0,0,0,0,0,0,0,0,0,1595,-3063,-94,140585792,1595,-3063,-96,1500,-3000,0,0,0,1,1,2,3,-10,6,12,-29,19,44,5578,178,-139,5906,1595,-3063,-94,0,0,1,5583,57,-109,5905,1,0,36,-27,-22,2,-3845,0,0,0,1,7,0,1,1,-0.009858041505502773,0.028623402650767262,1.62707065942252,0,0,0,"","","",NaN,NaN,NaN,NaN
376,140620768,-12,0,0,10000,1585,414,-7,-5,-4,-4,8,0,-63,44,-2024,-236,-88,-2271,158,159,159,159,5583,57,-110,5905,-4,-4,-1,8127,0,0,0,-2,0,0,1,1,1,0,0,0,0,0,0,2,2,1,0,2,2,3,0,0,0,0,2,2,1,1,0,0,0,0,274,269,278,280,0,0,0,0,274,269,278,280,0,0,0,0,0,0,0,0,0,0,0,0,1595,-3063,-94,140585792,1595,-3063,-96,1500,-3000,0,0,0,1,1,2,3,-10,6,12,-29,19,44,5578,178,-139,5906,1595,-3063,-94,0,0,1,5583,57,-110,5905,1,0,36,-27,-22,2,-3845,0,0,0,1,7,0,1,1,-0.010036982065795471,0.028792529738035064,1.6270773830094911,0,0,0,"","","",NaN,NaN,NaN,NaN
380,140622782,-12,0,0,10000,1585,414,0,-5,-1,-4,7,-5,-70,42,-2025,-10,32,-1875,158,159,158,158,5583,57,-110,5905,-2,-4,0,8127,0,0,0,-2,0,0,0,1,0,0,0,0,0,0,0,-1,2,0,0,2,0,1,0,0,0,0,2,2,1,1,0,0,0,0,274,269,278,280,0,0,0,0,275,271,280,281,0,0,0,0,0,0,0,0,0,0,0,0,1595,-3063,-94,140585792,1595,-3063,-96,1500,-3000,0,0,0,1,1,2,3,-10,6,12,-29,19,44,5578,178,-139,5906,1595,-3063,-94,0,0,1,5583,57,-110,5905,1,0,36,-27,-22,2,-3845,0,0,0,1,7,0,1,1,-0.010036982065795471,0.028792529738035064,1.6270773830094911,0,0,0,"","","",NaN,NaN,NaN,NaN
384,140624797,-12,0,0,10000,1585,414,3,1,-1,10,18,1,-79,40,-2016,-146,-74,-1951,158,158,158,158,5583,57,-110,5905,-2,-3,-1,8127,0,0,0,-2,0,0,-1,0,0,0,0,0,0,0,0,-2,0,1,1,1,0,0,0,0,0,0,2,2,1,1,0,0,0,0,274,269,278,280,0,0,0,0,275,268,278,277,0,0,0,0,0,0,0,0,0,0,0,0,1595,-3063,-94,140585792,1595,-3063,-96,1500,-3000,0,0,0,1,1,2,3,-10,6,12,-29,19,44,5578,178,-139,5906,1595,-3063,-94,0,0,1,5583,57,-110,5905,1,0,36,-27,-22,2,-3845,0,0,0,1,7,0,1,1,-0.010036982065795471,0.028792529738035064,1.6270773830094911,0,0,0,"","","",NaN,NaN,NaN,NaN
388,140626812,-12,0,0,10000,1585,414,6,2,0,2,6,0,-72,24,-2023,-101,4,-1848,159,159,158,158,5583,57,-110,5905,0,-2,-1,8127,0,0,0,-2,0,0,-2,0,0,0,0,0,0,0,0,-3,-1,0,2,1,0,0,0,0,0,0,2,2,0,1,0,0,0,0,274,269,278,280,0,0,0,0,272,271,278,281,0,0,0,0,0,0,0,0,0,0,0,0,1595,-3063,-94,140585792,1595,-3063,-96,1500,-3000,0,0,0,1,1,2,3,-10,6,12,-28,19,44,5578,178,-139,5906,1595,-3063,-94,0,0,1,5583,57,-110,5905,1,0,36,-27,-22,2,-3845,0,0,0,1,7,0,1,1,-0.010036982065795471,0.028792529738035064,1.6270773830094911,0,0,0,"","","",NaN,NaN,NaN,NaN
392,140628827,-12,0,0,10000,1585,414,5,5,0,19,6,-2,-70,11,-2033,-59,3,-1897,159,159,159,158,5583,57,-110,5905,0,0,-1,8127,0,0,0,-2,0,0,-2,-1,0,0,0,0,0,0,0,-3,-2,0,4,2,1,0,0,0,0,0,2,2,1,1,0,0,0,0,274,269,278,280,0,0,0,0,274,269,280,281,0,0,0,0,0,0,0,0,0,0,0,0,1595,-3063,-94,140585792,1595,-3063,-96,1500,-3000,0,0,0,1,1,2,3,-10,6,12,-28,19,44,5578,178,-139,5906,1595,-3063,-94,0,0,1,5583,57,-110,5905,1,0,36,-27,-22,2,-3845,0,0,0,1,7,0,1,1,-0.010036982065795471,0.028792529738035064,1.6270773830094911,0,0,0,"","","",NaN,NaN,NaN,NaN
396,140630842,-12,0,0,10000,1585,385,6,8,2,13,3,-2,-57,-1,-2043,33,-105,-1810,160,158,159,158,5583,57,-109,5905,1,2,0,8127,0,0,0,-2,0,0,-2,-2,0,0,0,0,0,0,0,-3,-3,-1,5,1,2,0,0,0,0,0,2,2,1,1,0,0,0,0,274,269,278,280,0,0,0,0,274,268,278,281,0,0,0,0,0,0,0,0,0,0,0,0,1595,-3063,-94,140585792,1595,-3063,-96,1500,-3000,0,0,0,1,1,2,3,-10,6,12,-28,19,44,5578,178,-139,5906,1595,-3063,-94,0,0,1,5583,57,-109,5905,1,0,36,-27,-22,2,-3845,0,0,0,1,7,0,1,1,-0.009858041505502773,0.028623402650767262,1.62707065942252,0,0,0,"","","",NaN,NaN,NaN,NaN
400,140632857,-12,0,0,10000,1585,385,-1,3,1,13,-9,-2,-52,-8,-2041,-10,94,-2047,158,158,158,158,5583,57,-109,5905,0,2,0,8127,0,0,0,-2,0,0,0,-1,0,0,0,0,0,0,0,0,-1,0,1,0,1,0,0,0,0,0,2,2,1,1,0,0,0,0,274,269,278,280,0,0,0,0,274,269,275,281,0,0,0,0,0,0,0,0,0,0,0,0,1595,-3063,-94,140585792,1595,-3063,-96,1500,-3000,0,0,0,1,1,2,3,-10,6,12,-29,19,44,5578,178,-139,5906,1595,-3063,-94,0,0,1,5583,57,-109,5905,1,0,36,-27,-22,2,-3845,0,0,0,1,7,0,1,1,-0.009858041505502773,0.028623402650767262,1.62707065942252,0,0,0,"","","",NaN,NaN,NaN,NaN
404,140634871,-12,0,0,10000,1585,385,-2,0,3,8,-6,3,-41,-5,-2045,-155,-41,-2012,158,158,158,158,5583,57,-109,5905,-1,2,1,8127,0,0,0,-2,0,0,0,0,-1,0,0,0,0,0,0,0,0,-1,1,0,0,1,0,0,0,0,2,2,1,1,0,0,0,0,274,269,278,280,0,0,0,0,275,269,277,278,0,0,0,0,0,0,0,0,0,0,0,0,1595,-3063,-94,140585792,1595,-3063,-96,1500,-3000,0,0,0,1,1,2,3,-10,6,12,-29,19,44,5578,178,-139,5906,1595,-3063,-94,0,0,1,5583,57,-109,5905,1,0,36,-27,-22,2,-3845,0,0,0,1,7,0,1,1,-0.009858041505502773,0.028623402650767262,1.62707065942252,0,0,0,"","","",NaN,NaN,NaN,NaN
